[{"label":"Benguela","lat":"-12.57626","lng":"13.40547"},{"label":"Caála","lat":"-12.8525","lng":"15.56056"},{"label":"Cabinda","lat":"-5.56717","lng":"12.19787"},{"label":"Caconda","lat":"-13.73564","lng":"15.0618"},{"label":"Camabatela","lat":"-8.18812","lng":"15.37495"},{"label":"Camacupa","lat":"-12.01667","lng":"17.48333"},{"label":"Catabola","lat":"-12.15","lng":"17.28333"},{"label":"Catumbela","lat":"-12.43002","lng":"13.54677"},{"label":"Caxito","lat":"-8.57848","lng":"13.66425"},{"label":"Cazaji","lat":"-11.06715","lng":"20.70148"},{"label":"Chela","lat":"-12.30261","lng":"15.43358"},{"label":"Chinjenje","lat":"-12.93244","lng":"14.99238"},{"label":"Chissamba","lat":"-12.16667","lng":"17.33333"},{"label":"Cuito","lat":"-12.38333","lng":"16.93333"},{"label":"Dundo","lat":"-7.36643","lng":"20.81557"},{"label":"Huambo","lat":"-12.77611","lng":"15.73917"},{"label":"Léua","lat":"-11.65753","lng":"20.44772"},{"label":"Lobito","lat":"-12.3644","lng":"13.53601"},{"label":"Longonjo","lat":"-12.90795","lng":"15.24845"},{"label":"Luanda","lat":"-8.83682","lng":"13.23432"},{"label":"Luau","lat":"-10.70727","lng":"22.22466"},{"label":"Lubango","lat":"-14.91717","lng":"13.4925"},{"label":"Lucapa","lat":"-8.41915","lng":"20.74466"},{"label":"Luena","lat":"-11.78333","lng":"19.91667"},{"label":"Lumeji","lat":"-11.55768","lng":"20.78096"},{"label":"Malanje","lat":"-9.54015","lng":"16.34096"},{"label":"Mbanza Kongo","lat":"-6.26667","lng":"14.23833"},{"label":"Menongue","lat":"-14.6585","lng":"17.69099"},{"label":"Moçâmedes","lat":"-15.19611","lng":"12.15222"},{"label":"N'zeto","lat":"-7.23116","lng":"12.8666"},{"label":"N’dalatando","lat":"-9.29782","lng":"14.91162"},{"label":"Ondjiva","lat":"-17.06667","lng":"15.73333"},{"label":"Quibala","lat":"-10.73366","lng":"14.97995"},{"label":"Soio","lat":"-6.1349","lng":"12.36894"},{"label":"Sumbe","lat":"-11.20605","lng":"13.84371"},{"label":"Uacu Cungo","lat":"-11.35669","lng":"15.11719"},{"label":"Uíge","lat":"-7.60874","lng":"15.06131"}]