[{"label":"Alto Hama","lat":"-12.23333","lng":"15.55"},{"label":"Ambriz","lat":"-7.86232","lng":"13.11935"},{"label":"Ambrizette","lat":"-7.23116","lng":"12.8666"},{"label":"Andulo","lat":"-11.48676","lng":"16.69663"},{"label":"Baía Farta","lat":"-12.60417","lng":"13.19667"},{"label":"Bailundo","lat":"-9.57499","lng":"15.99442"},{"label":"Balombo","lat":"-12.35426","lng":"14.77232"},{"label":"Banza Damba","lat":"-6.88831","lng":"15.01522"},{"label":"Barra do Dande","lat":"-8.47175","lng":"13.37011"},{"label":"Belize","lat":"-4.65","lng":"12.76667"},{"label":"Benguela","lat":"-12.57626","lng":"13.40547"},{"label":"Bibala","lat":"-14.7665","lng":"13.34912"},{"label":"Bocoio","lat":"-12.47017","lng":"14.13688"},{"label":"Buco","lat":"-9.55833","lng":"16.14639"},{"label":"Buco Zau","lat":"-4.76667","lng":"12.55"},{"label":"Caála","lat":"-12.8525","lng":"15.56056"},{"label":"Cabinda","lat":"-5.56717","lng":"12.19787"},{"label":"Cacolo","lat":"-10.14503","lng":"19.26598"},{"label":"Caconda","lat":"-13.73564","lng":"15.0618"},{"label":"Cacongo","lat":"-5.23333","lng":"12.13333"},{"label":"Cacuso","lat":"-9.42102","lng":"15.74668"},{"label":"Cafunfo","lat":"-8.7672","lng":"17.99572"},{"label":"Cahama","lat":"-16.28556","lng":"14.30962"},{"label":"Caimbambo","lat":"-13.02172","lng":"14.00283"},{"label":"Calai","lat":"-17.88896","lng":"19.7706"},{"label":"Calandula","lat":"-9.08981","lng":"15.95382"},{"label":"Calandula","lat":"-13.46667","lng":"19.61667"},{"label":"Calonamba","lat":"-13.77395","lng":"15.09111"},{"label":"Calucinga","lat":"-11.32281","lng":"16.19588"},{"label":"Calulo","lat":"-10.00055","lng":"14.89519"},{"label":"Caluquembe","lat":"-13.86667","lng":"14.43333"},{"label":"Camabatela","lat":"-8.18812","lng":"15.37495"},{"label":"Camacupa","lat":"-12.01667","lng":"17.48333"},{"label":"Camanongue","lat":"-11.4361","lng":"20.16459"},{"label":"Camboio","lat":"-12.92651","lng":"14.09888"},{"label":"Cambundi","lat":"-7.46856","lng":"17.03769"},{"label":"Cambundi","lat":"-10.89481","lng":"17.76402"},{"label":"Cambundi Catembo","lat":"-10.07531","lng":"17.55058"},{"label":"Cameia","lat":"-11.69055","lng":"20.83922"},{"label":"Camucuio","lat":"-14.11667","lng":"13.25"},{"label":"Cangandala","lat":"-9.78333","lng":"16.43333"},{"label":"Capunda","lat":"-11.13333","lng":"14.46667"},{"label":"Cassanguidi","lat":"-7.48367","lng":"21.30339"},{"label":"Catabola","lat":"-12.15","lng":"17.28333"},{"label":"Catchiungo","lat":"-12.56598","lng":"16.22589"},{"label":"Catumbela","lat":"-12.43002","lng":"13.54677"},{"label":"Caxito","lat":"-8.57848","lng":"13.66425"},{"label":"Cazaji","lat":"-11.06715","lng":"20.70148"},{"label":"Cazombo","lat":"-11.89355","lng":"22.9024"},{"label":"Cazombo","lat":"-8.73204","lng":"15.37124"},{"label":"Cela","lat":"-11.42173","lng":"15.12345"},{"label":"Chela","lat":"-12.30261","lng":"15.43358"},{"label":"Chibia","lat":"-15.18315","lng":"13.69909"},{"label":"Chicomba","lat":"-14.13333","lng":"14.91667"},{"label":"Chinguar","lat":"-12.55708","lng":"16.33805"},{"label":"Chinjenje","lat":"-12.93244","lng":"14.99238"},{"label":"Chipindo","lat":"-13.81419","lng":"15.79041"},{"label":"Chissamba","lat":"-12.16667","lng":"17.33333"},{"label":"Chitato","lat":"-7.3","lng":"20.73333"},{"label":"Chitembo","lat":"-13.55","lng":"16.63333"},{"label":"Chongoroi","lat":"-13.57418","lng":"13.94062"},{"label":"Conda","lat":"-11.10862","lng":"14.33621"},{"label":"Cuango-Luzamba","lat":"-9.14583","lng":"18.04453"},{"label":"Cubal","lat":"-13.03865","lng":"14.2455"},{"label":"Cuchi","lat":"-14.64978","lng":"16.89929"},{"label":"Cuemba","lat":"-12.15","lng":"18.08333"},{"label":"Cuilo","lat":"-8.23619","lng":"19.52566"},{"label":"Cuímba","lat":"-6.12085","lng":"14.62086"},{"label":"Cuito","lat":"-12.38333","lng":"16.93333"},{"label":"Cunda diá Baze","lat":"-8.90769","lng":"17.05339"},{"label":"Cunhinga","lat":"-12.23333","lng":"16.78333"},{"label":"Dala","lat":"-11.03333","lng":"20.2"},{"label":"Dala","lat":"-13.78333","lng":"16.71667"},{"label":"Damba","lat":"-6.67868","lng":"15.13128"},{"label":"Dombe Grande","lat":"-12.95167","lng":"13.1025"},{"label":"Dondo","lat":"-9.68456","lng":"14.42788"},{"label":"Dondo","lat":"-9.05","lng":"15.31667"},{"label":"Dundo","lat":"-7.36643","lng":"20.81557"},{"label":"Ebo","lat":"-11.05","lng":"14.71667"},{"label":"Ecunna","lat":"-12.67889","lng":"15.50556"},{"label":"Gabela","lat":"-10.85147","lng":"14.37993"},{"label":"Gama","lat":"-8.5675","lng":"13.47639"},{"label":"Ganda","lat":"-13.01592","lng":"14.63502"},{"label":"Golungo Alto","lat":"-9.13333","lng":"14.76667"},{"label":"Huambo","lat":"-12.77611","lng":"15.73917"},{"label":"Jamba","lat":"-17.5","lng":"22.66667"},{"label":"Léua","lat":"-11.65753","lng":"20.44772"},{"label":"Lobito","lat":"-12.3644","lng":"13.53601"},{"label":"Londuimbali","lat":"-12.23712","lng":"15.31697"},{"label":"Longonjo","lat":"-12.90795","lng":"15.24845"},{"label":"Luanda","lat":"-8.83682","lng":"13.23432"},{"label":"Luau","lat":"-10.70727","lng":"22.22466"},{"label":"Lubalo","lat":"-9.15445","lng":"19.28136"},{"label":"Lubango","lat":"-14.91717","lng":"13.4925"},{"label":"Lucala","lat":"-9.27268","lng":"15.25206"},{"label":"Lucapa","lat":"-8.41915","lng":"20.74466"},{"label":"Luena","lat":"-11.78333","lng":"19.91667"},{"label":"Lumbala","lat":"-14.10165","lng":"21.43531"},{"label":"Lumeji","lat":"-11.55768","lng":"20.78096"},{"label":"Luquembo","lat":"-10.73912","lng":"17.71766"},{"label":"Malanje","lat":"-9.54015","lng":"16.34096"},{"label":"Maquela do Zombo","lat":"-6.05716","lng":"15.10971"},{"label":"Matala","lat":"-14.73272","lng":"15.03479"},{"label":"Mavinga","lat":"-15.79171","lng":"20.35763"},{"label":"Mbanza Kongo","lat":"-6.26667","lng":"14.23833"},{"label":"Menongue","lat":"-14.6585","lng":"17.69099"},{"label":"Mossamedes","lat":"-15.19611","lng":"12.15222"},{"label":"Muconda","lat":"-10.59236","lng":"21.31805"},{"label":"Mungo","lat":"-11.83268","lng":"16.23613"},{"label":"Mussende","lat":"-9.95","lng":"14.8"},{"label":"N'dalatando","lat":"-9.29782","lng":"14.91162"},{"label":"Negage","lat":"-7.75938","lng":"15.2722"},{"label":"Nharêa","lat":"-11.47512","lng":"16.96496"},{"label":"Nzagi","lat":"-8.38549","lng":"15.30126"},{"label":"Ondjiva","lat":"-17.06667","lng":"15.73333"},{"label":"Porto Amboim","lat":"-10.73251","lng":"13.76844"},{"label":"Praia Bebe","lat":"-12.40959","lng":"13.50349"},{"label":"Puri","lat":"-7.69468","lng":"15.65416"},{"label":"Quibala","lat":"-10.73366","lng":"14.97995"},{"label":"Quibaxe","lat":"-8.50055","lng":"14.58589"},{"label":"Quilenda","lat":"-11.46667","lng":"14.13333"},{"label":"Quipungo","lat":"-14.81909","lng":"14.53504"},{"label":"Quissecula","lat":"-11.39223","lng":"15.09201"},{"label":"Santa Clara","lat":"-10.19156","lng":"15.43408"},{"label":"Sanza Pombo","lat":"-7.31473","lng":"16.0024"},{"label":"Songo","lat":"-7.35207","lng":"14.84629"},{"label":"Soyo","lat":"-6.1349","lng":"12.36894"},{"label":"Sumbe","lat":"-11.20605","lng":"13.84371"},{"label":"Tombôco","lat":"-6.80517","lng":"13.33017"},{"label":"Tômbua","lat":"-15.80394","lng":"11.84485"},{"label":"Uacu Cungo","lat":"-11.35669","lng":"15.11719"},{"label":"Ucu Seles","lat":"-11.41237","lng":"14.30663"},{"label":"Ucuma","lat":"-12.96121","lng":"15.05958"},{"label":"Uíge","lat":"-7.60874","lng":"15.06131"},{"label":"Virei","lat":"-15.727","lng":"12.94961"},{"label":"Xangongo","lat":"-16.7444","lng":"14.97494"}]