[{"label":"Brändö","lat":"60.41165","lng":"21.04534"},{"label":"Eckerö","lat":"60.21249","lng":"19.61442"},{"label":"Finström","lat":"60.26667","lng":"19.93333"},{"label":"Föglö","lat":"60.01392","lng":"20.41377"},{"label":"Geta","lat":"60.37453","lng":"19.84455"},{"label":"Hammarland","lat":"60.21667","lng":"19.75"},{"label":"Jomala","lat":"60.14902","lng":"19.951"},{"label":"Kökar","lat":"59.92051","lng":"20.90883"},{"label":"Kumlinge","lat":"60.26013","lng":"20.77892"},{"label":"Lemland","lat":"60.07178","lng":"20.08472"},{"label":"Lumparland","lat":"60.11695","lng":"20.25819"},{"label":"Mariehamn","lat":"60.09726","lng":"19.93481"},{"label":"Saltvik","lat":"60.28333","lng":"20.05"},{"label":"Sottunga","lat":"60.13023","lng":"20.66683"},{"label":"Sund","lat":"60.25","lng":"20.11667"}]