[{"label":"Ağdam","lat":"39.99096","lng":"46.92736"},{"label":"Ağdaş","lat":"40.64699","lng":"47.4738"},{"label":"Agdzhabedy","lat":"40.05015","lng":"47.45937"},{"label":"Aghstafa","lat":"41.11889","lng":"45.45389"},{"label":"Aghsu","lat":"40.57028","lng":"48.40087"},{"label":"Aliabad","lat":"41.4829","lng":"46.63483"},{"label":"Altıağac","lat":"40.85785","lng":"48.9354"},{"label":"Amirdzhan","lat":"40.42639","lng":"49.98361"},{"label":"Aran","lat":"40.62528","lng":"46.97556"},{"label":"Arıqdam","lat":"40.59313","lng":"45.799"},{"label":"Arıqıran","lat":"40.53971","lng":"45.61414"},{"label":"Askyaran","lat":"39.9391","lng":"46.83161"},{"label":"Astara","lat":"38.45598","lng":"48.87498"},{"label":"Avşar","lat":"39.97389","lng":"47.42389"},{"label":"Badamdar","lat":"40.34024","lng":"49.8045"},{"label":"Bakıxanov","lat":"40.41894","lng":"49.96693"},{"label":"Baku","lat":"40.37767","lng":"49.89201"},{"label":"Balakhani","lat":"40.46344","lng":"49.91893"},{"label":"Barda","lat":"40.37577","lng":"47.12619"},{"label":"Baş Göynük","lat":"41.32582","lng":"47.11357"},{"label":"Basqal","lat":"40.7552","lng":"48.39104"},{"label":"Belokany","lat":"41.72626","lng":"46.40478"},{"label":"Beylagan","lat":"39.77556","lng":"47.61861"},{"label":"Bilajari","lat":"40.4444","lng":"49.80566"},{"label":"Bilajer","lat":"40.56441","lng":"50.04002"},{"label":"Binagadi","lat":"40.46602","lng":"49.82783"},{"label":"Biny Selo","lat":"40.45076","lng":"50.08686"},{"label":"Birinci Aşıqlı","lat":"39.81917","lng":"47.67944"},{"label":"Boradigah","lat":"38.93013","lng":"48.7092"},{"label":"Böyük Qaramurad","lat":"40.57626","lng":"45.63727"},{"label":"Buzovna","lat":"40.51903","lng":"50.11438"},{"label":"Cahri","lat":"39.34837","lng":"45.41557"},{"label":"Çalxanqala","lat":"39.44167","lng":"45.28333"},{"label":"Çatax","lat":"40.72622","lng":"45.55919"},{"label":"Ceyranbatan","lat":"40.54194","lng":"49.66073"},{"label":"Çinarlı","lat":"41.46965","lng":"46.91582"},{"label":"Çobansığnaq","lat":"40.75244","lng":"45.70645"},{"label":"Corat","lat":"40.57176","lng":"49.70509"},{"label":"Culfa","lat":"38.95397","lng":"45.62961"},{"label":"Deste","lat":"38.88375","lng":"45.90963"},{"label":"Digah","lat":"40.49257","lng":"49.87477"},{"label":"Divichibazar","lat":"41.20117","lng":"48.98712"},{"label":"Dolyar","lat":"40.86278","lng":"46.03493"},{"label":"Dondar Quşçu","lat":"40.9539","lng":"45.61942"},{"label":"Dünyamalılar","lat":"39.77278","lng":"47.75889"},{"label":"Dzagam","lat":"40.9033","lng":"45.88564"},{"label":"Əhmədbəyli","lat":"39.88074","lng":"48.39158"},{"label":"Faldarlı","lat":"41.46868","lng":"46.51579"},{"label":"Fizuli","lat":"39.60094","lng":"47.14529"},{"label":"Ganja","lat":"40.68278","lng":"46.36056"},{"label":"Geytepe","lat":"39.11998","lng":"48.59383"},{"label":"Gilgilçay","lat":"41.13932","lng":"49.09038"},{"label":"Goranboy","lat":"40.61028","lng":"46.78972"},{"label":"Göyçay","lat":"40.65055","lng":"47.74219"},{"label":"Göygöl","lat":"40.58584","lng":"46.3189"},{"label":"Gyuzdek","lat":"40.37444","lng":"49.68194"},{"label":"Hacı Zeynalabdin","lat":"40.62333","lng":"49.55861"},{"label":"Hacıhüseynli","lat":"41.45639","lng":"48.64889"},{"label":"Hacıqabul","lat":"40.03874","lng":"48.94286"},{"label":"Hadrut","lat":"39.52003","lng":"47.0319"},{"label":"Haftoni","lat":"38.76325","lng":"48.76223"},{"label":"Heydarabad","lat":"39.72286","lng":"44.84846"},{"label":"Horadiz","lat":"39.45015","lng":"47.33496"},{"label":"Hövsan","lat":"40.37444","lng":"50.08528"},{"label":"Imishli","lat":"39.87095","lng":"48.05995"},{"label":"İsmayıllı","lat":"40.78485","lng":"48.15141"},{"label":"Jalilabad","lat":"39.20963","lng":"48.49186"},{"label":"Jebrail","lat":"39.39917","lng":"47.02835"},{"label":"Kerbakhiar","lat":"40.10984","lng":"46.04446"},{"label":"Khirdalan","lat":"40.44808","lng":"49.75502"},{"label":"Khojasan","lat":"40.41293","lng":"49.76904"},{"label":"Kilyazi","lat":"40.87392","lng":"49.34376"},{"label":"Kizhaba","lat":"38.53461","lng":"48.80546"},{"label":"Korgöz","lat":"40.30446","lng":"49.6236"},{"label":"Kyadabek","lat":"40.57055","lng":"45.81229"},{"label":"Kyurdarmir","lat":"40.34257","lng":"48.15649"},{"label":"Kyzyl-Burun","lat":"41.07811","lng":"49.11564"},{"label":"Laçın","lat":"39.59881","lng":"46.55045"},{"label":"Lankaran","lat":"38.75428","lng":"48.85062"},{"label":"Lerik","lat":"38.77388","lng":"48.41497"},{"label":"Lokbatan","lat":"40.3256","lng":"49.73376"},{"label":"Mamrux","lat":"41.54243","lng":"46.767"},{"label":"Mardakan","lat":"40.49182","lng":"50.14292"},{"label":"Martakert","lat":"40.21127","lng":"46.82135"},{"label":"Masally","lat":"39.03532","lng":"48.6654"},{"label":"Maştağa","lat":"40.52983","lng":"50.00616"},{"label":"Mincivan","lat":"39.03023","lng":"46.72329"},{"label":"Mingelchaur","lat":"40.76395","lng":"47.05953"},{"label":"Mughan","lat":"40.09902","lng":"48.81886"},{"label":"Naftalan","lat":"40.50821","lng":"46.8203"},{"label":"Nardaran","lat":"40.55611","lng":"50.00556"},{"label":"Naxçıvan","lat":"39.20889","lng":"45.41222"},{"label":"Neftçala","lat":"39.3768","lng":"49.247"},{"label":"Novosaratovka","lat":"40.59811","lng":"45.60079"},{"label":"Novyy Karanlug","lat":"39.79496","lng":"47.1117"},{"label":"Oğlanqala","lat":"39.58694","lng":"45.04611"},{"label":"Oğuz","lat":"41.07128","lng":"47.46528"},{"label":"Ordubad","lat":"38.90961","lng":"46.02274"},{"label":"Orjonikidze","lat":"39.63571","lng":"47.71199"},{"label":"Pirallahı","lat":"40.47013","lng":"50.32476"},{"label":"Pushkino","lat":"39.45833","lng":"48.545"},{"label":"Puta","lat":"40.29667","lng":"49.66028"},{"label":"Qabala","lat":"40.98139","lng":"47.84583"},{"label":"Qabaqçöl","lat":"41.75259","lng":"46.27052"},{"label":"Qala","lat":"40.44256","lng":"50.16759"},{"label":"Qalaqayın","lat":"39.98365","lng":"48.4836"},{"label":"Qandax","lat":"41.47546","lng":"46.54128"},{"label":"Qaraçala","lat":"39.81614","lng":"48.93792"},{"label":"Qaraçuxur","lat":"40.39667","lng":"49.97361"},{"label":"Qaramanlı","lat":"40.48135","lng":"46.99339"},{"label":"Qaraxanlı","lat":"41.04358","lng":"45.65527"},{"label":"Qarayeri","lat":"40.78674","lng":"46.31365"},{"label":"Qasım İsmayılov","lat":"40.81243","lng":"46.25938"},{"label":"Qax","lat":"41.41826","lng":"46.92043"},{"label":"Qax İngiloy","lat":"41.42412","lng":"46.93859"},{"label":"Qaxbaş","lat":"41.43254","lng":"46.9646"},{"label":"Qazax","lat":"41.09246","lng":"45.36561"},{"label":"Qırmızı Bazar","lat":"39.67669","lng":"46.95123"},{"label":"Qırmızı Samux","lat":"40.93972","lng":"46.37889"},{"label":"Qıvraq","lat":"39.39939","lng":"45.11513"},{"label":"Qızılhacılı","lat":"40.57723","lng":"46.85776"},{"label":"Qobu","lat":"40.40472","lng":"49.71306"},{"label":"Qobustan","lat":"40.08238","lng":"49.41205"},{"label":"Qobustan","lat":"40.5336","lng":"48.92819"},{"label":"Quba","lat":"41.36108","lng":"48.51341"},{"label":"Qubadlı","lat":"39.34441","lng":"46.58183"},{"label":"Qusar","lat":"41.4275","lng":"48.4302"},{"label":"Ramana","lat":"40.44222","lng":"49.98056"},{"label":"Saatlı","lat":"39.93214","lng":"48.36892"},{"label":"Sabirabad","lat":"40.00869","lng":"48.47701"},{"label":"Sabunçu","lat":"40.4425","lng":"49.94806"},{"label":"Şahbuz","lat":"39.40722","lng":"45.57389"},{"label":"Saloğlu","lat":"41.27524","lng":"45.35293"},{"label":"Salyan","lat":"39.59621","lng":"48.98479"},{"label":"Samur","lat":"41.63671","lng":"48.43028"},{"label":"Samux","lat":"40.76485","lng":"46.40868"},{"label":"Samuxlu","lat":"40.50781","lng":"47.16971"},{"label":"Sanqaçal","lat":"40.16991","lng":"49.46394"},{"label":"Saray","lat":"40.53299","lng":"49.71681"},{"label":"Sedarak","lat":"39.71427","lng":"44.88455"},{"label":"Severo-Vostotchnyi Bank","lat":"39.41117","lng":"49.24792"},{"label":"Shamakhi","lat":"40.63141","lng":"48.64137"},{"label":"Shamkhor","lat":"40.82975","lng":"46.0178"},{"label":"Sheki","lat":"41.19194","lng":"47.17056"},{"label":"Şirvan","lat":"39.93778","lng":"48.929"},{"label":"Sovetabad","lat":"39.33667","lng":"49.21414"},{"label":"Sumbatan-diza","lat":"38.94804","lng":"45.82572"},{"label":"Sumqayıt","lat":"40.58972","lng":"49.66861"},{"label":"Şuraabad","lat":"40.8199","lng":"49.46774"},{"label":"Şuşa","lat":"39.76006","lng":"46.74989"},{"label":"Tazakend","lat":"39.15459","lng":"45.44282"},{"label":"Terter","lat":"40.34201","lng":"46.93161"},{"label":"Tovuz","lat":"40.99249","lng":"45.62838"},{"label":"Türkan","lat":"40.3646","lng":"50.22075"},{"label":"Ujar","lat":"40.51902","lng":"47.65423"},{"label":"Vank","lat":"40.05275","lng":"46.54419"},{"label":"Verkhniy Dashkesan","lat":"40.49357","lng":"46.07175"},{"label":"Vurğun","lat":"41.09524","lng":"45.47111"},{"label":"Xaçmaz","lat":"41.46426","lng":"48.80565"},{"label":"Xankandi","lat":"39.8177","lng":"46.7528"},{"label":"Xıllı","lat":"39.43012","lng":"49.10166"},{"label":"Xızı","lat":"40.90847","lng":"49.07481"},{"label":"Xocalı","lat":"39.91297","lng":"46.79028"},{"label":"Xudat","lat":"41.63052","lng":"48.68161"},{"label":"Yanıqlı","lat":"40.8432","lng":"45.6803"},{"label":"Yardımlı","lat":"38.90771","lng":"48.24052"},{"label":"Yaycı","lat":"38.94052","lng":"45.73244"},{"label":"Yeni Suraxanı","lat":"40.43026","lng":"50.03598"},{"label":"Yevlakh","lat":"40.61832","lng":"47.15014"},{"label":"Yukhary-Dashkesan","lat":"40.52393","lng":"46.08186"},{"label":"Yuxarı Aran","lat":"39.73361","lng":"47.655"},{"label":"Yuxarı Salahlı","lat":"41.24347","lng":"45.26685"},{"label":"Zabrat","lat":"40.47746","lng":"49.94174"},{"label":"Zangilan","lat":"39.08371","lng":"46.65988"},{"label":"Zaqatala","lat":"41.6316","lng":"46.64479"},{"label":"Zardob","lat":"40.2184","lng":"47.71214"},{"label":"Zyrya","lat":"40.36613","lng":"50.29198"}]