[{"label":"Balatun","lat":"44.86332","lng":"19.33931"},{"label":"Banja Luka","lat":"44.77842","lng":"17.19386"},{"label":"Banovići","lat":"44.40596","lng":"18.52648"},{"label":"Barice","lat":"44.54065","lng":"18.48069"},{"label":"Berkovići","lat":"43.09472","lng":"18.17028"},{"label":"Bihać","lat":"44.81694","lng":"15.87083"},{"label":"Bijela","lat":"43.60871","lng":"17.95078"},{"label":"Bijeljina","lat":"44.75874","lng":"19.21437"},{"label":"Bila","lat":"43.78265","lng":"16.92676"},{"label":"Bileća","lat":"42.87645","lng":"18.42967"},{"label":"Blagaj","lat":"43.25892","lng":"17.88815"},{"label":"Blatnica","lat":"44.48677","lng":"17.82278"},{"label":"Bosanska Krupa","lat":"44.8825","lng":"16.15139"},{"label":"Bosanski Petrovac","lat":"44.55537","lng":"16.36897"},{"label":"Bosansko Grahovo","lat":"44.17944","lng":"16.36389"},{"label":"Bratunac","lat":"44.18455","lng":"19.33085"},{"label":"Brčko","lat":"44.86995","lng":"18.81012"},{"label":"Breza","lat":"44.01862","lng":"18.26063"},{"label":"Brka","lat":"44.82837","lng":"18.7242"},{"label":"Brod","lat":"45.13747","lng":"17.98722"},{"label":"Bronzani Majdan","lat":"44.79237","lng":"16.94039"},{"label":"Bugojno","lat":"44.05722","lng":"17.45083"},{"label":"Busovača","lat":"44.09769","lng":"17.8783"},{"label":"Bužim","lat":"45.05361","lng":"16.03254"},{"label":"Čajniče","lat":"43.55712","lng":"19.07186"},{"label":"Čapljina","lat":"43.12139","lng":"17.68444"},{"label":"Careva Ćuprija","lat":"44.2663","lng":"18.42961"},{"label":"Cazin","lat":"44.96694","lng":"15.94306"},{"label":"Čečava","lat":"44.67961","lng":"17.7578"},{"label":"Čelić","lat":"44.72524","lng":"18.81474"},{"label":"Čelinac","lat":"44.73998","lng":"17.31881"},{"label":"Čelinac","lat":"44.72453","lng":"17.32431"},{"label":"Cerani","lat":"44.87837","lng":"17.85931"},{"label":"Cim","lat":"43.35401","lng":"17.78045"},{"label":"Čitluk","lat":"43.22861","lng":"17.70083"},{"label":"Ćoralići","lat":"45.00694","lng":"15.87194"},{"label":"Crnići","lat":"43.13156","lng":"17.86452"},{"label":"Derventa","lat":"44.97839","lng":"17.90779"},{"label":"Divičani","lat":"44.36682","lng":"17.32678"},{"label":"Doboj","lat":"44.73179","lng":"18.08698"},{"label":"Dobratići","lat":"44.37792","lng":"17.41426"},{"label":"Dobrinje","lat":"44.05008","lng":"18.11958"},{"label":"Dobrljin","lat":"45.15106","lng":"16.47869"},{"label":"Domaljevac","lat":"45.0611","lng":"18.58612"},{"label":"Donja Dubica","lat":"45.07559","lng":"18.41023"},{"label":"Donja Mahala","lat":"45.04327","lng":"18.66996"},{"label":"Donja Međiđa","lat":"44.80235","lng":"18.40477"},{"label":"Donji Dubovik","lat":"44.89021","lng":"16.3251"},{"label":"Donji Vakuf","lat":"44.14361","lng":"17.4"},{"label":"Donji Žabar","lat":"44.94317","lng":"18.64673"},{"label":"Drežnica","lat":"43.52891","lng":"17.2812"},{"label":"Drinić","lat":"44.50671","lng":"16.46699"},{"label":"Drinovci","lat":"43.35454","lng":"17.32536"},{"label":"Drvar","lat":"44.37389","lng":"16.38083"},{"label":"Dubrave Donje","lat":"44.4806","lng":"18.69709"},{"label":"Dubrave Gornje","lat":"44.47229","lng":"18.72685"},{"label":"Dubravica","lat":"44.44131","lng":"18.11883"},{"label":"Dvorovi","lat":"44.80753","lng":"19.25999"},{"label":"Foča","lat":"43.50646","lng":"18.77854"},{"label":"Fojnica","lat":"43.95952","lng":"17.90288"},{"label":"Gacko","lat":"43.16722","lng":"18.53528"},{"label":"Glamoč","lat":"44.04583","lng":"16.84861"},{"label":"Gnojnica","lat":"44.62058","lng":"18.44684"},{"label":"Goražde","lat":"43.66795","lng":"18.97564"},{"label":"Gorica","lat":"43.41833","lng":"17.285"},{"label":"Gornja Breza","lat":"44.03758","lng":"18.24564"},{"label":"Gornja Koprivna","lat":"45.01091","lng":"15.95487"},{"label":"Gornja Tuzla","lat":"44.55659","lng":"18.76159"},{"label":"Gornje Moštre","lat":"44.01911","lng":"18.15477"},{"label":"Gornje Živinice","lat":"44.42921","lng":"18.61667"},{"label":"Gornji Ribnik","lat":"44.41752","lng":"16.8169"},{"label":"Gornji Smrtići","lat":"44.99121","lng":"17.7415"},{"label":"Gornji Vakuf","lat":"43.93806","lng":"17.58833"},{"label":"Gostovići","lat":"44.41124","lng":"18.17029"},{"label":"Gračanica","lat":"44.70307","lng":"18.3101"},{"label":"Gračanica","lat":"43.73333","lng":"18.28333"},{"label":"Gradačac","lat":"44.87851","lng":"18.42764"},{"label":"Gradiška","lat":"45.14484","lng":"17.25453"},{"label":"Gromiljak","lat":"43.96668","lng":"18.05504"},{"label":"Grude","lat":"43.37208","lng":"17.41449"},{"label":"Hadžići","lat":"43.82222","lng":"18.20667"},{"label":"Han Pijesak","lat":"44.08161","lng":"18.95258"},{"label":"Hiseti","lat":"44.76111","lng":"17.17944"},{"label":"Hotonj","lat":"43.89341","lng":"18.37751"},{"label":"Hreša","lat":"43.878","lng":"18.49699"},{"label":"Ilići","lat":"43.34765","lng":"17.76848"},{"label":"Ilidža","lat":"43.82939","lng":"18.30003"},{"label":"Ilijaš","lat":"43.95128","lng":"18.27128"},{"label":"Izačić","lat":"44.87485","lng":"15.78256"},{"label":"Jablanica","lat":"43.66028","lng":"17.76167"},{"label":"Jajce","lat":"44.34203","lng":"17.27059"},{"label":"Janja","lat":"44.66554","lng":"19.24691"},{"label":"Jelah","lat":"44.654","lng":"17.95897"},{"label":"Jezero","lat":"44.34954","lng":"17.1688"},{"label":"Jezero","lat":"44.86456","lng":"17.39427"},{"label":"Jezerski","lat":"44.98172","lng":"16.09447"},{"label":"Kačuni","lat":"44.06433","lng":"17.93894"},{"label":"Kakanj","lat":"44.13311","lng":"18.12292"},{"label":"Kalesija","lat":"44.43765","lng":"18.90713"},{"label":"Kalinovik","lat":"43.50464","lng":"18.44649"},{"label":"Karadaglije","lat":"44.57065","lng":"18.01775"},{"label":"Karakaj","lat":"44.41399","lng":"19.12435"},{"label":"Kiseljak","lat":"44.48904","lng":"18.56982"},{"label":"Kiseljak","lat":"43.94295","lng":"18.08132"},{"label":"Kladanj","lat":"44.22669","lng":"18.69274"},{"label":"Ključ","lat":"44.53251","lng":"16.77682"},{"label":"Klokotnica","lat":"44.7329","lng":"18.18884"},{"label":"Kneževo","lat":"44.49071","lng":"17.38161"},{"label":"Knežica","lat":"45.10548","lng":"16.67668"},{"label":"Kobilja Glava","lat":"43.88188","lng":"18.38864"},{"label":"Kočerin","lat":"43.39005","lng":"17.48552"},{"label":"Konjic","lat":"43.65126","lng":"17.96082"},{"label":"Kopači","lat":"43.67833","lng":"19.02845"},{"label":"Koraće","lat":"45.06706","lng":"17.93497"},{"label":"Koran","lat":"43.81038","lng":"18.56999"},{"label":"Kostajnica","lat":"45.21956","lng":"16.53929"},{"label":"Kotor Varoš","lat":"44.61831","lng":"17.37204"},{"label":"Kovači","lat":"44.44874","lng":"18.20521"},{"label":"Kozarska Dubica","lat":"45.17667","lng":"16.80944"},{"label":"Kreševo","lat":"43.86556","lng":"18.04333"},{"label":"Krupa na Vrbasu","lat":"44.61875","lng":"17.14351"},{"label":"Kupres","lat":"43.99273","lng":"17.27639"},{"label":"Laktaši","lat":"44.90857","lng":"17.30135"},{"label":"Lamovita","lat":"44.92018","lng":"16.89933"},{"label":"Liješnica","lat":"44.49497","lng":"18.07644"},{"label":"Livno","lat":"43.82695","lng":"17.00746"},{"label":"Ljubinje","lat":"42.9512","lng":"18.08702"},{"label":"Ljubuški","lat":"43.19694","lng":"17.545"},{"label":"Lokvine","lat":"44.20466","lng":"17.85665"},{"label":"Lopare","lat":"44.63498","lng":"18.8434"},{"label":"Lug","lat":"44.98715","lng":"17.87088"},{"label":"Lukavac","lat":"44.54245","lng":"18.52618"},{"label":"Lukavica","lat":"44.76452","lng":"18.16887"},{"label":"Lukavica","lat":"43.82693","lng":"18.38318"},{"label":"Maglaj","lat":"44.54771","lng":"18.10003"},{"label":"Maglajani","lat":"44.94975","lng":"17.35014"},{"label":"Mahala","lat":"44.01194","lng":"18.25528"},{"label":"Mala Kladuša","lat":"45.13443","lng":"15.85217"},{"label":"Malešići","lat":"44.73824","lng":"18.27335"},{"label":"Marićka","lat":"44.86801","lng":"16.8551"},{"label":"Maslovare","lat":"44.56594","lng":"17.53216"},{"label":"Matuzići","lat":"44.68776","lng":"18.04885"},{"label":"Međugorje","lat":"43.19576","lng":"17.67554"},{"label":"Mejdan - Obilićevo","lat":"44.76324","lng":"17.19012"},{"label":"Milići","lat":"44.17016","lng":"19.09195"},{"label":"Mionica","lat":"44.86646","lng":"18.46603"},{"label":"Modriča","lat":"44.95781","lng":"18.30202"},{"label":"Mostar","lat":"43.34333","lng":"17.80806"},{"label":"Mramor","lat":"44.59234","lng":"18.56458"},{"label":"Mrkonjić Grad","lat":"44.41729","lng":"17.08288"},{"label":"Neum","lat":"42.92333","lng":"17.61556"},{"label":"Nevesinje","lat":"43.25861","lng":"18.11333"},{"label":"Novi Grad","lat":"45.04643","lng":"16.37782"},{"label":"Novi Šeher","lat":"44.51031","lng":"18.02624"},{"label":"Novi Travnik","lat":"44.17133","lng":"17.65816"},{"label":"Novo Selo","lat":"44.08007","lng":"17.15556"},{"label":"Obudovac","lat":"44.95215","lng":"18.59869"},{"label":"Odžak","lat":"45.02461","lng":"18.32107"},{"label":"Olovo","lat":"44.1277","lng":"18.58065"},{"label":"Omanjska","lat":"44.69831","lng":"17.95757"},{"label":"Omarska","lat":"44.8917","lng":"16.89814"},{"label":"Orahovica Donja","lat":"44.65345","lng":"18.36951"},{"label":"Orašac","lat":"44.63039","lng":"16.07443"},{"label":"Orašje","lat":"45.03366","lng":"18.69334"},{"label":"Orguz","lat":"43.77414","lng":"16.86329"},{"label":"Osinja","lat":"44.84772","lng":"17.87443"},{"label":"Osmaci","lat":"44.40159","lng":"18.91638"},{"label":"Oštra Luka","lat":"44.99724","lng":"18.58464"},{"label":"Oštra Luka","lat":"44.86027","lng":"16.66069"},{"label":"Ostrožac","lat":"44.90866","lng":"15.94045"},{"label":"Otoka","lat":"44.96","lng":"16.17917"},{"label":"Pajić Polje","lat":"43.97583","lng":"17.5275"},{"label":"Pale","lat":"43.81664","lng":"18.56949"},{"label":"Patkovača","lat":"44.72727","lng":"19.23056"},{"label":"Pazarić","lat":"43.78882","lng":"18.16049"},{"label":"Pečeneg Ilova","lat":"44.96753","lng":"17.70071"},{"label":"Peći","lat":"44.63139","lng":"16.7825"},{"label":"Pećigrad","lat":"45.05444","lng":"15.89694"},{"label":"Pelagićevo","lat":"44.90105","lng":"18.59185"},{"label":"Petkovci","lat":"44.46849","lng":"19.07466"},{"label":"Petrovo","lat":"44.62804","lng":"18.35323"},{"label":"Piskavica","lat":"44.86717","lng":"16.97464"},{"label":"Pjanići","lat":"44.98568","lng":"15.82304"},{"label":"Podbrdo","lat":"44.44189","lng":"17.01495"},{"label":"Podhum","lat":"43.72295","lng":"16.99887"},{"label":"Podnovlje","lat":"44.9483","lng":"18.11669"},{"label":"Podzvizd","lat":"45.17417","lng":"15.87361"},{"label":"Polje","lat":"44.98716","lng":"17.95824"},{"label":"Polje","lat":"43.88014","lng":"18.07452"},{"label":"Polje-Bijela","lat":"43.63299","lng":"17.97216"},{"label":"Popovi","lat":"44.76547","lng":"19.28667"},{"label":"Posušje","lat":"43.47281","lng":"17.32621"},{"label":"Potoci","lat":"44.39261","lng":"16.62001"},{"label":"Potoci","lat":"43.40953","lng":"17.87855"},{"label":"Prača","lat":"43.76367","lng":"18.76512"},{"label":"Pribinić","lat":"44.6101","lng":"17.68981"},{"label":"Priboj","lat":"44.60233","lng":"18.93165"},{"label":"Prijedor","lat":"44.97991","lng":"16.71401"},{"label":"Prnjavor","lat":"44.87021","lng":"17.66256"},{"label":"Prozor","lat":"43.82222","lng":"17.60917"},{"label":"Puračić","lat":"44.54562","lng":"18.47865"},{"label":"Radišići","lat":"43.22302","lng":"17.54056"},{"label":"Ravno","lat":"42.88741","lng":"17.96555"},{"label":"Rodoč","lat":"43.31453","lng":"17.8029"},{"label":"Rogatica","lat":"43.79894","lng":"19.00363"},{"label":"Rudo","lat":"43.61781","lng":"19.36719"},{"label":"Rumboci","lat":"43.83154","lng":"17.50273"},{"label":"Šamac","lat":"45.05987","lng":"18.46756"},{"label":"Sanica","lat":"44.61354","lng":"16.64062"},{"label":"Sanski Most","lat":"44.7667","lng":"16.667"},{"label":"Sapna","lat":"44.5038","lng":"18.99818"},{"label":"Sarajevo","lat":"43.84864","lng":"18.35644"},{"label":"Šekovići","lat":"44.29896","lng":"18.85532"},{"label":"Šerići","lat":"44.46674","lng":"18.5637"},{"label":"Šipovo","lat":"44.28237","lng":"17.08597"},{"label":"Široki Brijeg","lat":"43.3829","lng":"17.59416"},{"label":"Skokovi","lat":"45.03139","lng":"15.91444"},{"label":"Sladna","lat":"44.72897","lng":"18.42575"},{"label":"Sokolac","lat":"43.93817","lng":"18.80079"},{"label":"Solina","lat":"44.56226","lng":"18.69322"},{"label":"Srbac","lat":"45.0973","lng":"17.52331"},{"label":"Srebrenica","lat":"44.10748","lng":"19.29669"},{"label":"Srebrenik","lat":"44.70819","lng":"18.48834"},{"label":"Stanari","lat":"44.74475","lng":"17.82714"},{"label":"Starcevica","lat":"44.75708","lng":"17.21178"},{"label":"Stijena","lat":"44.9363","lng":"16.02224"},{"label":"Stjepan-Polje","lat":"44.71634","lng":"18.25783"},{"label":"Stolac","lat":"43.084","lng":"17.95995"},{"label":"Stupari","lat":"44.31382","lng":"18.68416"},{"label":"Šturlić","lat":"45.06389","lng":"15.77806"},{"label":"Suho Polje","lat":"44.69104","lng":"19.10994"},{"label":"Šumatac","lat":"45.09743","lng":"15.85818"},{"label":"Svodna","lat":"45.0377","lng":"16.54019"},{"label":"Svojat","lat":"44.39548","lng":"18.73849"},{"label":"Tasovčići","lat":"43.11333","lng":"17.72"},{"label":"Teočak","lat":"44.60321","lng":"18.97967"},{"label":"Tešanj","lat":"44.61191","lng":"17.98552"},{"label":"Tešanjka","lat":"44.67228","lng":"18.01109"},{"label":"Teslić","lat":"44.60639","lng":"17.85972"},{"label":"Tetima","lat":"44.94776","lng":"17.91604"},{"label":"Todorovo","lat":"45.08833","lng":"15.93083"},{"label":"Tojšići","lat":"44.50133","lng":"18.78523"},{"label":"Tomislavgrad","lat":"43.71849","lng":"17.22515"},{"label":"Travnik","lat":"44.22637","lng":"17.66583"},{"label":"Trebinje","lat":"42.71197","lng":"18.34362"},{"label":"Trn","lat":"44.85829","lng":"17.23583"},{"label":"Trnovo","lat":"43.6658","lng":"18.44593"},{"label":"Tržačka Raštela","lat":"44.97597","lng":"15.78489"},{"label":"Turbe","lat":"44.24352","lng":"17.57499"},{"label":"Tuzla","lat":"44.53842","lng":"18.66709"},{"label":"Ugljevik","lat":"44.67771","lng":"19.03384"},{"label":"Ustikolina","lat":"43.58338","lng":"18.79106"},{"label":"Vareš","lat":"44.16444","lng":"18.32833"},{"label":"Varoška Rijeka","lat":"45.08936","lng":"16.01906"},{"label":"Velagići","lat":"44.55618","lng":"16.73349"},{"label":"Velika Kladuša","lat":"45.18497","lng":"15.80579"},{"label":"Velika Obarska","lat":"44.80461","lng":"19.16183"},{"label":"Velika Sočanica","lat":"44.88465","lng":"17.92341"},{"label":"Vidoši","lat":"43.77139","lng":"17.02833"},{"label":"Višegrad","lat":"43.7826","lng":"19.29256"},{"label":"Visoko","lat":"43.98889","lng":"18.17806"},{"label":"Vitez","lat":"44.15424","lng":"17.79009"},{"label":"Vitina","lat":"43.2375","lng":"17.48389"},{"label":"Vlasenica","lat":"44.18183","lng":"18.94096"},{"label":"Vogošća","lat":"43.90225","lng":"18.34438"},{"label":"Voljevac","lat":"43.87873","lng":"17.65861"},{"label":"Vozuća","lat":"44.35878","lng":"18.35397"},{"label":"Vrnograč","lat":"45.16369","lng":"15.95444"},{"label":"Vukovije Donje","lat":"44.46209","lng":"18.74941"},{"label":"Zabrišće","lat":"43.79224","lng":"16.94224"},{"label":"Zavidovići","lat":"44.44583","lng":"18.14972"},{"label":"Zborište","lat":"45.14593","lng":"16.01728"},{"label":"Željezno Polje","lat":"44.39875","lng":"17.94103"},{"label":"Zenica","lat":"44.20169","lng":"17.90397"},{"label":"Žepče","lat":"44.42667","lng":"18.03778"},{"label":"Živinice","lat":"44.54765","lng":"17.37357"},{"label":"Živinice","lat":"44.44929","lng":"18.64978"},{"label":"Živinice","lat":"44.96317","lng":"17.94111"}]