[{"label":"Bathsheba","lat":"13.21133","lng":"-59.52596"},{"label":"Bridgetown","lat":"13.10732","lng":"-59.62021"},{"label":"Checker Hall","lat":"13.28445","lng":"-59.64223"},{"label":"Crane","lat":"13.10487","lng":"-59.44861"},{"label":"Four Cross Roads","lat":"13.17018","lng":"-59.52186"},{"label":"Greenland","lat":"13.25808","lng":"-59.57763"},{"label":"Holetown","lat":"13.18672","lng":"-59.63808"},{"label":"Oistins","lat":"13.07067","lng":"-59.54637"},{"label":"Speightstown","lat":"13.25072","lng":"-59.64396"}]