[{"label":"Aheloy","lat":"42.64987","lng":"27.64838"},{"label":"Ahtopol","lat":"42.10013","lng":"27.94361"},{"label":"Aksakovo","lat":"43.25907","lng":"27.81755"},{"label":"Alfatar","lat":"43.94691","lng":"27.28587"},{"label":"Anton","lat":"42.73501","lng":"24.25958"},{"label":"Antonovo","lat":"43.15022","lng":"26.16032"},{"label":"Apriltsi","lat":"42.84142","lng":"24.91759"},{"label":"Ardino","lat":"41.58322","lng":"25.13371"},{"label":"Asenovgrad","lat":"42.01667","lng":"24.86667"},{"label":"Asparuhovo","lat":"43.18067","lng":"27.88823"},{"label":"Aytos","lat":"42.70322","lng":"27.25464"},{"label":"Balchik","lat":"43.42166","lng":"28.15848"},{"label":"Balgarevo","lat":"43.40296","lng":"28.41189"},{"label":"Banite","lat":"41.61667","lng":"25.01667"},{"label":"Bansko","lat":"41.8361","lng":"23.48745"},{"label":"Bata","lat":"42.73816","lng":"27.49722"},{"label":"Batak","lat":"41.94307","lng":"24.21833"},{"label":"Batanovtsi","lat":"42.59692","lng":"22.95634"},{"label":"Belene","lat":"43.65062","lng":"25.1343"},{"label":"Belitsa","lat":"41.95077","lng":"23.55831"},{"label":"Belogradchik","lat":"43.62722","lng":"22.68361"},{"label":"Belovo","lat":"42.21395","lng":"24.01733"},{"label":"Berkovitsa","lat":"43.23741","lng":"23.12509"},{"label":"Blagoevgrad","lat":"42.01667","lng":"23.1"},{"label":"Boboshevo","lat":"42.15323","lng":"23.00037"},{"label":"Bobov Dol","lat":"42.36378","lng":"22.99827"},{"label":"Bolyarovo","lat":"42.14868","lng":"26.81022"},{"label":"Borino","lat":"41.68534","lng":"24.29023"},{"label":"Borovan","lat":"43.42959","lng":"23.75331"},{"label":"Borovo","lat":"43.49802","lng":"25.8082"},{"label":"Botevgrad","lat":"42.90799","lng":"23.79274"},{"label":"Bov","lat":"43.03257","lng":"23.37751"},{"label":"Boychinovtsi","lat":"43.47058","lng":"23.33499"},{"label":"Boynitsa","lat":"43.9573","lng":"22.53238"},{"label":"Bozhurishte","lat":"42.76305","lng":"23.19733"},{"label":"Bratsigovo","lat":"42.02391","lng":"24.37557"},{"label":"Bregovo","lat":"44.15191","lng":"22.63877"},{"label":"Breznik","lat":"42.74085","lng":"22.90723"},{"label":"Brezovo","lat":"42.34666","lng":"25.07618"},{"label":"Brusartsi","lat":"43.66325","lng":"23.06692"},{"label":"Buhovo","lat":"42.76667","lng":"23.56667"},{"label":"Burgas","lat":"42.50606","lng":"27.46781"},{"label":"Byala","lat":"42.87426","lng":"27.88865"},{"label":"Byala Cherkva","lat":"43.2","lng":"25.3"},{"label":"Byala Slatina","lat":"43.46667","lng":"23.93333"},{"label":"Chavdar","lat":"42.65","lng":"24.05"},{"label":"Chelopech","lat":"42.7","lng":"24.08333"},{"label":"Chepelare","lat":"41.73333","lng":"24.68333"},{"label":"Chernomorets","lat":"42.44408","lng":"27.63902"},{"label":"Cherven Bryag","lat":"43.27884","lng":"24.08251"},{"label":"Chiprovtsi","lat":"43.38417","lng":"22.88083"},{"label":"Chirpan","lat":"42.2","lng":"25.33333"},{"label":"Chuprene","lat":"43.51806","lng":"22.66611"},{"label":"Dalgopol","lat":"43.05","lng":"27.35"},{"label":"Debelets","lat":"43.03333","lng":"25.61667"},{"label":"Devin","lat":"41.74327","lng":"24.40003"},{"label":"Devnya","lat":"43.22222","lng":"27.56944"},{"label":"Dimitrovgrad","lat":"42.05","lng":"25.6"},{"label":"Dimovo","lat":"43.74167","lng":"22.72694"},{"label":"Dobrich","lat":"43.56667","lng":"27.83333"},{"label":"Dolna Banya","lat":"42.31093","lng":"23.76459"},{"label":"Dolna Mitropolia","lat":"43.46667","lng":"24.53333"},{"label":"Dolni Chiflik","lat":"42.99296","lng":"27.71596"},{"label":"Dolni Dabnik","lat":"43.4","lng":"24.43333"},{"label":"Dospat","lat":"41.64462","lng":"24.15857"},{"label":"Dragoman","lat":"42.92191","lng":"22.93109"},{"label":"Dryanovo","lat":"42.97897","lng":"25.4785"},{"label":"Dulovo","lat":"43.81667","lng":"27.15"},{"label":"Dunavtsi","lat":"43.92111","lng":"22.82111"},{"label":"Dupnitsa","lat":"42.26478","lng":"23.11723"},{"label":"Dve Mogili","lat":"43.59258","lng":"25.87486"},{"label":"Dzhebel","lat":"41.49566","lng":"25.30363"},{"label":"Elena","lat":"42.93333","lng":"25.88333"},{"label":"Elhovo","lat":"42.16667","lng":"26.56667"},{"label":"Elin Pelin","lat":"42.66667","lng":"23.6"},{"label":"Elkhovo","lat":"42.57572","lng":"25.74801"},{"label":"Etropole","lat":"42.8328","lng":"23.99636"},{"label":"Gabrovo","lat":"42.87472","lng":"25.33417"},{"label":"Gabrovo","lat":"41.8","lng":"25.26667"},{"label":"Gara Hitrino","lat":"43.43333","lng":"26.91667"},{"label":"Garmen","lat":"41.6","lng":"23.81667"},{"label":"General Toshevo","lat":"43.70123","lng":"28.03787"},{"label":"Glavinitsa","lat":"43.91667","lng":"26.83333"},{"label":"Godech","lat":"43.01682","lng":"23.04852"},{"label":"Gorichevo","lat":"43.85","lng":"26.45"},{"label":"Gorna Malina","lat":"42.68333","lng":"23.7"},{"label":"Gorna Oryahovitsa","lat":"43.12778","lng":"25.70167"},{"label":"Gotse Delchev","lat":"41.56667","lng":"23.73333"},{"label":"Gramada","lat":"43.83738","lng":"22.65279"},{"label":"Gŭlŭbovo","lat":"42.13333","lng":"25.85"},{"label":"Gulyantsi","lat":"43.64109","lng":"24.69368"},{"label":"Gurkovo","lat":"42.66667","lng":"25.8"},{"label":"Gyovren","lat":"41.66326","lng":"24.37557"},{"label":"Hadzhidimovo","lat":"41.52222","lng":"23.86861"},{"label":"Harmanli","lat":"41.93233","lng":"25.90172"},{"label":"Haskovo","lat":"41.93415","lng":"25.55557"},{"label":"Hayredin","lat":"43.60193","lng":"23.66135"},{"label":"Hisarya","lat":"42.5","lng":"24.7"},{"label":"Ihtiman","lat":"42.43821","lng":"23.81608"},{"label":"Iskar","lat":"43.45963","lng":"24.25739"},{"label":"Iskar","lat":"43.6708","lng":"24.45233"},{"label":"Isperih","lat":"43.71667","lng":"26.83333"},{"label":"Ivanovo","lat":"43.68568","lng":"25.95565"},{"label":"Ivaylovgrad","lat":"41.52672","lng":"26.1249"},{"label":"Kalofer","lat":"42.61667","lng":"24.98333"},{"label":"Kaloyanovo","lat":"42.35","lng":"24.73333"},{"label":"Kameno","lat":"42.57084","lng":"27.29875"},{"label":"Kaolinovo","lat":"43.61667","lng":"27.11667"},{"label":"Kardzhali","lat":"41.65","lng":"25.36667"},{"label":"Karlovo","lat":"42.63333","lng":"24.8"},{"label":"Karnobat","lat":"42.65","lng":"26.98333"},{"label":"Kaspichan","lat":"43.31667","lng":"27.16667"},{"label":"Kavarna","lat":"43.43601","lng":"28.33953"},{"label":"Kaynardzha","lat":"43.99278","lng":"27.50713"},{"label":"Kazanlak","lat":"42.61667","lng":"25.4"},{"label":"Kermen","lat":"42.5","lng":"26.25"},{"label":"Kilifarevo","lat":"42.98333","lng":"25.63333"},{"label":"Kirkovo","lat":"41.32715","lng":"25.36379"},{"label":"Kiten","lat":"43.08333","lng":"27.31667"},{"label":"Kiten","lat":"42.23424","lng":"27.7749"},{"label":"Klisura","lat":"42.69334","lng":"24.45019"},{"label":"Knezha","lat":"43.5","lng":"24.08333"},{"label":"Kocherinovo","lat":"42.08439","lng":"23.0571"},{"label":"Kolarovo","lat":"41.36385","lng":"23.10669"},{"label":"Koprivshtitsa","lat":"42.63333","lng":"24.35"},{"label":"Kostinbrod","lat":"42.81667","lng":"23.21667"},{"label":"Kotel","lat":"42.88333","lng":"26.45"},{"label":"Koynare","lat":"43.35","lng":"24.13333"},{"label":"Kozloduy","lat":"43.77691","lng":"23.73001"},{"label":"Kresna","lat":"41.73333","lng":"23.15"},{"label":"Krichim","lat":"42.05","lng":"24.46667"},{"label":"Krivodol","lat":"43.37444","lng":"23.48444"},{"label":"Krumovgrad","lat":"41.47127","lng":"25.65485"},{"label":"Krushari","lat":"43.81675","lng":"27.75552"},{"label":"Kubrat","lat":"43.79658","lng":"26.50063"},{"label":"Kula","lat":"43.8879","lng":"22.52241"},{"label":"Kyustendil","lat":"42.28389","lng":"22.69111"},{"label":"Lakatnik","lat":"43.05","lng":"23.4"},{"label":"Laki","lat":"41.85","lng":"24.81667"},{"label":"Lesichovo","lat":"42.35626","lng":"24.1119"},{"label":"Letnitsa","lat":"43.31167","lng":"25.07333"},{"label":"Levski","lat":"43.36667","lng":"25.13333"},{"label":"Lom","lat":"43.8317","lng":"23.23793"},{"label":"Lovech","lat":"43.13333","lng":"24.71667"},{"label":"Loznitsa","lat":"43.36667","lng":"26.6"},{"label":"Lukovit","lat":"43.2","lng":"24.16667"},{"label":"Lyaskovets","lat":"43.11111","lng":"25.72833"},{"label":"Lyubimets","lat":"41.84432","lng":"26.08115"},{"label":"Madan","lat":"41.49869","lng":"24.93973"},{"label":"Madzharovo","lat":"41.63461","lng":"25.86439"},{"label":"Maglizh","lat":"42.6","lng":"25.55"},{"label":"Makresh","lat":"43.76794","lng":"22.66406"},{"label":"Malko Tarnovo","lat":"41.97958","lng":"27.52477"},{"label":"Medkovets","lat":"43.62403","lng":"23.16876"},{"label":"Medovene","lat":"43.76667","lng":"26.51667"},{"label":"Mezdra","lat":"43.15","lng":"23.7"},{"label":"Mineralni Bani","lat":"41.91667","lng":"25.35"},{"label":"Mirkovo","lat":"42.7","lng":"23.98333"},{"label":"Mizia","lat":"43.68623","lng":"23.85371"},{"label":"Montana","lat":"43.4125","lng":"23.225"},{"label":"Nedelino","lat":"41.45602","lng":"25.08008"},{"label":"Nesebar","lat":"42.65921","lng":"27.73602"},{"label":"Nevestino","lat":"42.25465","lng":"22.84899"},{"label":"Nikolaevo","lat":"42.63333","lng":"25.8"},{"label":"Nikopol","lat":"43.70528","lng":"24.89521"},{"label":"Nova Zagora","lat":"42.48333","lng":"26.01667"},{"label":"Novi Pazar","lat":"43.35","lng":"27.2"},{"label":"Novo Selo","lat":"44.16214","lng":"22.78376"},{"label":"Obzor","lat":"42.81998","lng":"27.88007"},{"label":"Omurtag","lat":"43.1","lng":"26.41667"},{"label":"Opaka","lat":"43.45","lng":"26.16667"},{"label":"Oryahovo","lat":"43.73805","lng":"23.95874"},{"label":"Panagyurishte","lat":"42.49518","lng":"24.19021"},{"label":"Parvomay","lat":"42.1","lng":"25.21667"},{"label":"Parvomaytsi","lat":"43.15","lng":"25.65"},{"label":"Pavel Banya","lat":"42.6","lng":"25.2"},{"label":"Pavlikeni","lat":"43.24278","lng":"25.32194"},{"label":"Pazardzhik","lat":"42.2","lng":"24.33333"},{"label":"Pernik","lat":"42.6","lng":"23.03333"},{"label":"Perushtitsa","lat":"42.05","lng":"24.55"},{"label":"Peshtera","lat":"42.03372","lng":"24.29995"},{"label":"Petrich","lat":"41.39846","lng":"23.20702"},{"label":"Pirdop","lat":"42.7","lng":"24.18333"},{"label":"Pleven","lat":"43.41667","lng":"24.61667"},{"label":"Pliska","lat":"43.36667","lng":"27.11667"},{"label":"Plovdiv","lat":"42.15","lng":"24.75"},{"label":"Polski Trambesh","lat":"43.37233","lng":"25.63525"},{"label":"Pomorie","lat":"42.56326","lng":"27.62986"},{"label":"Popovo","lat":"43.35","lng":"26.23333"},{"label":"Pordim","lat":"43.38333","lng":"24.85"},{"label":"Pravets","lat":"42.89163","lng":"23.91525"},{"label":"Primorsko","lat":"42.26791","lng":"27.75611"},{"label":"Provadia","lat":"43.18333","lng":"27.43333"},{"label":"Radnevo","lat":"42.3","lng":"25.93333"},{"label":"Radomir","lat":"42.54565","lng":"22.96553"},{"label":"Rakitovo","lat":"41.99012","lng":"24.0873"},{"label":"Rakovski","lat":"42.27408","lng":"24.94083"},{"label":"Ravda","lat":"42.64185","lng":"27.67713"},{"label":"Razgrad","lat":"43.53333","lng":"26.51667"},{"label":"Razlog","lat":"41.8863","lng":"23.46714"},{"label":"Rila","lat":"42.12625","lng":"23.13283"},{"label":"Roman","lat":"43.15","lng":"23.91667"},{"label":"Rudozem","lat":"41.48751","lng":"24.84945"},{"label":"Ruen","lat":"42.8","lng":"27.28333"},{"label":"Rupite","lat":"41.44245","lng":"23.24168"},{"label":"Ruse","lat":"43.84872","lng":"25.9534"},{"label":"Ruzhintsi","lat":"43.62179","lng":"22.83286"},{"label":"Sadovo","lat":"42.13178","lng":"24.93999"},{"label":"Saedinenie","lat":"42.26667","lng":"24.55"},{"label":"Samokov","lat":"42.33855","lng":"23.55805"},{"label":"Samuil","lat":"43.51667","lng":"26.75"},{"label":"Sandanski","lat":"41.56667","lng":"23.28333"},{"label":"Sapareva Banya","lat":"42.28923","lng":"23.26313"},{"label":"Sarafovo","lat":"42.56079","lng":"27.52195"},{"label":"Sarnitsa","lat":"41.73835","lng":"24.02435"},{"label":"Satovcha","lat":"41.61667","lng":"23.98333"},{"label":"Senovo","lat":"43.65","lng":"26.36667"},{"label":"Septemvri","lat":"42.22016","lng":"24.11854"},{"label":"Sevlievo","lat":"43.02295","lng":"25.10364"},{"label":"Shabla","lat":"43.53983","lng":"28.53429"},{"label":"Shipka","lat":"42.71172","lng":"25.3353"},{"label":"Shumen","lat":"43.27064","lng":"26.92286"},{"label":"Silistra","lat":"44.1171","lng":"27.26056"},{"label":"Simeonovgrad","lat":"42.03333","lng":"25.83333"},{"label":"Simitli","lat":"41.88333","lng":"23.11667"},{"label":"Sitovo","lat":"44.0273","lng":"27.01982"},{"label":"Slavyanovo","lat":"43.46667","lng":"24.86667"},{"label":"Sliven","lat":"42.68583","lng":"26.32917"},{"label":"Slivnitsa","lat":"42.85182","lng":"23.03792"},{"label":"Slivo Pole","lat":"43.94248","lng":"26.20464"},{"label":"Smolyan","lat":"41.57439","lng":"24.71204"},{"label":"Smyadovo","lat":"43.06667","lng":"27.01667"},{"label":"Sofia","lat":"42.69751","lng":"23.32415"},{"label":"Sozopol","lat":"42.41801","lng":"27.6956"},{"label":"Spasovo","lat":"43.70168","lng":"28.30399"},{"label":"Sredets","lat":"42.34747","lng":"27.17898"},{"label":"Stamboliyski","lat":"42.13333","lng":"24.53333"},{"label":"Stara Kresna","lat":"41.8","lng":"23.18333"},{"label":"Stara Zagora","lat":"42.43278","lng":"25.64194"},{"label":"Straldzha","lat":"42.6","lng":"26.68333"},{"label":"Strazhitsa","lat":"43.23333","lng":"25.96667"},{"label":"Strelcha","lat":"42.5","lng":"24.31667"},{"label":"Strumyani","lat":"41.63333","lng":"23.2"},{"label":"Suhindol","lat":"43.19167","lng":"25.18111"},{"label":"Sungurlare","lat":"42.76667","lng":"26.78333"},{"label":"Suvorovo","lat":"43.33058","lng":"27.59908"},{"label":"Sveti Vlas","lat":"42.7136","lng":"27.75867"},{"label":"Svilengrad","lat":"41.76836","lng":"26.19775"},{"label":"Svishtov","lat":"43.61875","lng":"25.35033"},{"label":"Svoge","lat":"42.96667","lng":"23.35"},{"label":"Targovishte","lat":"43.2512","lng":"26.57215"},{"label":"Tervel","lat":"43.74789","lng":"27.40911"},{"label":"Teteven","lat":"42.91667","lng":"24.26667"},{"label":"Tochilari","lat":"43.85","lng":"26.46667"},{"label":"Topolovgrad","lat":"42.08333","lng":"26.33333"},{"label":"Topolovo","lat":"41.9","lng":"25"},{"label":"Tran","lat":"42.83528","lng":"22.65167"},{"label":"Troyan","lat":"42.89427","lng":"24.71589"},{"label":"Tryavna","lat":"42.86667","lng":"25.5"},{"label":"Tsar Kaloyan","lat":"43.61667","lng":"26.25"},{"label":"Tsarevo","lat":"42.16955","lng":"27.84541"},{"label":"Tsenovo","lat":"43.53588","lng":"25.65764"},{"label":"Tutrakan","lat":"44.04906","lng":"26.61206"},{"label":"Tvarditsa","lat":"42.7","lng":"25.9"},{"label":"Ugarchin","lat":"43.1","lng":"24.41667"},{"label":"Valchedram","lat":"43.69281","lng":"23.44518"},{"label":"Valchidol","lat":"43.4","lng":"27.55"},{"label":"Varbitsa","lat":"43","lng":"26.63333"},{"label":"Varna","lat":"43.21667","lng":"27.91667"},{"label":"Varshets","lat":"43.19356","lng":"23.2868"},{"label":"Veliki Preslav","lat":"43.16667","lng":"26.81667"},{"label":"Veliko Tŭrnovo","lat":"43.08124","lng":"25.62904"},{"label":"Velingrad","lat":"42.02754","lng":"23.99155"},{"label":"Venets","lat":"43.55","lng":"26.93333"},{"label":"Vetovo","lat":"43.7","lng":"26.26667"},{"label":"Vetrino","lat":"43.31667","lng":"27.43333"},{"label":"Vidin","lat":"43.99159","lng":"22.88236"},{"label":"Vratsa","lat":"43.21","lng":"23.5625"},{"label":"Yablanitsa","lat":"43.02813","lng":"24.10244"},{"label":"Yakimovo","lat":"43.63472","lng":"23.3535"},{"label":"Yakoruda","lat":"42.02528","lng":"23.68417"},{"label":"Yambol","lat":"42.48333","lng":"26.5"},{"label":"Zavet","lat":"43.76036","lng":"26.68063"},{"label":"Zelenikovo","lat":"42.4","lng":"25.08333"},{"label":"Zemen","lat":"42.47889","lng":"22.74917"},{"label":"Zlataritsa","lat":"43.05","lng":"25.9"},{"label":"Zlatitsa","lat":"42.71667","lng":"24.13333"},{"label":"Zlatni Pyasatsi","lat":"43.285","lng":"28.0418"},{"label":"Zlatograd","lat":"41.3795","lng":"25.09605"}]