[{"label":"Bubanza","lat":"-3.0804","lng":"29.391"},{"label":"Buganda","lat":"-2.9663","lng":"29.1944"},{"label":"Bujumbura","lat":"-3.38193","lng":"29.36142"},{"label":"Bururi","lat":"-3.94877","lng":"29.62438"},{"label":"Cankuzo","lat":"-3.2186","lng":"30.5528"},{"label":"Cibitoke","lat":"-2.8869","lng":"29.1248"},{"label":"Gitega","lat":"-3.42708","lng":"29.92463"},{"label":"Isale","lat":"-3.3489","lng":"29.4839"},{"label":"Karuzi","lat":"-3.10139","lng":"30.16278"},{"label":"Kayanza","lat":"-2.9221","lng":"29.6293"},{"label":"Kirundo","lat":"-2.5845","lng":"30.0959"},{"label":"Muramvya","lat":"-3.2682","lng":"29.6079"},{"label":"Muyinga","lat":"-2.8451","lng":"30.3414"},{"label":"Muzinda","lat":"-3.2617","lng":"29.4206"},{"label":"Mwaro","lat":"-3.51128","lng":"29.70334"},{"label":"Ngozi","lat":"-2.9075","lng":"29.8306"},{"label":"Rumonge","lat":"-3.9736","lng":"29.4386"},{"label":"Rutana","lat":"-3.9279","lng":"29.992"},{"label":"Ruyigi","lat":"-3.47639","lng":"30.24861"}]