[{"label":"Bubanza","lat":"-3.0804","lng":"29.391"},{"label":"Buganda","lat":"-2.9663","lng":"29.1944"},{"label":"Bujumbura","lat":"-3.38193","lng":"29.36142"},{"label":"Bururi","lat":"-3.94877","lng":"29.62438"},{"label":"Bwambarangwe","lat":"-2.58314","lng":"30.33284"},{"label":"Cankuzo","lat":"-3.2186","lng":"30.5528"},{"label":"Cibitoke","lat":"-2.8869","lng":"29.1248"},{"label":"Gatumba","lat":"-3.33333","lng":"29.25"},{"label":"Gitega","lat":"-3.42708","lng":"29.92463"},{"label":"Giteranyi","lat":"-2.48417","lng":"30.465"},{"label":"Isale","lat":"-3.3489","lng":"29.4839"},{"label":"Kanyosha","lat":"-3.4148","lng":"29.4082"},{"label":"Karuzi","lat":"-3.10139","lng":"30.16278"},{"label":"Kayanza","lat":"-2.9221","lng":"29.6293"},{"label":"Kayogoro","lat":"-4.2298","lng":"29.7662"},{"label":"Kirundo","lat":"-2.5845","lng":"30.0959"},{"label":"Makamba","lat":"-4.1348","lng":"29.804"},{"label":"Matana","lat":"-3.76664","lng":"29.68296"},{"label":"Mugongomanga","lat":"-3.4693","lng":"29.5451"},{"label":"Muramvya","lat":"-3.2682","lng":"29.6079"},{"label":"Muyinga","lat":"-2.8451","lng":"30.3414"},{"label":"Muzinda","lat":"-3.2617","lng":"29.4206"},{"label":"Mwaro","lat":"-3.51128","lng":"29.70334"},{"label":"Ngozi","lat":"-2.9075","lng":"29.8306"},{"label":"Rumonge","lat":"-3.9736","lng":"29.4386"},{"label":"Rutana","lat":"-3.9279","lng":"29.992"},{"label":"Ruyigi","lat":"-3.47639","lng":"30.24861"}]