[{"label":"Dorp Antriol","lat":"12.16631","lng":"-68.27042"},{"label":"Dorp Rincon","lat":"12.23762","lng":"-68.33059"},{"label":"Dorp Tera Kora","lat":"12.13728","lng":"-68.26039"},{"label":"Kralendijk","lat":"12.15","lng":"-68.26667"},{"label":"Oranjestad","lat":"17.48303","lng":"-62.9864"},{"label":"The Bottom","lat":"17.62652","lng":"-63.24971"}]