[{"label":"Abraham’s Bay","lat":"22.36667","lng":"-72.96667"},{"label":"Alice Town","lat":"25.728","lng":"-79.29721"},{"label":"Andros Town","lat":"24.70502","lng":"-77.76912"},{"label":"Arthur’s Town","lat":"24.6224","lng":"-75.67151"},{"label":"Black Point","lat":"24.1","lng":"-76.38333"},{"label":"Clarence Town","lat":"23.1","lng":"-74.98333"},{"label":"Cockburn Town","lat":"24.05179","lng":"-74.53138"},{"label":"Colonel Hill","lat":"22.7545","lng":"-74.20415"},{"label":"Cooper’s Town","lat":"26.87137","lng":"-77.51131"},{"label":"Duncan Town","lat":"22.19083","lng":"-75.72583"},{"label":"Dunmore Town","lat":"25.50216","lng":"-76.63633"},{"label":"Freeport","lat":"26.53333","lng":"-78.7"},{"label":"George Town","lat":"23.51616","lng":"-75.78665"},{"label":"Governor’s Harbour","lat":"25.16667","lng":"-76.23333"},{"label":"Hard Bargain","lat":"26.31667","lng":"-77.56667"},{"label":"High Rock","lat":"26.62651","lng":"-78.28209"},{"label":"Killarney","lat":"25.05","lng":"-77.41667"},{"label":"Lucaya","lat":"26.53333","lng":"-78.66667"},{"label":"Marsh Harbour","lat":"26.54124","lng":"-77.0636"},{"label":"Masons Bay","lat":"22.54352","lng":"-73.8778"},{"label":"Matthew Town","lat":"20.94982","lng":"-73.67346"},{"label":"Nassau","lat":"25.05823","lng":"-77.34306"},{"label":"Port Nelson","lat":"23.64967","lng":"-74.84157"},{"label":"San Andros","lat":"25.06667","lng":"-78.05"},{"label":"Spanish Wells","lat":"25.54717","lng":"-76.76405"}]