[{"label":"Bobonong","lat":"-21.96554","lng":"28.43625"},{"label":"Bokaa","lat":"-24.45","lng":"26.01667"},{"label":"Borolong","lat":"-21.10361","lng":"27.33611"},{"label":"Botlhapatlou","lat":"-24.02591","lng":"25.48976"},{"label":"Chadibe","lat":"-21.06532","lng":"27.34786"},{"label":"Charles Hill","lat":"-22.27639","lng":"20.09278"},{"label":"Dekar","lat":"-21.53333","lng":"21.93333"},{"label":"Dukwe","lat":"-20.58333","lng":"26.41667"},{"label":"Dutlwe","lat":"-23.98333","lng":"23.9"},{"label":"Francistown","lat":"-21.17","lng":"27.50778"},{"label":"Gabane","lat":"-24.66667","lng":"25.78222"},{"label":"Gaborone","lat":"-24.65451","lng":"25.90859"},{"label":"Gaphatshwe","lat":"-24.57389","lng":"25.83417"},{"label":"Ghanzi","lat":"-21.69785","lng":"21.64581"},{"label":"Gobojango","lat":"-21.8327","lng":"28.72882"},{"label":"Good Hope","lat":"-25.46712","lng":"25.43921"},{"label":"Gumare","lat":"-19.36917","lng":"22.16167"},{"label":"Gweta","lat":"-20.18333","lng":"25.23333"},{"label":"Hukuntsi","lat":"-23.9988","lng":"21.77962"},{"label":"Janeng","lat":"-25.41667","lng":"25.55"},{"label":"Jwaneng","lat":"-24.60167","lng":"24.72806"},{"label":"Kalamare","lat":"-22.93369","lng":"26.57032"},{"label":"Kang","lat":"-23.67518","lng":"22.78762"},{"label":"Kanye","lat":"-24.96675","lng":"25.33273"},{"label":"Kasane","lat":"-17.80165","lng":"25.16024"},{"label":"Khakhea","lat":"-24.68954","lng":"23.49403"},{"label":"Khudumelapye","lat":"-23.88333","lng":"24.75"},{"label":"Kopong","lat":"-24.48333","lng":"25.88333"},{"label":"Kumakwane","lat":"-24.65522","lng":"25.69918"},{"label":"Kurametsi","lat":"-23.4","lng":"27.06667"},{"label":"Lehututu","lat":"-23.915","lng":"21.83"},{"label":"Lenchwe Le Tau","lat":"-24.38333","lng":"25.85"},{"label":"Lentsweletau","lat":"-24.24863","lng":"25.85215"},{"label":"Lerala","lat":"-22.78797","lng":"27.76503"},{"label":"Letlhakane","lat":"-21.41494","lng":"25.59263"},{"label":"Letlhakeng","lat":"-24.09442","lng":"25.02977"},{"label":"Letsheng","lat":"-22.66384","lng":"27.2239"},{"label":"Lobatse","lat":"-25.22435","lng":"25.67728"},{"label":"Lokwabe","lat":"-24.16667","lng":"21.83333"},{"label":"Lotlhakane","lat":"-25.08612","lng":"25.4586"},{"label":"Maapi","lat":"-22.75785","lng":"27.35001"},{"label":"Mabuli","lat":"-25.763","lng":"24.563"},{"label":"Machaneng","lat":"-23.18621","lng":"27.48856"},{"label":"Magothla","lat":"-23.56667","lng":"27"},{"label":"Mahalapye","lat":"-23.10407","lng":"26.81421"},{"label":"Maitengwe","lat":"-20.12889","lng":"27.20997"},{"label":"Makaleng","lat":"-20.8","lng":"27.27"},{"label":"Makoba","lat":"-23.48333","lng":"27.11667"},{"label":"Makobeng","lat":"-22.99637","lng":"27.66766"},{"label":"Makwata","lat":"-23.28333","lng":"27.3"},{"label":"Manyana","lat":"-24.77361","lng":"25.59278"},{"label":"Masunga","lat":"-20.62455","lng":"27.44875"},{"label":"Mathakola","lat":"-22.72125","lng":"27.31057"},{"label":"Mathambgwane","lat":"-20.99075","lng":"27.33158"},{"label":"Mathangwane","lat":"-21","lng":"27.33333"},{"label":"Mathathane","lat":"-22.26875","lng":"28.74946"},{"label":"Maun","lat":"-19.98333","lng":"23.41667"},{"label":"Maunatlala","lat":"-22.59701","lng":"27.63006"},{"label":"Metsemotlhaba","lat":"-24.55139","lng":"25.80306"},{"label":"Mmadinare","lat":"-21.8765","lng":"27.7518"},{"label":"Mmankgodi","lat":"-24.72601","lng":"25.64963"},{"label":"Mmathete","lat":"-25.32189","lng":"25.26911"},{"label":"Mmathubudukwane","lat":"-24.6","lng":"26.43333"},{"label":"Mmopone","lat":"-24.56694","lng":"25.87417"},{"label":"Mochudi","lat":"-24.41667","lng":"26.15"},{"label":"Mogapi","lat":"-22.32301","lng":"27.83492"},{"label":"Mogapinyana","lat":"-22.37114","lng":"27.58575"},{"label":"Mogoditshane","lat":"-24.62694","lng":"25.86556"},{"label":"Moijabana","lat":"-22.62716","lng":"26.41135"},{"label":"Molepolole","lat":"-24.40659","lng":"25.49508"},{"label":"Mookane","lat":"-23.68805","lng":"26.65948"},{"label":"Mopipi","lat":"-21.18333","lng":"24.88333"},{"label":"Morwa","lat":"-24.43694","lng":"26.07278"},{"label":"Mosetse","lat":"-20.75","lng":"26.65"},{"label":"Mosopa","lat":"-24.7718","lng":"25.42156"},{"label":"Nata","lat":"-20.21667","lng":"26.18333"},{"label":"Nkoyaphiri","lat":"-24.63222","lng":"25.83139"},{"label":"Nokaneng","lat":"-19.66667","lng":"22.26667"},{"label":"Oodi","lat":"-24.57306","lng":"26.03389"},{"label":"Orapa","lat":"-21.3115","lng":"25.37642"},{"label":"Otse","lat":"-25.01667","lng":"25.73333"},{"label":"Palapye","lat":"-22.54605","lng":"27.12507"},{"label":"Pandamatenga","lat":"-18.52779","lng":"25.62698"},{"label":"Pilane","lat":"-24.405","lng":"26.085"},{"label":"Pilikwe","lat":"-22.79904","lng":"27.19376"},{"label":"Rakops","lat":"-21.02257","lng":"24.36052"},{"label":"Ramokgonami","lat":"-22.8645","lng":"27.42391"},{"label":"Ramotswa","lat":"-24.87158","lng":"25.86989"},{"label":"Ramotswa Station/Taung","lat":"-24.978","lng":"25.67825"},{"label":"Rasesa","lat":"-24.37306","lng":"26.07287"},{"label":"Ratholo","lat":"-22.72454","lng":"27.57199"},{"label":"Sebina","lat":"-20.831","lng":"27.219"},{"label":"Sefhare","lat":"-23.02904","lng":"27.46906"},{"label":"Sefophe","lat":"-22.18333","lng":"27.96667"},{"label":"Sehithwa","lat":"-20.46667","lng":"22.71667"},{"label":"Sekoma","lat":"-24.4","lng":"23.88333"},{"label":"Selebi-Phikwe","lat":"-21.97895","lng":"27.84296"},{"label":"Serowe","lat":"-22.38754","lng":"26.71077"},{"label":"Sese","lat":"-24.6561","lng":"24.8063"},{"label":"Shakawe","lat":"-18.36536","lng":"21.84219"},{"label":"Shashe Mooke","lat":"-21.18794","lng":"27.37868"},{"label":"Shoshong","lat":"-23.0389","lng":"26.51"},{"label":"Sowa","lat":"-20.564","lng":"26.224"},{"label":"Sua","lat":"-20.05","lng":"26.2"},{"label":"Tamasane","lat":"-22.4184","lng":"27.40127"},{"label":"Tati Siding","lat":"-21.27345","lng":"27.49002"},{"label":"Thamaga","lat":"-24.67014","lng":"25.53975"},{"label":"Tlokweng","lat":"-24.66861","lng":"25.97111"},{"label":"Tobane","lat":"-21.95","lng":"27.9"},{"label":"Tonota","lat":"-21.44236","lng":"27.46153"},{"label":"Tsau","lat":"-20.16458","lng":"22.45573"},{"label":"Tsetsebjwe","lat":"-22.41595","lng":"28.39797"},{"label":"Tshabong","lat":"-26.05","lng":"22.45"},{"label":"Tutume","lat":"-20.4943","lng":"27.03479"}]