[{"label":"Aktsyabrski","lat":"52.644","lng":"28.8801"},{"label":"Antopal’","lat":"52.2038","lng":"24.7863"},{"label":"Asipovichy","lat":"53.3011","lng":"28.6386"},{"label":"Asnyezhytsy","lat":"52.1891","lng":"26.1299"},{"label":"Astrashytski Haradok","lat":"54.0651","lng":"27.695"},{"label":"Astravyets","lat":"54.61378","lng":"25.95537"},{"label":"Asvieja","lat":"56.0147","lng":"28.11049"},{"label":"Atolina","lat":"53.7817","lng":"27.4346"},{"label":"Azyartso","lat":"53.8397","lng":"27.3917"},{"label":"Babruysk","lat":"53.1384","lng":"29.2214"},{"label":"Bal’shavik","lat":"54.0036","lng":"27.5669"},{"label":"Balbasava","lat":"54.4207","lng":"30.2909"},{"label":"Baran’","lat":"54.4784","lng":"30.3159"},{"label":"Baranovichi","lat":"53.13253","lng":"26.00774"},{"label":"Baruny","lat":"54.3171","lng":"26.1376"},{"label":"Barysaw","lat":"54.2279","lng":"28.505"},{"label":"Beshenkovichi","lat":"55.04338","lng":"29.45739"},{"label":"Bierazino","lat":"53.8391","lng":"28.9879"},{"label":"Blon’","lat":"53.5269","lng":"28.1732"},{"label":"Bobr","lat":"54.342","lng":"29.2736"},{"label":"Borovlyany","lat":"54.0022","lng":"27.6754"},{"label":"Brahin","lat":"51.787","lng":"30.2677"},{"label":"Braslav","lat":"55.64387","lng":"27.05715"},{"label":"Brest","lat":"52.09755","lng":"23.68775"},{"label":"Buda-Kashalyova","lat":"52.7179","lng":"30.5701"},{"label":"Buynichy","lat":"53.8536","lng":"30.2671"},{"label":"Byahoml’","lat":"54.7316","lng":"28.0577"},{"label":"Byalynichy","lat":"53.9994","lng":"29.7141"},{"label":"Byaroza","lat":"52.53129","lng":"24.9782"},{"label":"Byarozawka","lat":"53.72406","lng":"25.49709"},{"label":"Byelaazyorsk","lat":"52.4731","lng":"25.1784"},{"label":"Bykhaw","lat":"53.521","lng":"30.2454"},{"label":"Červień","lat":"53.7059","lng":"28.4313"},{"label":"Chachersk","lat":"52.9164","lng":"30.9179"},{"label":"Charnawchytsy","lat":"52.21948","lng":"23.74043"},{"label":"Chashniki","lat":"54.85096","lng":"29.16645"},{"label":"Chavusy","lat":"53.8098","lng":"30.9717"},{"label":"Cherykaw","lat":"53.5689","lng":"31.3831"},{"label":"Chyrvonaya Slabada","lat":"52.8522","lng":"27.1698"},{"label":"Chyst’","lat":"54.2698","lng":"27.1067"},{"label":"Damachava","lat":"51.75","lng":"23.6"},{"label":"Dashkawka","lat":"53.7352","lng":"30.2625"},{"label":"Davyd-Haradok","lat":"52.0566","lng":"27.2161"},{"label":"Dobrush","lat":"52.42671","lng":"31.31219"},{"label":"Dokshytsy","lat":"54.89097","lng":"27.76654"},{"label":"Dowsk","lat":"53.1571","lng":"30.4601"},{"label":"Drahichyn","lat":"52.1874","lng":"25.1597"},{"label":"Druja","lat":"55.7906","lng":"27.4505"},{"label":"Druzhny","lat":"53.6238","lng":"27.8977"},{"label":"Drybin","lat":"54.12063","lng":"31.09037"},{"label":"Dubrowna","lat":"54.57372","lng":"30.68644"},{"label":"Dukora","lat":"53.6786","lng":"27.94"},{"label":"Dyatlovo","lat":"53.46215","lng":"25.40757"},{"label":"Dzisna","lat":"55.5676","lng":"28.2076"},{"label":"Dzyarzhynsk","lat":"53.68477","lng":"27.13171"},{"label":"Enyerhyetykaw","lat":"53.5871","lng":"27.0535"},{"label":"Fanipol","lat":"53.74998","lng":"27.33338"},{"label":"Gorodok","lat":"55.4624","lng":"29.98451"},{"label":"Hal’shany","lat":"54.2585","lng":"26.0144"},{"label":"Hantsavichy","lat":"52.75786","lng":"26.4309"},{"label":"Haradzishcha","lat":"53.3247","lng":"26.0107"},{"label":"Haradzyeya","lat":"53.3121","lng":"26.538"},{"label":"Hatava","lat":"53.7829","lng":"27.6407"},{"label":"Hlusha","lat":"53.0868","lng":"28.8567"},{"label":"Hlusk","lat":"52.903","lng":"28.6845"},{"label":"Hlybokaye","lat":"55.1384","lng":"27.6905"},{"label":"Homyel'","lat":"52.4345","lng":"30.9754"},{"label":"Horad Kobryn","lat":"52.21611","lng":"24.36639"},{"label":"Horad Krychaw","lat":"53.69889","lng":"31.71417"},{"label":"Horad Luninyets","lat":"52.25028","lng":"26.79944"},{"label":"Horad Orsha","lat":"54.51528","lng":"30.40528"},{"label":"Horad Pinsk","lat":"52.12139","lng":"26.07278"},{"label":"Horad Rechytsa","lat":"52.36389","lng":"30.39472"},{"label":"Horad Zhodzina","lat":"54.0985","lng":"28.3331"},{"label":"Horki","lat":"54.2862","lng":"30.9863"},{"label":"Hotsk","lat":"52.5215","lng":"27.1385"},{"label":"Hrodna","lat":"53.6884","lng":"23.8258"},{"label":"Hyeranyony","lat":"54.1159","lng":"25.5773"},{"label":"Iĺja","lat":"54.4167","lng":"27.2958"},{"label":"Ivanovo","lat":"52.14724","lng":"25.53198"},{"label":"Ivatsevichi","lat":"52.70793","lng":"25.33509"},{"label":"Ivyanyets","lat":"53.8864","lng":"26.7432"},{"label":"Iwye","lat":"53.93173","lng":"25.7763"},{"label":"Kadino","lat":"53.88389","lng":"30.52028"},{"label":"Kalinkavichy","lat":"52.1323","lng":"29.3257"},{"label":"Kalodzishchy","lat":"53.944","lng":"27.7823"},{"label":"Kamyanyets","lat":"52.40013","lng":"23.81"},{"label":"Kamyanyuki","lat":"52.55757","lng":"23.80525"},{"label":"Kamyennyya Lavy","lat":"54.0898","lng":"30.2962"},{"label":"Karanyowka","lat":"52.3506","lng":"31.1121"},{"label":"Karma","lat":"53.1301","lng":"30.8016"},{"label":"Kastsyukowka","lat":"52.5387","lng":"30.9173"},{"label":"Kazhan-Haradok","lat":"52.2073","lng":"27.0094"},{"label":"Khal’ch","lat":"52.5643","lng":"31.1364"},{"label":"Khatsyezhyna","lat":"53.9094","lng":"27.3069"},{"label":"Khodosy","lat":"53.92681","lng":"31.47882"},{"label":"Kholopenichi","lat":"54.51746","lng":"28.95645"},{"label":"Khotsimsk","lat":"53.4086","lng":"32.578"},{"label":"Khoyniki","lat":"51.8911","lng":"29.9552"},{"label":"Kirawsk","lat":"53.2693","lng":"29.4752"},{"label":"Kletsk","lat":"53.0635","lng":"26.6321"},{"label":"Kličaŭ","lat":"53.4923","lng":"29.3356"},{"label":"Klimavichy","lat":"53.6079","lng":"31.9586"},{"label":"Kobryn","lat":"52.21173","lng":"24.3563"},{"label":"Kokhanava","lat":"54.4611","lng":"30.0018"},{"label":"Konstantinovo","lat":"54.6593","lng":"29.2684"},{"label":"Kopyl’","lat":"53.1516","lng":"27.0913"},{"label":"Korelichi","lat":"53.5648","lng":"26.1406"},{"label":"Korolëv Stan","lat":"53.9865","lng":"27.7982"},{"label":"Kosava","lat":"52.7583","lng":"25.1554"},{"label":"Kostyukovichi","lat":"53.35488","lng":"32.05128"},{"label":"Krasnapollye","lat":"53.33578","lng":"31.40065"},{"label":"Krasnaye","lat":"54.2438","lng":"27.0758"},{"label":"Krasnosel’skiy","lat":"53.26494","lng":"24.42398"},{"label":"Krasnyy Bereg","lat":"53.3291","lng":"30.1929"},{"label":"Kreva","lat":"54.3118","lng":"26.2916"},{"label":"Kruhlaye","lat":"54.2497","lng":"29.7968"},{"label":"Krupki","lat":"54.3178","lng":"29.1374"},{"label":"Krychaw","lat":"53.69571","lng":"31.71233"},{"label":"Kryvichy","lat":"54.7132","lng":"27.2886"},{"label":"Lahishyn","lat":"52.339","lng":"25.9867"},{"label":"Lida","lat":"53.88333","lng":"25.29972"},{"label":"Liozno","lat":"55.0199","lng":"30.7969"},{"label":"Logoysk","lat":"54.2064","lng":"27.8512"},{"label":"Loshnitsa","lat":"54.2796","lng":"28.7649"},{"label":"Loyew","lat":"51.9458","lng":"30.7953"},{"label":"Luhavaya Slabada","lat":"53.7823","lng":"27.8434"},{"label":"Luninyets","lat":"52.24864","lng":"26.80061"},{"label":"Lyakhovichi","lat":"53.03931","lng":"26.26314"},{"label":"Lyasny","lat":"54.0072","lng":"27.6963"},{"label":"Lyel’chytsy","lat":"51.7862","lng":"28.3288"},{"label":"Lyepyel’","lat":"54.8814","lng":"28.699"},{"label":"Lyeskawka","lat":"54.0024","lng":"27.7108"},{"label":"Lyntupy","lat":"55.0516","lng":"26.3103"},{"label":"Lyuban’","lat":"52.7985","lng":"28.0048"},{"label":"Lyubcha","lat":"53.7522","lng":"26.0603"},{"label":"Machulishchy","lat":"53.7788","lng":"27.5948"},{"label":"Mahilyow","lat":"53.9168","lng":"30.3449"},{"label":"Maladziečna","lat":"54.3167","lng":"26.854"},{"label":"Malorita","lat":"51.79467","lng":"24.07461"},{"label":"Mar’ina Gorka","lat":"53.509","lng":"28.147"},{"label":"Mazyr","lat":"52.0495","lng":"29.2456"},{"label":"Michanovichi","lat":"53.73937","lng":"27.69276"},{"label":"Mikashevichy","lat":"52.2173","lng":"27.476"},{"label":"Minsk","lat":"53.9","lng":"27.56667"},{"label":"Miory","lat":"55.6222","lng":"27.6281"},{"label":"Mir","lat":"53.4544","lng":"26.467"},{"label":"Mosar","lat":"55.2232","lng":"27.4609"},{"label":"Mosty","lat":"53.4122","lng":"24.5387"},{"label":"Motal’","lat":"52.3138","lng":"25.6072"},{"label":"Mscislau","lat":"54.0185","lng":"31.7217"},{"label":"Myadzyel","lat":"54.87894","lng":"26.93619"},{"label":"Myazhysyatki","lat":"53.7776","lng":"30.1765"},{"label":"Myshkavichy","lat":"53.2172","lng":"29.512"},{"label":"Narach","lat":"54.9102","lng":"26.708"},{"label":"Narach","lat":"54.5652","lng":"26.7314"},{"label":"Narowlya","lat":"51.7961","lng":"29.5004"},{"label":"Nasilava","lat":"54.30441","lng":"26.78209"},{"label":"Nesvizh","lat":"53.22186","lng":"26.67679"},{"label":"Novaya Huta","lat":"52.1032","lng":"30.9837"},{"label":"Novogrudok","lat":"53.5942","lng":"25.8191"},{"label":"Novolukoml’","lat":"54.66192","lng":"29.15016"},{"label":"Novopolotsk","lat":"55.52618","lng":"28.59308"},{"label":"Novosel’ye","lat":"53.9162","lng":"27.2009"},{"label":"Novy Svyerzhan’","lat":"53.4542","lng":"26.7301"},{"label":"Nyakhachava","lat":"52.644","lng":"25.2027"},{"label":"Orsha","lat":"54.51362","lng":"30.40365"},{"label":"Oshmyany","lat":"54.41815","lng":"25.93734"},{"label":"Ostryna","lat":"53.7322","lng":"24.5305"},{"label":"Palykavichy Pyershyya","lat":"53.9854","lng":"30.36"},{"label":"Parychy","lat":"52.8042","lng":"29.4176"},{"label":"Pastavy","lat":"55.11676","lng":"26.83263"},{"label":"Peramoga","lat":"52.3973","lng":"31.071"},{"label":"Pinsk","lat":"52.12153","lng":"26.06726"},{"label":"Plyeshchanitsy","lat":"54.4235","lng":"27.8301"},{"label":"Polotsk","lat":"55.4879","lng":"28.7856"},{"label":"Posëlok Voskhod","lat":"53.7766","lng":"30.3497"},{"label":"Prawdzinski","lat":"53.5248","lng":"27.8303"},{"label":"Pruzhany","lat":"52.55464","lng":"24.45483"},{"label":"Pryvol’ny","lat":"53.7969","lng":"27.7967"},{"label":"Puchavičy","lat":"53.5297","lng":"28.2467"},{"label":"Pyatryshki","lat":"54.0686","lng":"27.2179"},{"label":"Pyetrykaw","lat":"52.1289","lng":"28.4921"},{"label":"Radaškovičy","lat":"54.1554","lng":"27.2412"},{"label":"Rahachow","lat":"53.0934","lng":"30.0495"},{"label":"Rakaw","lat":"53.9674","lng":"27.0562"},{"label":"Ramanavichy","lat":"53.8653","lng":"30.5597"},{"label":"Rechytsa","lat":"52.3617","lng":"30.3916"},{"label":"Ross’","lat":"53.28411","lng":"24.40721"},{"label":"Rossony","lat":"55.90603","lng":"28.81332"},{"label":"Rudzyensk","lat":"53.5983","lng":"27.8621"},{"label":"Ruzhany","lat":"52.86322","lng":"24.89357"},{"label":"Samakhvalavichy","lat":"53.7396","lng":"27.5037"},{"label":"Sarachy","lat":"52.7867","lng":"28.0186"},{"label":"Sasnovy Bor","lat":"52.5194","lng":"29.5988"},{"label":"Schomyslitsa","lat":"53.8211","lng":"27.4522"},{"label":"Senno","lat":"54.81175","lng":"29.70061"},{"label":"Sharkovshchina","lat":"55.36807","lng":"27.46971"},{"label":"Shchuchyn","lat":"53.6014","lng":"24.7465"},{"label":"Shklow","lat":"54.2131","lng":"30.2877"},{"label":"Shumilino","lat":"55.29841","lng":"29.61279"},{"label":"Skidel’","lat":"53.5904","lng":"24.2478"},{"label":"Slabada","lat":"54.0087","lng":"27.8866"},{"label":"Slawharad","lat":"53.4429","lng":"31.0014"},{"label":"Slonim","lat":"53.08751","lng":"25.31707"},{"label":"Slutsk","lat":"53.01522","lng":"27.54159"},{"label":"Smaliavičy","lat":"54.0249","lng":"28.0894"},{"label":"Smarhoń","lat":"54.4798","lng":"26.3957"},{"label":"Smilavičy","lat":"53.7496","lng":"28.0115"},{"label":"Snow","lat":"53.2201","lng":"26.401"},{"label":"Soligorsk","lat":"52.78981","lng":"27.53583"},{"label":"Soly","lat":"54.51301","lng":"26.19381"},{"label":"Stan’kava","lat":"53.6292","lng":"27.229"},{"label":"Starobin","lat":"52.7267","lng":"27.4606"},{"label":"Staryye Dorogi","lat":"53.0402","lng":"28.267"},{"label":"Stolin","lat":"51.89115","lng":"26.84597"},{"label":"Stowbtsy","lat":"53.47994","lng":"26.7351"},{"label":"Svir","lat":"54.8517","lng":"26.395"},{"label":"Svislach","lat":"53.03431","lng":"24.09717"},{"label":"Svislach","lat":"53.6404","lng":"27.9199"},{"label":"Svyetlahorsk","lat":"52.6329","lng":"29.7389"},{"label":"Syenitsa","lat":"53.8313","lng":"27.5343"},{"label":"Syomkava","lat":"54.0101","lng":"27.441"},{"label":"Tolochin","lat":"54.40988","lng":"29.69348"},{"label":"Tsimkavichy","lat":"53.0672","lng":"26.9902"},{"label":"Tsyelyakhany","lat":"52.5175","lng":"25.8429"},{"label":"Turaŭ","lat":"52.0683","lng":"27.735"},{"label":"Turets-Bayary","lat":"54.3785","lng":"26.6581"},{"label":"Urechcha","lat":"52.9479","lng":"27.893"},{"label":"Ushachi","lat":"55.17611","lng":"28.61949"},{"label":"Usiazh","lat":"54.07598","lng":"28.00698"},{"label":"Uzda","lat":"53.4627","lng":"27.2137"},{"label":"Vasilyevichy","lat":"52.2512","lng":"29.8288"},{"label":"Verkhnedvinsk","lat":"55.7764","lng":"27.93794"},{"label":"Veyno","lat":"53.83333","lng":"30.38333"},{"label":"Vidzy","lat":"55.3945","lng":"26.6305"},{"label":"Vileyka","lat":"54.4914","lng":"26.9111"},{"label":"Vishnyeva","lat":"54.7102","lng":"26.5228"},{"label":"Vishow","lat":"53.9805","lng":"29.9925"},{"label":"Vitebsk","lat":"55.1904","lng":"30.2049"},{"label":"Volkovysk","lat":"53.1561","lng":"24.4513"},{"label":"Volozhin","lat":"54.08911","lng":"26.52731"},{"label":"Voronovo","lat":"54.15387","lng":"25.31226"},{"label":"Vyalikaya Byerastavitsa","lat":"53.19563","lng":"24.01992"},{"label":"Vyaliki Trastsyanets","lat":"53.851","lng":"27.7139"},{"label":"Vyetka","lat":"52.5591","lng":"31.1794"},{"label":"Vysokaye","lat":"52.37091","lng":"23.37083"},{"label":"Yalizava","lat":"53.3994","lng":"29.0048"},{"label":"Yel’sk","lat":"51.8141","lng":"29.1522"},{"label":"Yubilyeyny","lat":"53.8191","lng":"27.5215"},{"label":"Zamostochye","lat":"53.8198","lng":"27.8685"},{"label":"Zaslawye","lat":"54.0114","lng":"27.2695"},{"label":"Zel’va","lat":"53.14931","lng":"24.81201"},{"label":"Zhabinka","lat":"52.19857","lng":"24.01064"},{"label":"Zhaludok","lat":"53.5974","lng":"24.9828"},{"label":"Zhdanovichy","lat":"53.9432","lng":"27.425"},{"label":"Zhirovichi","lat":"53.0131","lng":"25.3443"},{"label":"Zhlobin","lat":"52.8926","lng":"30.024"},{"label":"Znamenka","lat":"51.88168","lng":"23.65545"},{"label":"Žytkavičy","lat":"52.2168","lng":"27.8561"},{"label":"Октябрьский","lat":"54.04059","lng":"28.19813"}]