[{"label":"Alindao","lat":"5.02667","lng":"21.20876"},{"label":"Baboua","lat":"5.79565","lng":"14.82799"},{"label":"Bambari","lat":"5.76795","lng":"20.67565"},{"label":"Bangassou","lat":"4.74132","lng":"22.81838"},{"label":"Bangui","lat":"4.36122","lng":"18.55496"},{"label":"Baoro","lat":"5.66667","lng":"15.96667"},{"label":"Batangafo","lat":"7.30082","lng":"18.2833"},{"label":"Bayanga","lat":"2.90496","lng":"16.26028"},{"label":"Bégoua","lat":"4.45437","lng":"18.53475"},{"label":"Berbérati","lat":"4.26116","lng":"15.79216"},{"label":"Bimbo","lat":"4.25671","lng":"18.41583"},{"label":"Birao","lat":"10.28488","lng":"22.78818"},{"label":"Boali","lat":"4.80048","lng":"18.12747"},{"label":"Bocaranga","lat":"6.98533","lng":"15.64062"},{"label":"Boda","lat":"4.31887","lng":"17.46953"},{"label":"Bossangoa","lat":"6.49263","lng":"17.45518"},{"label":"Bossembélé","lat":"5.26667","lng":"17.65"},{"label":"Bossemtele I","lat":"5.79695","lng":"16.51792"},{"label":"Bouar","lat":"5.93404","lng":"15.59599"},{"label":"Bouca","lat":"6.50734","lng":"18.2767"},{"label":"Bozoum","lat":"6.31933","lng":"16.37992"},{"label":"Bria","lat":"6.54233","lng":"21.98633"},{"label":"Carnot","lat":"4.94273","lng":"15.87735"},{"label":"Damara","lat":"4.96075","lng":"18.7035"},{"label":"Dekoa","lat":"6.32229","lng":"19.07922"},{"label":"Gambo","lat":"4.64816","lng":"22.26331"},{"label":"Gamboula","lat":"4.11775","lng":"15.13926"},{"label":"Grimari","lat":"5.73948","lng":"20.05564"},{"label":"Ippy","lat":"6.26793","lng":"21.22468"},{"label":"Kabo","lat":"7.69937","lng":"18.62903"},{"label":"Kaga-Bandoro","lat":"6.98961","lng":"19.18744"},{"label":"Kembé","lat":"4.62275","lng":"21.88645"},{"label":"Kouango","lat":"4.99337","lng":"19.96186"},{"label":"Mbaïki","lat":"3.86781","lng":"17.98923"},{"label":"Mbrés","lat":"6.668","lng":"19.80323"},{"label":"Mobaye","lat":"4.31902","lng":"21.17861"},{"label":"Mongoumba","lat":"3.64153","lng":"18.59364"},{"label":"Ndélé","lat":"8.41091","lng":"20.64728"},{"label":"Nola","lat":"3.52494","lng":"16.04583"},{"label":"Obo","lat":"5.39586","lng":"26.49211"},{"label":"Ouadda","lat":"8.07771","lng":"22.40075"},{"label":"Ouango","lat":"4.31325","lng":"22.55524"},{"label":"Paoua","lat":"7.24269","lng":"16.44059"},{"label":"Sibut","lat":"5.71801","lng":"19.07389"},{"label":"Yaloké","lat":"5.31953","lng":"17.10114"}]