[{"label":"Abengourou","lat":"6.72972","lng":"-3.49639"},{"label":"Abidjan","lat":"5.35444","lng":"-4.00167"},{"label":"Abobo","lat":"5.41613","lng":"-4.0159"},{"label":"Aboisso","lat":"5.46779","lng":"-3.20711"},{"label":"Adiaké","lat":"5.28634","lng":"-3.30403"},{"label":"Adzopé","lat":"6.10694","lng":"-3.86194"},{"label":"Affery","lat":"6.32035","lng":"-3.95235"},{"label":"Agboville","lat":"5.92801","lng":"-4.21319"},{"label":"Agnibilékrou","lat":"7.13113","lng":"-3.20415"},{"label":"Ahouanou","lat":"5.50565","lng":"-4.8588"},{"label":"Akoupé","lat":"6.38423","lng":"-3.88759"},{"label":"Alépé","lat":"5.5004","lng":"-3.66308"},{"label":"Anyama","lat":"5.49462","lng":"-4.05183"},{"label":"Arrah","lat":"6.67342","lng":"-3.96938"},{"label":"Attiégouakro","lat":"6.77402","lng":"-5.11411"},{"label":"Ayamé","lat":"5.6052","lng":"-3.15709"},{"label":"Bangolo","lat":"7.01232","lng":"-7.48639"},{"label":"Béoumi","lat":"7.67395","lng":"-5.58085"},{"label":"Béttié","lat":"6.07568","lng":"-3.40846"},{"label":"Biankouma","lat":"7.73909","lng":"-7.61377"},{"label":"Bingerville","lat":"5.35581","lng":"-3.88537"},{"label":"Bloléquin","lat":"6.56913","lng":"-8.00253"},{"label":"Bocanda","lat":"7.06264","lng":"-4.49948"},{"label":"Bondoukou","lat":"8.0402","lng":"-2.80003"},{"label":"Bongouanou","lat":"6.65175","lng":"-4.20406"},{"label":"Bonoua","lat":"5.27247","lng":"-3.59625"},{"label":"Botro","lat":"7.85249","lng":"-5.31063"},{"label":"Bouaflé","lat":"6.99041","lng":"-5.7442"},{"label":"Bouaké","lat":"7.69385","lng":"-5.03031"},{"label":"Bouna","lat":"9.26927","lng":"-2.9951"},{"label":"Boundiali","lat":"9.52167","lng":"-6.48694"},{"label":"Buyo","lat":"6.27534","lng":"-6.99704"},{"label":"Dabakala","lat":"8.36321","lng":"-4.42863"},{"label":"Dabou","lat":"5.32556","lng":"-4.37685"},{"label":"Daloa","lat":"6.87735","lng":"-6.45022"},{"label":"Danané","lat":"7.25957","lng":"-8.15498"},{"label":"Daoukro","lat":"7.0591","lng":"-3.9631"},{"label":"Dianra","lat":"8.94333","lng":"-6.2549"},{"label":"Didiévi","lat":"7.12866","lng":"-4.89804"},{"label":"Dikodougou","lat":"9.06757","lng":"-5.77222"},{"label":"Dimbokro","lat":"6.64678","lng":"-4.70519"},{"label":"Divo","lat":"5.83739","lng":"-5.35723"},{"label":"Djékanou","lat":"6.48389","lng":"-5.11553"},{"label":"Doropo","lat":"9.80955","lng":"-3.34577"},{"label":"Duekoué","lat":"6.74202","lng":"-7.34918"},{"label":"Facobly","lat":"7.3883","lng":"-7.37644"},{"label":"Ferkessédougou","lat":"9.5928","lng":"-5.19449"},{"label":"Fresco","lat":"5.08226","lng":"-5.56938"},{"label":"Gagnoa","lat":"6.13193","lng":"-5.9506"},{"label":"Gbéléban","lat":"9.58461","lng":"-8.13183"},{"label":"Grand-Bassam","lat":"5.2118","lng":"-3.73884"},{"label":"Grand-Lahou","lat":"5.25068","lng":"-5.00333"},{"label":"Guéyo","lat":"5.6882","lng":"-6.0712"},{"label":"Guibéroua","lat":"6.23869","lng":"-6.17147"},{"label":"Guiglo","lat":"6.54368","lng":"-7.4935"},{"label":"Guitry","lat":"5.51952","lng":"-5.24038"},{"label":"Issia","lat":"6.49224","lng":"-6.58558"},{"label":"Jacqueville","lat":"5.20515","lng":"-4.4146"},{"label":"Kani","lat":"8.47807","lng":"-6.60509"},{"label":"Kaniasso","lat":"9.81471","lng":"-7.5125"},{"label":"Katiola","lat":"8.13728","lng":"-5.10095"},{"label":"Kong","lat":"9.14943","lng":"-4.60982"},{"label":"Korhogo","lat":"9.45803","lng":"-5.62961"},{"label":"Koro","lat":"8.55505","lng":"-7.46348"},{"label":"Kouassi-Kouassikro","lat":"7.34141","lng":"-4.67709"},{"label":"Kouibly","lat":"7.25597","lng":"-7.23508"},{"label":"Koun-Fao","lat":"7.48764","lng":"-3.25249"},{"label":"Kounahiri","lat":"7.79089","lng":"-5.83477"},{"label":"Kouto","lat":"9.89029","lng":"-6.40921"},{"label":"Lakota","lat":"5.84752","lng":"-5.682"},{"label":"M’Bahiakro","lat":"7.45728","lng":"-4.33993"},{"label":"M’Batto","lat":"6.47197","lng":"-4.35781"},{"label":"M’Bengué","lat":"10.00244","lng":"-5.90037"},{"label":"Madinani","lat":"9.61083","lng":"-6.94215"},{"label":"Man","lat":"7.41251","lng":"-7.55383"},{"label":"Mankono","lat":"8.05861","lng":"-6.18972"},{"label":"Marcory","lat":"5.31198","lng":"-3.99363"},{"label":"Minignan","lat":"9.99744","lng":"-7.83593"},{"label":"Nassian","lat":"8.45275","lng":"-3.47152"},{"label":"Niakaramandougou","lat":"8.65759","lng":"-5.29109"},{"label":"Odienné","lat":"9.50511","lng":"-7.56433"},{"label":"Ouangolodougou","lat":"9.96837","lng":"-5.14882"},{"label":"Ouaninou","lat":"8.2379","lng":"-7.86638"},{"label":"Oumé","lat":"6.38309","lng":"-5.41759"},{"label":"Prikro","lat":"7.64705","lng":"-3.99626"},{"label":"Sakassou","lat":"7.45462","lng":"-5.29263"},{"label":"Samatiguila","lat":"9.81952","lng":"-7.56085"},{"label":"San-Pédro","lat":"4.74851","lng":"-6.6363"},{"label":"Sandégué","lat":"7.95376","lng":"-3.58012"},{"label":"Sassandra","lat":"4.95384","lng":"-6.08531"},{"label":"Séguéla","lat":"7.96111","lng":"-6.67306"},{"label":"Séguélon","lat":"9.35694","lng":"-7.12083"},{"label":"Sikensi","lat":"5.66829","lng":"-4.57371"},{"label":"Sinématiali","lat":"9.5841","lng":"-5.38476"},{"label":"Sinfra","lat":"6.62103","lng":"-5.91144"},{"label":"Sipilou","lat":"7.8645","lng":"-8.10143"},{"label":"Soubré","lat":"5.78377","lng":"-6.59388"},{"label":"Taabo","lat":"6.1998","lng":"-5.10884"},{"label":"Tabou","lat":"4.42295","lng":"-7.3528"},{"label":"Taï","lat":"5.87366","lng":"-7.45519"},{"label":"Tanda","lat":"7.80335","lng":"-3.16832"},{"label":"Téhini","lat":"9.60542","lng":"-3.65804"},{"label":"Tengréla","lat":"10.48115","lng":"-6.40694"},{"label":"Tiapoum","lat":"5.13622","lng":"-3.02308"},{"label":"Tiassalé","lat":"5.89839","lng":"-4.82293"},{"label":"Tiébissou","lat":"7.15772","lng":"-5.2248"},{"label":"Touba","lat":"8.28333","lng":"-7.68333"},{"label":"Toulépleu","lat":"6.57974","lng":"-8.41091"},{"label":"Toulépleu Gueré","lat":"6.57395","lng":"-8.42592"},{"label":"Toumodi","lat":"6.55799","lng":"-5.01769"},{"label":"Transua","lat":"7.55004","lng":"-3.01431"},{"label":"Vavoua","lat":"7.38194","lng":"-6.47778"},{"label":"Yakassé-Attobrou","lat":"6.18174","lng":"-3.65111"},{"label":"Yamoussoukro","lat":"6.82055","lng":"-5.27674"},{"label":"Zouan-Hounien","lat":"6.91937","lng":"-8.2065"},{"label":"Zoukougbeu","lat":"6.76229","lng":"-6.8638"}]