[{"label":"Abadjin-Doumé","lat":"5.30962","lng":"-4.14669"},{"label":"Abadjin-Kouté","lat":"5.33017","lng":"-4.15226"},{"label":"Abata","lat":"5.3233","lng":"-3.91434"},{"label":"Abatoulilié","lat":"5.99533","lng":"-5.60615"},{"label":"Abé","lat":"5.66047","lng":"-3.98753"},{"label":"Abéanou","lat":"6.97326","lng":"-4.2328"},{"label":"Abédéni","lat":"7.68353","lng":"-4.06475"},{"label":"Abengourou","lat":"6.72972","lng":"-3.49639"},{"label":"Abévé","lat":"5.91111","lng":"-4.74439"},{"label":"Abiati","lat":"5.28984","lng":"-3.17069"},{"label":"Abidjan","lat":"5.35444","lng":"-4.00167"},{"label":"Abié","lat":"5.86647","lng":"-3.92574"},{"label":"Abiéhou","lat":"5.55396","lng":"-4.53085"},{"label":"Abigui","lat":"6.69462","lng":"-4.83379"},{"label":"Abli Aloukro","lat":"6.59422","lng":"-4.99499"},{"label":"Abobo","lat":"5.41613","lng":"-4.0159"},{"label":"Aboindoukpinkro","lat":"7.20252","lng":"-4.06621"},{"label":"Aboisso","lat":"5.46779","lng":"-3.20711"},{"label":"Aboisso Comoé","lat":"5.7351","lng":"-3.40338"},{"label":"Aboka","lat":"6.53867","lng":"-6.81589"},{"label":"Abokouamikro","lat":"6.82884","lng":"-5.05506"},{"label":"Abokouma","lat":"7.71385","lng":"-3.12834"},{"label":"Abokro-Damé","lat":"7.51851","lng":"-3.35898"},{"label":"Abolikro","lat":"7.68467","lng":"-5.33337"},{"label":"Abongnikro","lat":"7.19149","lng":"-4.44222"},{"label":"Abongoua","lat":"6.6527","lng":"-4.10178"},{"label":"Abongoua","lat":"6.24709","lng":"-3.54335"},{"label":"Abouakakro","lat":"6.47305","lng":"-5.10377"},{"label":"Abouakouassikro","lat":"6.82485","lng":"-5.32952"},{"label":"Abouakro","lat":"6.41309","lng":"-5.15457"},{"label":"Aboudé","lat":"5.89609","lng":"-4.56253"},{"label":"Aboukro","lat":"6.75904","lng":"-5.32598"},{"label":"Aboulié","lat":"5.45484","lng":"-2.92349"},{"label":"Aboutou","lat":"5.21772","lng":"-3.34071"},{"label":"Abradine","lat":"6.19975","lng":"-3.61125"},{"label":"Abradinou","lat":"6.19639","lng":"-3.455"},{"label":"Abrobakro","lat":"5.27703","lng":"-3.51283"},{"label":"Abronambué","lat":"6.75611","lng":"-3.34139"},{"label":"Abrotchi","lat":"5.54297","lng":"-3.63473"},{"label":"Aby","lat":"5.30502","lng":"-3.16916"},{"label":"Adahama","lat":"7.27133","lng":"-3.54335"},{"label":"Adahidoukou","lat":"5.31083","lng":"-5.2246"},{"label":"Adakié","lat":"5.54557","lng":"-4.16695"},{"label":"Adamagui","lat":"5.85839","lng":"-6.82237"},{"label":"Adamakro","lat":"6.30059","lng":"-3.25696"},{"label":"Adaou","lat":"6.80119","lng":"-5.04924"},{"label":"Adaou","lat":"6.27638","lng":"-4.88275"},{"label":"Adaou","lat":"5.42783","lng":"-3.26443"},{"label":"Adaromé","lat":"5.58043","lng":"-4.19049"},{"label":"Addah","lat":"5.17483","lng":"-4.6507"},{"label":"Adébem","lat":"5.47349","lng":"-5.83667"},{"label":"Adèndia","lat":"7.75953","lng":"-3.01043"},{"label":"Adessé","lat":"5.16817","lng":"-4.69887"},{"label":"Adi-Yaprikro","lat":"7.55852","lng":"-4.30958"},{"label":"Adiadon","lat":"5.13","lng":"-5.17729"},{"label":"Adiaké","lat":"5.28634","lng":"-3.30403"},{"label":"Adiapoté Té","lat":"5.30889","lng":"-4.17585"},{"label":"Adiapoto-I","lat":"5.31431","lng":"-4.19496"},{"label":"Adibrébo","lat":"6.5128","lng":"-4.60865"},{"label":"Adiékro","lat":"7.06743","lng":"-3.69271"},{"label":"Adiékro","lat":"7.79953","lng":"-5.19611"},{"label":"Adihao","lat":"5.28641","lng":"-3.61522"},{"label":"Adikankourou","lat":"7.52461","lng":"-3.91323"},{"label":"Adikokoi","lat":"6.63331","lng":"-3.71193"},{"label":"Adikouassikro","lat":"6.11845","lng":"-4.7749"},{"label":"Adjamé","lat":"6.27517","lng":"-3.51713"},{"label":"Adjaméné","lat":"4.76645","lng":"-6.84326"},{"label":"Adjékonankro","lat":"5.704","lng":"-4.86796"},{"label":"Adjélilié","lat":"6.06699","lng":"-5.48622"},{"label":"Adjouan","lat":"5.30995","lng":"-3.15232"},{"label":"Adjoumani-Kouassikro","lat":"6.65212","lng":"-3.32857"},{"label":"ADK (Complexe","lat":"6.19492","lng":"-7.09572"},{"label":"Adohosou","lat":"8.02007","lng":"-5.38971"},{"label":"Adokoi","lat":"6.00999","lng":"-3.78154"},{"label":"Adomkro","lat":"6.04889","lng":"-4.67447"},{"label":"Adomokro","lat":"6.07446","lng":"-4.38731"},{"label":"Adonkoua","lat":"5.41379","lng":"-4.21007"},{"label":"Adosso","lat":"5.35495","lng":"-3.52474"},{"label":"Adouakouakro","lat":"6.60644","lng":"-4.42868"},{"label":"Adoukro","lat":"7.43868","lng":"-3.41997"},{"label":"Adoumangan","lat":"5.20504","lng":"-4.38902"},{"label":"Adounikro","lat":"6.72245","lng":"-3.56404"},{"label":"Adroukro","lat":"7.52348","lng":"-3.93789"},{"label":"Adzopé","lat":"6.10694","lng":"-3.86194"},{"label":"Aféré","lat":"6.90283","lng":"-4.08374"},{"label":"Affalikro","lat":"6.64548","lng":"-3.38381"},{"label":"Affery","lat":"6.32035","lng":"-3.95235"},{"label":"Affiénou","lat":"5.41118","lng":"-2.92478"},{"label":"Affounvassou","lat":"6.18518","lng":"-4.59979"},{"label":"Afotobo","lat":"7.67025","lng":"-5.46342"},{"label":"Afoumvassou","lat":"7.86344","lng":"-4.96409"},{"label":"Agba-Mbayassou","lat":"7.11518","lng":"-4.26818"},{"label":"Agbaillé","lat":"5.30068","lng":"-4.51631"},{"label":"Agbakro","lat":"7.76184","lng":"-3.97031"},{"label":"Agbakro","lat":"7.73142","lng":"-5.18443"},{"label":"Agbangnassou","lat":"7.61635","lng":"-5.01134"},{"label":"Agbanou","lat":"7.8113","lng":"-5.4127"},{"label":"Agbao","lat":"7.74586","lng":"-5.77814"},{"label":"Agbaou","lat":"6.34136","lng":"-3.85433"},{"label":"Agbossou","lat":"6.86144","lng":"-4.0816"},{"label":"Agboville","lat":"5.92801","lng":"-4.21319"},{"label":"Agnéby","lat":"5.31564","lng":"-4.34565"},{"label":"Agnéré Koffikro","lat":"6.80507","lng":"-4.9193"},{"label":"Agnia","lat":"6.502","lng":"-4.48853"},{"label":"Agnianou","lat":"7.6872","lng":"-3.75747"},{"label":"Agnibilékrou","lat":"7.13113","lng":"-3.20415"},{"label":"Agnikro","lat":"5.71703","lng":"-4.88324"},{"label":"Agninikro","lat":"7.26413","lng":"-3.4165"},{"label":"Agou","lat":"5.98289","lng":"-3.94393"},{"label":"Agoua","lat":"6.88063","lng":"-4.05587"},{"label":"Agouahin","lat":"5.97646","lng":"-4.13091"},{"label":"Aguibri","lat":"7.06224","lng":"-5.19065"},{"label":"Ahéoua","lat":"6.36064","lng":"-3.86087"},{"label":"Ahiérémou","lat":"6.21777","lng":"-4.93012"},{"label":"Ahigbé Koffikro","lat":"5.40755","lng":"-3.38023"},{"label":"Ahinikro","lat":"6.52642","lng":"-3.60543"},{"label":"Ahiroa","lat":"6.17474","lng":"-4.63357"},{"label":"Ahitou-Kongonou","lat":"7.31878","lng":"-5.12597"},{"label":"Ahizabré","lat":"6.04923","lng":"-6.09978"},{"label":"Ahokoi","lat":"6.15882","lng":"-3.73841"},{"label":"Ahondo","lat":"6.30673","lng":"-5.15111"},{"label":"Ahorosso","lat":"6.68202","lng":"-4.20299"},{"label":"Ahouakoi","lat":"5.70295","lng":"-3.87047"},{"label":"Ahouakro","lat":"6.11987","lng":"-4.87238"},{"label":"Ahouanou","lat":"6.51495","lng":"-4.6295"},{"label":"Ahouanou","lat":"5.50565","lng":"-4.8588"},{"label":"Ahouati","lat":"6.1096","lng":"-4.97304"},{"label":"Ahouaya","lat":"5.47693","lng":"-4.50935"},{"label":"Ahoué","lat":"5.4975","lng":"-3.94574"},{"label":"Ahouékro","lat":"6.49684","lng":"-5.21863"},{"label":"Ahougnanfoutou","lat":"5.56936","lng":"-4.87974"},{"label":"Ahougnassou-Allahou","lat":"7.16231","lng":"-5.0622"},{"label":"Ahougnassou-N'Gbanou","lat":"7.16208","lng":"-5.07639"},{"label":"Ahounan","lat":"6.49535","lng":"-4.35452"},{"label":"Ahoussoukro","lat":"6.82456","lng":"-4.52583"},{"label":"Ahoutouagui","lat":"5.33693","lng":"-6.47087"},{"label":"Ahoutoué","lat":"5.47429","lng":"-3.80419"},{"label":"Ahua","lat":"6.66535","lng":"-4.67239"},{"label":"Ahuikoi","lat":"6.16573","lng":"-3.72067"},{"label":"Aka Nguessankro","lat":"7.16835","lng":"-5.77559"},{"label":"Aka-Chantier","lat":"5.67535","lng":"-3.32939"},{"label":"Akabia","lat":"6.03626","lng":"-5.45422"},{"label":"Akabréboua","lat":"5.89255","lng":"-5.64916"},{"label":"Akadiafoué","lat":"7.61329","lng":"-5.52934"},{"label":"Akakomoékrou","lat":"7.44764","lng":"-3.52388"},{"label":"Akakro","lat":"7.0092","lng":"-5.55546"},{"label":"Akakro","lat":"5.48241","lng":"-4.5159"},{"label":"Akakro-N'Gban","lat":"6.31867","lng":"-4.92676"},{"label":"Akalékro","lat":"5.61062","lng":"-4.82517"},{"label":"Akanzakro","lat":"7.60907","lng":"-5.10971"},{"label":"Akasso","lat":"7.25529","lng":"-3.20922"},{"label":"Akati","lat":"6.39852","lng":"-3.21473"},{"label":"Akayaokro","lat":"6.76757","lng":"-5.00204"},{"label":"Aké-Béfiat","lat":"5.66523","lng":"-4.17544"},{"label":"Akékoua","lat":"5.499","lng":"-3.88158"},{"label":"Akimouyaokro","lat":"6.91643","lng":"-5.10682"},{"label":"Akobakabo","lat":"6.70318","lng":"-4.40021"},{"label":"Akossikro","lat":"7.1694","lng":"-4.40385"},{"label":"Akossiom","lat":"7.56667","lng":"-2.98333"},{"label":"Akotiakro","lat":"7.35858","lng":"-4.58778"},{"label":"Akouaba","lat":"6.54114","lng":"-3.41971"},{"label":"Akouai-Agban","lat":"5.31055","lng":"-3.85515"},{"label":"Akouai-Santai","lat":"5.36568","lng":"-3.89847"},{"label":"Akoudzin","lat":"6.02639","lng":"-3.98333"},{"label":"Akouéboué","lat":"7.44548","lng":"-4.1446"},{"label":"Akoungou","lat":"5.66988","lng":"-4.78576"},{"label":"Akounougbé","lat":"5.18278","lng":"-3.17836"},{"label":"Akoupé","lat":"6.38423","lng":"-3.88759"},{"label":"Akouré","lat":"5.37742","lng":"-3.74779"},{"label":"Akowébo","lat":"6.94458","lng":"-5.87372"},{"label":"Akoyaté","lat":"5.38625","lng":"-3.84733"},{"label":"Akoye Ndénou","lat":"7.2383","lng":"-5.07072"},{"label":"Akpessékro","lat":"6.72488","lng":"-5.30602"},{"label":"Akpuibo","lat":"7.50145","lng":"-5.04083"},{"label":"Akradio","lat":"5.43719","lng":"-4.36353"},{"label":"Akréby","lat":"6.14352","lng":"-3.38539"},{"label":"Akridou","lat":"5.62668","lng":"-5.60681"},{"label":"Akroidokikro","lat":"7.31708","lng":"-3.13952"},{"label":"Akrou","lat":"5.20814","lng":"-4.3572"},{"label":"Akroufra","lat":"6.33965","lng":"-5.49123"},{"label":"Alakro","lat":"7.06367","lng":"-3.69879"},{"label":"Alangouanou","lat":"5.15211","lng":"-2.93518"},{"label":"Alanikro","lat":"7.33575","lng":"-4.86845"},{"label":"Alékro","lat":"7.9653","lng":"-5.53024"},{"label":"Alépé","lat":"5.5004","lng":"-3.66308"},{"label":"Alikoassué","lat":"7.19394","lng":"-2.98796"},{"label":"Allaha","lat":"7.19586","lng":"-5.10955"},{"label":"Allahou-Bazi","lat":"7.03485","lng":"-5.53339"},{"label":"Allai-Yaokro","lat":"6.97742","lng":"-5.49517"},{"label":"Allakro","lat":"6.32936","lng":"-4.54824"},{"label":"Allangba-Konankro","lat":"6.94754","lng":"-5.76453"},{"label":"Allangbakro","lat":"6.75314","lng":"-4.41157"},{"label":"Allangouassou","lat":"7.50926","lng":"-4.58246"},{"label":"Allokoa","lat":"5.39738","lng":"-4.14884"},{"label":"Allomanou Ahagnino","lat":"7.96827","lng":"-4.83751"},{"label":"Alluminankro","lat":"6.39046","lng":"-5.07277"},{"label":"Alohoré","lat":"5.26641","lng":"-3.43932"},{"label":"Alongo","lat":"6.37946","lng":"-4.46852"},{"label":"Alosso-II","lat":"5.56437","lng":"-3.50035"},{"label":"Aloukro Diékro","lat":"7.34681","lng":"-5.25833"},{"label":"Alounamouénou","lat":"7.52444","lng":"-3.80139"},{"label":"Aloussou","lat":"7.60836","lng":"-3.79793"},{"label":"Aman Salékro","lat":"7.25208","lng":"-5.58005"},{"label":"Amangbo","lat":"6.0206","lng":"-4.37141"},{"label":"Amangouakro","lat":"6.86664","lng":"-3.76973"},{"label":"Amani","lat":"5.69753","lng":"-4.72254"},{"label":"Amani-N'Guessankro","lat":"6.17448","lng":"-4.41683"},{"label":"Amanikro","lat":"6.17933","lng":"-4.63629"},{"label":"Amankro","lat":"7.41642","lng":"-3.99542"},{"label":"Amanvi","lat":"7.96972","lng":"-3.13889"},{"label":"Amaragui","lat":"5.81337","lng":"-6.71579"},{"label":"Amélékia","lat":"6.83036","lng":"-3.57522"},{"label":"Amian","lat":"6.46745","lng":"-3.64043"},{"label":"Amodi","lat":"8.13484","lng":"-3.0707"},{"label":"Amonkro","lat":"7.08498","lng":"-5.03104"},{"label":"Amonkro","lat":"6.96964","lng":"-5.42841"},{"label":"Amoragui","lat":"5.40195","lng":"-6.65143"},{"label":"Amoriakro","lat":"7.09941","lng":"-3.52821"},{"label":"Amoriki","lat":"7.08793","lng":"-4.16155"},{"label":"Amorofikroum","lat":"7.60106","lng":"-3.14964"},{"label":"Amoukoukro","lat":"7.11557","lng":"-3.62834"},{"label":"Anakikro","lat":"7.56667","lng":"-3.33333"},{"label":"Anamakro","lat":"7.35949","lng":"-4.00119"},{"label":"Ananda","lat":"7.28333","lng":"-4.26667"},{"label":"Ananguié","lat":"6.22299","lng":"-3.77333"},{"label":"Ancien-Prozi","lat":"7.66885","lng":"-6.96881"},{"label":"Andé","lat":"6.78176","lng":"-4.08517"},{"label":"Andé","lat":"6.04172","lng":"-3.95376"},{"label":"Andianou","lat":"7.02067","lng":"-4.47278"},{"label":"Ando-Zumé","lat":"7.27319","lng":"-5.3474"},{"label":"Andobo","lat":"7.40299","lng":"-5.29987"},{"label":"Andou Mbatto","lat":"5.40489","lng":"-3.657"},{"label":"Andoufoué","lat":"7.38172","lng":"-5.23963"},{"label":"Anékouadiokro","lat":"6.6415","lng":"-3.71434"},{"label":"Aneykro","lat":"6.21718","lng":"-3.31038"},{"label":"Anga","lat":"5.2147","lng":"-3.28774"},{"label":"Angagui","lat":"5.94737","lng":"-6.81144"},{"label":"Angamankro","lat":"7.49831","lng":"-5.1747"},{"label":"Angan-Konankro","lat":"6.77765","lng":"-4.89092"},{"label":"Angaye","lat":"9.59027","lng":"-3.2891"},{"label":"Angbavia","lat":"6.38643","lng":"-5.01624"},{"label":"Angboudjou","lat":"5.15408","lng":"-3.20718"},{"label":"Anglanou","lat":"6.29507","lng":"-4.4842"},{"label":"Angoakro","lat":"7.36099","lng":"-4.31589"},{"label":"Angobila","lat":"8.46979","lng":"-3.56173"},{"label":"Angoda","lat":"6.67795","lng":"-5.02275"},{"label":"Angoikoi","lat":"5.52705","lng":"-3.87534"},{"label":"Angolokaha","lat":"8.51825","lng":"-5.17567"},{"label":"Angouassi","lat":"7.00139","lng":"-5.40361"},{"label":"Angoubékoua","lat":"5.67193","lng":"-3.91018"},{"label":"Angovia","lat":"7.03305","lng":"-5.53697"},{"label":"Ania-Assikasso","lat":"7.10959","lng":"-4.06571"},{"label":"Anialesso","lat":"6.52374","lng":"-4.31897"},{"label":"Aniassué","lat":"6.65368","lng":"-3.68103"},{"label":"Anna","lat":"5.32454","lng":"-3.87876"},{"label":"Annékrou","lat":"6.75068","lng":"-4.11128"},{"label":"Annépé","lat":"5.90612","lng":"-3.76986"},{"label":"Anno","lat":"5.85952","lng":"-4.37902"},{"label":"Anonkro","lat":"5.57568","lng":"-3.54932"},{"label":"Anouanze Bokaha","lat":"7.00797","lng":"-4.84151"},{"label":"Anougbakro","lat":"6.96271","lng":"-3.74453"},{"label":"Anoumaba","lat":"6.33735","lng":"-4.51626"},{"label":"Anoumabo","lat":"7.09269","lng":"-3.95327"},{"label":"Anoumabou","lat":"5.62144","lng":"-5.10824"},{"label":"Anyama","lat":"5.49462","lng":"-4.05183"},{"label":"Anyanfoutou","lat":"7.20075","lng":"-3.24777"},{"label":"Aokokro","lat":"7.8058","lng":"-5.45099"},{"label":"Aouabo","lat":"6.23958","lng":"-3.79218"},{"label":"Aouakamissi","lat":"7.44039","lng":"-3.55062"},{"label":"Aouan","lat":"7.51945","lng":"-3.66748"},{"label":"Aouniafoutou","lat":"7.6903","lng":"-5.32191"},{"label":"Aounienfoutou","lat":"6.78133","lng":"-4.37633"},{"label":"Aounyassou","lat":"7.16785","lng":"-5.05932"},{"label":"Aounzé","lat":"7.75106","lng":"-5.39949"},{"label":"Aourossua","lat":"7.40796","lng":"-3.05859"},{"label":"Aoussakomoékrou","lat":"7.15376","lng":"-3.65503"},{"label":"Aparagra","lat":"6.14106","lng":"-5.14555"},{"label":"Apiadji","lat":"5.94551","lng":"-3.83879"},{"label":"Appiakro","lat":"6.32901","lng":"-4.53829"},{"label":"Appimandoum","lat":"7.89569","lng":"-2.87273"},{"label":"Appouasso","lat":"5.96305","lng":"-3.17605"},{"label":"Appouessou","lat":"6.54846","lng":"-3.42755"},{"label":"Apprompron","lat":"6.29219","lng":"-3.31526"},{"label":"Apron-Pronou","lat":"7.00129","lng":"-3.36017"},{"label":"Arikokaha","lat":"8.78763","lng":"-5.19306"},{"label":"Arikokro","lat":"7.15163","lng":"-4.07106"},{"label":"Armébé","lat":"5.34693","lng":"-4.33779"},{"label":"Arobo","lat":"6.89341","lng":"-3.85799"},{"label":"Arraguié","lat":"6.01258","lng":"-4.14541"},{"label":"Arrah","lat":"6.67342","lng":"-3.96938"},{"label":"Assabli-Komenankro","lat":"7.2929","lng":"-4.20776"},{"label":"Assabonou","lat":"7.26325","lng":"-5.10548"},{"label":"Assafou","lat":"6.73429","lng":"-5.04775"},{"label":"Assahara","lat":"6.66643","lng":"-4.49775"},{"label":"Assaie-kouassikro","lat":"6.96509","lng":"-3.90343"},{"label":"Assakra","lat":"6.39525","lng":"-4.89361"},{"label":"Assakra","lat":"7.69433","lng":"-5.46139"},{"label":"Assakro","lat":"7.88501","lng":"-5.56242"},{"label":"Assangbadji","lat":"6.40782","lng":"-3.87669"},{"label":"Assanou","lat":"6.99442","lng":"-5.15835"},{"label":"Assaoufoué","lat":"6.57675","lng":"-4.22405"},{"label":"Assarékro","lat":"6.55759","lng":"-4.41626"},{"label":"Assé Ngatakro","lat":"7.05764","lng":"-5.09494"},{"label":"Assé-Assasso","lat":"6.74696","lng":"-4.25821"},{"label":"Assékouamékro","lat":"6.3894","lng":"-5.16573"},{"label":"Assémanou","lat":"6.78906","lng":"-3.75687"},{"label":"Assembo","lat":"7.16903","lng":"-5.004"},{"label":"Assengou","lat":"7.66935","lng":"-5.52512"},{"label":"Assengoukpri","lat":"7.75806","lng":"-4.88699"},{"label":"Assenzé","lat":"7.69169","lng":"-5.5483"},{"label":"Asseolié","lat":"6.18806","lng":"-3.63671"},{"label":"Asseudji","lat":"6.32867","lng":"-3.93577"},{"label":"Asséyokro","lat":"7.66973","lng":"-5.74023"},{"label":"Assiasso","lat":"7.91279","lng":"-3.2381"},{"label":"Assié Akpessé","lat":"6.46539","lng":"-4.33607"},{"label":"Assié koumassi","lat":"6.76966","lng":"-4.28954"},{"label":"Assié-Kokore","lat":"6.77508","lng":"-4.31591"},{"label":"Assika-Kayabo","lat":"6.87023","lng":"-4.4001"},{"label":"Assika-Kpolessou","lat":"6.89379","lng":"-4.36789"},{"label":"Assikasso","lat":"7.08556","lng":"-3.21694"},{"label":"Assikoa","lat":"5.99326","lng":"-3.80923"},{"label":"Assikoun","lat":"6.4175","lng":"-3.88306"},{"label":"Assikro","lat":"6.64759","lng":"-3.89266"},{"label":"Assindi","lat":"7.46572","lng":"-3.33657"},{"label":"Assinie-Mafia","lat":"5.13384","lng":"-3.29096"},{"label":"Assinzé","lat":"6.5348","lng":"-5.14197"},{"label":"Assinzé","lat":"5.78078","lng":"-4.79612"},{"label":"Assomlan","lat":"5.20039","lng":"-3.29555"},{"label":"Assouakro","lat":"7.42647","lng":"-5.09685"},{"label":"Assouakro","lat":"6.96687","lng":"-4.00974"},{"label":"Assouba","lat":"5.45956","lng":"-3.25653"},{"label":"Assoum","lat":"9.19042","lng":"-3.09302"},{"label":"Assoumou-Kouassikro","lat":"7.58642","lng":"-3.7868"},{"label":"Assoumoukro","lat":"6.46403","lng":"-4.3728"},{"label":"Assounvouè","lat":"6.48364","lng":"-4.97957"},{"label":"Assuako","lat":"7.41421","lng":"-2.99743"},{"label":"Assuamakro","lat":"7.18944","lng":"-3.03083"},{"label":"Assuamé","lat":"7.16638","lng":"-3.20761"},{"label":"Assué Un","lat":"5.13134","lng":"-3.00332"},{"label":"Assuéfri","lat":"7.69973","lng":"-2.97847"},{"label":"Assuéti","lat":"7.17852","lng":"-3.9292"},{"label":"Assuétya","lat":"7.6","lng":"-3"},{"label":"Assuikro","lat":"7.08582","lng":"-5.38831"},{"label":"Atakrou","lat":"7.2162","lng":"-3.08411"},{"label":"Atchegouakro","lat":"7.35314","lng":"-4.74274"},{"label":"Atitiasso","lat":"7.55487","lng":"-2.99134"},{"label":"Atokouadiokro","lat":"7.37739","lng":"-3.0987"},{"label":"Atokoum","lat":"7.49691","lng":"-2.94293"},{"label":"Atokro","lat":"7.83254","lng":"-4.34769"},{"label":"Atrénou","lat":"6.9913","lng":"-5.39828"},{"label":"Atrobou","lat":"6.09021","lng":"-4.0589"},{"label":"Attiégouakro","lat":"6.77402","lng":"-5.11411"},{"label":"Attiékoi","lat":"5.53616","lng":"-3.96866"},{"label":"Attien Kouassikro","lat":"7.09887","lng":"-4.87179"},{"label":"Attinguié","lat":"5.46739","lng":"-4.18549"},{"label":"Attinguié","lat":"6.06445","lng":"-4.5485"},{"label":"Attobro","lat":"7.04005","lng":"-3.38141"},{"label":"Attossè","lat":"6.8751","lng":"-5.86769"},{"label":"Attoutou","lat":"5.22099","lng":"-4.57236"},{"label":"Audoin Santé","lat":"5.28995","lng":"-4.13712"},{"label":"Auénou","lat":"7.15998","lng":"-3.2246"},{"label":"Avagou","lat":"5.21132","lng":"-4.32612"},{"label":"Awahikro","lat":"8.30037","lng":"-3.95188"},{"label":"Awalézo","lat":"5.54602","lng":"-5.20729"},{"label":"Aya Prikro","lat":"7.28037","lng":"-5.23209"},{"label":"Ayamé","lat":"5.6052","lng":"-3.15709"},{"label":"Ayaou-Sokpa","lat":"7.42057","lng":"-5.61407"},{"label":"Ayébo","lat":"5.44242","lng":"-3.26408"},{"label":"Ayénoua","lat":"5.36681","lng":"-3.31774"},{"label":"Ayéwahi","lat":"5.35977","lng":"-4.18641"},{"label":"Ayzan-Kouamikro","lat":"7.47808","lng":"-3.91771"},{"label":"Azaguié","lat":"5.62984","lng":"-4.08204"},{"label":"Azuretti","lat":"5.20498","lng":"-3.77778"},{"label":"Baazra","lat":"7.45779","lng":"-6.09209"},{"label":"Babakro","lat":"7.76951","lng":"-3.97942"},{"label":"Babasso","lat":"8.53982","lng":"-6.69245"},{"label":"Babien","lat":"7.95339","lng":"-6.87053"},{"label":"Babli Yaya","lat":"6.61234","lng":"-8.15274"},{"label":"Bably","lat":"7.02553","lng":"-7.87339"},{"label":"Babokoon-Appolo","lat":"5.54378","lng":"-5.33148"},{"label":"Babroukro","lat":"7.9177","lng":"-5.45856"},{"label":"Bacanda","lat":"5.63331","lng":"-4.87758"},{"label":"Bacon","lat":"6.35602","lng":"-3.91017"},{"label":"Bada","lat":"8.1251","lng":"-5.52039"},{"label":"Badadon","lat":"5.136","lng":"-5.25151"},{"label":"Badasso","lat":"5.68172","lng":"-4.52113"},{"label":"Badayo I","lat":"5.86289","lng":"-6.63572"},{"label":"Badié","lat":"6.18875","lng":"-5.64763"},{"label":"Badiéboué","lat":"5.32211","lng":"-5.92179"},{"label":"Badiéfla","lat":"7.59432","lng":"-5.96015"},{"label":"Badiépa","lat":"6.26602","lng":"-5.82291"},{"label":"Badikaha","lat":"9.19166","lng":"-5.16499"},{"label":"Badiké","lat":"4.60139","lng":"-6.9818"},{"label":"Badon","lat":"9.45035","lng":"-6.06804"},{"label":"Badoua","lat":"5.17474","lng":"-3.07317"},{"label":"Badouboua","lat":"6.68742","lng":"-6.4322"},{"label":"Badyokaha","lat":"8.81993","lng":"-5.19838"},{"label":"Baffia","lat":"5.53891","lng":"-2.99023"},{"label":"Bafretou","lat":"8.79161","lng":"-6.5986"},{"label":"Bagabasso","lat":"8.45926","lng":"-6.7496"},{"label":"Bagao","lat":"8.17265","lng":"-5.70502"},{"label":"Bagasséhoa","lat":"6.19053","lng":"-6.36254"},{"label":"Bagatogo","lat":"8.75546","lng":"-6.7023"},{"label":"Baglo","lat":"6.37166","lng":"-7.1439"},{"label":"Bago","lat":"5.49285","lng":"-4.26868"},{"label":"Bagohouo","lat":"6.89011","lng":"-7.19282"},{"label":"Bagoliéoua","lat":"6.16794","lng":"-6.53318"},{"label":"Bagouri","lat":"7.12992","lng":"-6.81457"},{"label":"Bahé-Blaon","lat":"6.67073","lng":"-7.34265"},{"label":"Bahiry","lat":"7.30762","lng":"-6.73641"},{"label":"Baibli","lat":"7.17618","lng":"-7.29729"},{"label":"Baïfla","lat":"7.18266","lng":"-6.30266"},{"label":"Bakadou I","lat":"5.39787","lng":"-6.02241"},{"label":"Bakandésso","lat":"7.88545","lng":"-7.67258"},{"label":"Bakanou A","lat":"5.59411","lng":"-4.63455"},{"label":"Bakayo","lat":"5.53272","lng":"-6.04418"},{"label":"Bako","lat":"9.13911","lng":"-7.61037"},{"label":"Bakopla","lat":"7.76737","lng":"-5.88271"},{"label":"Bakoro-Sobara","lat":"8.38953","lng":"-4.72695"},{"label":"Bakoubli","lat":"6.4625","lng":"-8.40298"},{"label":"Bakro","lat":"5.50681","lng":"-3.2455"},{"label":"Balahio","lat":"6.31448","lng":"-6.42587"},{"label":"Balakouya","lat":"5.20771","lng":"-6.35163"},{"label":"Balam","lat":"6.50894","lng":"-6.29244"},{"label":"Balayo","lat":"6.44012","lng":"-6.01255"},{"label":"Baléko","lat":"5.4339","lng":"-6.02594"},{"label":"Balia","lat":"6.74631","lng":"-6.65214"},{"label":"Bamanasso","lat":"8.38326","lng":"-6.13276"},{"label":"Bambadougou","lat":"8.76847","lng":"-7.60612"},{"label":"Bambalouma","lat":"7.85106","lng":"-6.00107"},{"label":"Bamo","lat":"5.80501","lng":"-5.96597"},{"label":"Bamoro","lat":"7.83608","lng":"-5.04218"},{"label":"Bampleu","lat":"7.40187","lng":"-8.3051"},{"label":"Bana","lat":"8.37105","lng":"-2.92306"},{"label":"Banabo","lat":"6.70218","lng":"-4.29038"},{"label":"Banandjé","lat":"8.81943","lng":"-6.74527"},{"label":"Banankoro","lat":"8.42698","lng":"-6.22803"},{"label":"Bandakagni-Tomora","lat":"8.00659","lng":"-3.30313"},{"label":"Bandakanyi-Sokoura","lat":"8.11118","lng":"-3.62799"},{"label":"Bandiay","lat":"7.2","lng":"-6.18333"},{"label":"Bandoli","lat":"8.59226","lng":"-2.70806"},{"label":"Bangalidougou","lat":"5.62677","lng":"-6.04211"},{"label":"Bangofla","lat":"7.68876","lng":"-5.93241"},{"label":"Bangokro","lat":"6.75496","lng":"-4.55463"},{"label":"Bangolo","lat":"7.01232","lng":"-7.48639"},{"label":"Bangolo Tahouake","lat":"7.04119","lng":"-7.168"},{"label":"Bangorédoukou","lat":"5.28157","lng":"-5.13427"},{"label":"Bangoua","lat":"7.33542","lng":"-3.47303"},{"label":"Banguié I","lat":"5.90159","lng":"-4.20054"},{"label":"Banhui","lat":"8.33333","lng":"-3.06667"},{"label":"Bankolo","lat":"8.53148","lng":"-4.20922"},{"label":"Banlé","lat":"7.16775","lng":"-7.55263"},{"label":"Banneu","lat":"7.07343","lng":"-8.25311"},{"label":"Banoufla","lat":"7.11998","lng":"-6.31833"},{"label":"Bantifla","lat":"6.74876","lng":"-6.10672"},{"label":"Banyeleu","lat":"6.87099","lng":"-8.24156"},{"label":"Baonfla","lat":"6.83328","lng":"-5.49849"},{"label":"Baou","lat":"7.26825","lng":"-7.37117"},{"label":"Baoubli","lat":"6.80566","lng":"-7.39931"},{"label":"Baoulékofikro","lat":"7.37505","lng":"-2.97013"},{"label":"Baoutifla","lat":"7.23425","lng":"-6.47485"},{"label":"Bapé","lat":"4.98131","lng":"-7.50861"},{"label":"Baradougou","lat":"8.10156","lng":"-5.64934"},{"label":"Barakodi","lat":"8.45682","lng":"-3.21546"},{"label":"Barala","lat":"8.94864","lng":"-7.8178"},{"label":"Barala","lat":"8.94863","lng":"-7.62054"},{"label":"Baranzié","lat":"7.97183","lng":"-4.51204"},{"label":"Barhana","lat":"8.17194","lng":"-6.81278"},{"label":"Barikokro","lat":"7.24989","lng":"-4.03464"},{"label":"Basawa","lat":"8.05154","lng":"-4.10329"},{"label":"Bassadzin","lat":"5.93741","lng":"-3.73819"},{"label":"Bassaraguhé","lat":"6.67274","lng":"-6.84779"},{"label":"Basséhoa","lat":"6.12641","lng":"-6.23964"},{"label":"Bassélé","lat":"9.26819","lng":"-4.79814"},{"label":"Bassi","lat":"6.27456","lng":"-6.20787"},{"label":"Batéguédia","lat":"6.81056","lng":"-6.68742"},{"label":"Batéra","lat":"5.83675","lng":"-4.73038"},{"label":"Batyébli","lat":"7.268","lng":"-7.27051"},{"label":"Bauhiéleu","lat":"7.00511","lng":"-8.10463"},{"label":"Baunda","lat":"7.62199","lng":"-4.73703"},{"label":"Baunda","lat":"7.26087","lng":"-4.64733"},{"label":"Baunza Manlékro","lat":"7.38948","lng":"-4.63086"},{"label":"Bavayo","lat":"8.62931","lng":"-3.72639"},{"label":"Bawakaha","lat":"9.49932","lng":"-5.41023"},{"label":"Baya","lat":"9.90531","lng":"-6.24781"},{"label":"Bayota","lat":"6.46477","lng":"-5.95427"},{"label":"Bazi","lat":"6.80984","lng":"-5.74144"},{"label":"Baziafla","lat":"7.08194","lng":"-5.82186"},{"label":"Bazré","lat":"6.72443","lng":"-5.48283"},{"label":"Béablo","lat":"6.37887","lng":"-7.33397"},{"label":"Bébou","lat":"6.3617","lng":"-3.41275"},{"label":"Bébouo-sibouo","lat":"6.81967","lng":"-6.23775"},{"label":"Bécédi","lat":"5.64167","lng":"-4.58216"},{"label":"Bécédi-Brignan","lat":"5.90909","lng":"-4.01281"},{"label":"Bécouéfin","lat":"6.48086","lng":"-3.84625"},{"label":"Bédé-N'Goran-M'Po","lat":"6.15672","lng":"-4.4623"},{"label":"Bédiala","lat":"7.16008","lng":"-6.30642"},{"label":"Bédigoazon","lat":"6.56363","lng":"-7.77749"},{"label":"Bèfla","lat":"7.21185","lng":"-6.13989"},{"label":"Bégbessou","lat":"7.06697","lng":"-5.59738"},{"label":"Bégouafla","lat":"6.54698","lng":"-5.80882"},{"label":"Béhébou","lat":"6.31697","lng":"-7.41991"},{"label":"Behiboue","lat":"6.36528","lng":"-6.51778"},{"label":"Béhiri","lat":"5.63464","lng":"-5.44031"},{"label":"Béinleu","lat":"7.22838","lng":"-7.88256"},{"label":"Békié II","lat":"6.5197","lng":"-6.71715"},{"label":"Békipréa","lat":"6.82854","lng":"-6.48428"},{"label":"Bélakro","lat":"7.6678","lng":"-5.504"},{"label":"Bélam","lat":"6.29094","lng":"-6.13541"},{"label":"Bélé","lat":"10.28008","lng":"-6.57508"},{"label":"Bèlé","lat":"7.25793","lng":"-7.65161"},{"label":"Béliéguhé","lat":"6.51766","lng":"-6.78283"},{"label":"Belleville","lat":"6.18021","lng":"-6.90529"},{"label":"Belleville","lat":"6.87341","lng":"-6.84829"},{"label":"Bémadi","lat":"6.4935","lng":"-6.63674"},{"label":"Bémavogo","lat":"9.02243","lng":"-5.46561"},{"label":"Béna","lat":"7.98126","lng":"-6.67885"},{"label":"Bénanou","lat":"7.06522","lng":"-4.00069"},{"label":"Bendé Kouassikro","lat":"7.66667","lng":"-5.14505"},{"label":"Bendéfla","lat":"6.72384","lng":"-5.49777"},{"label":"Bendékro","lat":"6.84737","lng":"-4.59025"},{"label":"Bendressou","lat":"6.55499","lng":"-4.954"},{"label":"Bénéné","lat":"6.95031","lng":"-4.0514"},{"label":"Bengbré","lat":"7.39743","lng":"-5.14534"},{"label":"Bengoro","lat":"7.83","lng":"-7.03247"},{"label":"Benhuafla","lat":"6.59526","lng":"-5.87943"},{"label":"Beniakré","lat":"5.45227","lng":"-3.4266"},{"label":"Béniasso","lat":"10.48004","lng":"-6.58577"},{"label":"Benkro","lat":"6.47935","lng":"-5.55623"},{"label":"Benou","lat":"6.91719","lng":"-5.83443"},{"label":"Bénoufla","lat":"7.61033","lng":"-6.28596"},{"label":"Benzra","lat":"7.32774","lng":"-6.00849"},{"label":"Béon-Gohouo","lat":"6.98648","lng":"-7.56882"},{"label":"Béoua","lat":"6.5399","lng":"-7.64601"},{"label":"Béoua-Zarabaon","lat":"6.99964","lng":"-7.81964"},{"label":"Béoué","lat":"6.95973","lng":"-7.47916"},{"label":"Béoué","lat":"6.54962","lng":"-7.87281"},{"label":"Béoumi","lat":"7.67395","lng":"-5.58085"},{"label":"Bepleu","lat":"6.99987","lng":"-8.04618"},{"label":"Bépleu","lat":"6.85975","lng":"-8.22819"},{"label":"Béréblo","lat":"5.27505","lng":"-7.46269"},{"label":"Béréman","lat":"8.39686","lng":"-6.76193"},{"label":"Béréni-Dialla","lat":"8.00364","lng":"-6.86094"},{"label":"Bériaboukro","lat":"6.38376","lng":"-5.30438"},{"label":"Bériéoa","lat":"6.31234","lng":"-6.13721"},{"label":"Bessedi Anon","lat":"5.92585","lng":"-3.99411"},{"label":"Bétéma","lat":"8.09638","lng":"-7.17773"},{"label":"Bétié","lat":"7.70222","lng":"-3.96751"},{"label":"Bétigogoua","lat":"6.42997","lng":"-6.59272"},{"label":"Béttié","lat":"6.07568","lng":"-3.40846"},{"label":"Bévogo","lat":"9.66913","lng":"-5.48097"},{"label":"Béyo","lat":"5.6316","lng":"-5.98505"},{"label":"Béziaka","lat":"7.45555","lng":"-6.13979"},{"label":"Bézibouo","lat":"6.66757","lng":"-6.50392"},{"label":"Biakalé","lat":"7.46067","lng":"-7.69453"},{"label":"Biakou","lat":"6.34173","lng":"-5.83675"},{"label":"Bialata","lat":"7.12918","lng":"-6.31403"},{"label":"Bianhitouo","lat":"7.04896","lng":"-8.26465"},{"label":"Biankouma","lat":"7.73909","lng":"-7.61377"},{"label":"Bianouan","lat":"6.01203","lng":"-3.19024"},{"label":"Biantouo","lat":"6.96438","lng":"-8.24995"},{"label":"Biasso","lat":"6.11151","lng":"-3.78657"},{"label":"Bibikoréfla","lat":"7.40574","lng":"-5.98369"},{"label":"Bibita","lat":"7.69712","lng":"-7.08554"},{"label":"Bidihé","lat":"6.19348","lng":"-5.62545"},{"label":"Bidiouan","lat":"6.61531","lng":"-6.23701"},{"label":"Biéby","lat":"6.07873","lng":"-3.63548"},{"label":"Biegon","lat":"6.80083","lng":"-6.0175"},{"label":"Biéguhé II","lat":"6.71706","lng":"-6.58386"},{"label":"Biélé","lat":"7.58282","lng":"-7.62268"},{"label":"Bielou-carrefour","lat":"8.54139","lng":"-6.20056"},{"label":"Biénoufla","lat":"7.36891","lng":"-6.6265"},{"label":"Bieupleu","lat":"7.43119","lng":"-8.16836"},{"label":"Bieutouo","lat":"6.90177","lng":"-8.21362"},{"label":"Bigouin","lat":"7.37767","lng":"-7.51075"},{"label":"Bikassi","lat":"8.4909","lng":"-6.05878"},{"label":"Bilaodi","lat":"8.15346","lng":"-3.14209"},{"label":"Bilikéhi","lat":"8.26736","lng":"-3.21503"},{"label":"Bilimono","lat":"8.92198","lng":"-4.14786"},{"label":"Billahio","lat":"6.21378","lng":"-6.14614"},{"label":"Bin-Houyé","lat":"6.78241","lng":"-8.31311"},{"label":"Bindolo","lat":"8.13451","lng":"-4.26049"},{"label":"Bingassou","lat":"6.79419","lng":"-4.48514"},{"label":"Bingerville","lat":"5.35581","lng":"-3.88537"},{"label":"Binguébougou","lat":"9.52266","lng":"-5.8105"},{"label":"Binoufla","lat":"6.67386","lng":"-5.88426"},{"label":"Biongouiné","lat":"7.16168","lng":"-7.80235"},{"label":"Bisidougou","lat":"8.65983","lng":"-5.86867"},{"label":"Bissaguhé","lat":"6.65314","lng":"-6.5643"},{"label":"Bissassé","lat":"7.51387","lng":"-3.04915"},{"label":"Bitapia","lat":"6.49467","lng":"-6.48434"},{"label":"Bla","lat":"6.72663","lng":"-6.47568"},{"label":"Blablata","lat":"7.28616","lng":"-6.2456"},{"label":"Blagbanié","lat":"5.35286","lng":"-6.58816"},{"label":"Blagouin","lat":"7.69521","lng":"-7.70049"},{"label":"Blagounon","lat":"9.75622","lng":"-6.16507"},{"label":"Blaguiéhi","lat":"6.95799","lng":"-7.66503"},{"label":"Blahou","lat":"4.93107","lng":"-6.55781"},{"label":"Blanoufla","lat":"6.79583","lng":"-6.03671"},{"label":"Blapleu","lat":"7.63918","lng":"-7.73705"},{"label":"Blawara","lat":"9.49843","lng":"-5.72837"},{"label":"Blé","lat":"6.82036","lng":"-5.85306"},{"label":"Bléanianda","lat":"6.3072","lng":"-5.70499"},{"label":"Blédi","lat":"7.49894","lng":"-5.09463"},{"label":"Blédi Diéya","lat":"6.58627","lng":"-8.06722"},{"label":"Blédiéméné","lat":"9.76917","lng":"-6.58417"},{"label":"Blédouagui","lat":"5.65583","lng":"-6.76744"},{"label":"Blékoua","lat":"6.32364","lng":"-5.64239"},{"label":"Blékoum","lat":"6.39068","lng":"-3.53685"},{"label":"Blenfla","lat":"6.85648","lng":"-5.76379"},{"label":"Bléniméouin","lat":"7.13333","lng":"-7.18333"},{"label":"Bléoulékro","lat":"5.17531","lng":"-2.94004"},{"label":"Blépleu","lat":"7.39013","lng":"-7.82972"},{"label":"Blésségue","lat":"10.19833","lng":"-6.40778"},{"label":"Blésséoua","lat":"6.24477","lng":"-6.46216"},{"label":"Blinleu","lat":"7.04997","lng":"-8.10786"},{"label":"Blita","lat":"7.52791","lng":"-7.94613"},{"label":"Blodi","lat":"6.79396","lng":"-7.2972"},{"label":"Bloho","lat":"4.88198","lng":"-7.02052"},{"label":"Blolé","lat":"7.31877","lng":"-7.51321"},{"label":"Bloléquin","lat":"6.56913","lng":"-8.00253"},{"label":"Bloleu","lat":"6.87043","lng":"-8.27073"},{"label":"Bloma","lat":"7.80638","lng":"-8.05912"},{"label":"Blonleu","lat":"7.12843","lng":"-8.06468"},{"label":"Bloteu","lat":"7.2612","lng":"-7.80331"},{"label":"Blotilé","lat":"7.04902","lng":"-7.69201"},{"label":"Boadikro","lat":"6.70381","lng":"-4.34494"},{"label":"Boahia","lat":"7.5717","lng":"-3.51489"},{"label":"Bobéadougou","lat":"5.61896","lng":"-5.24032"},{"label":"Bobi","lat":"8.16144","lng":"-6.55006"},{"label":"Bobia","lat":"6.07421","lng":"-5.83563"},{"label":"Bobokro","lat":"7.72741","lng":"-4.77298"},{"label":"Boboloua","lat":"6.42881","lng":"-6.00692"},{"label":"Boboniessoko","lat":"6.96589","lng":"-6.65652"},{"label":"Bobosso","lat":"8.51364","lng":"-4.12264"},{"label":"Bobosso-Tiénigbé","lat":"8.45183","lng":"-5.78737"},{"label":"Boboua","lat":"7.01945","lng":"-6.47003"},{"label":"Bobréguhé","lat":"6.53851","lng":"-6.56718"},{"label":"Bobuo II","lat":"5.59062","lng":"-6.02957"},{"label":"Bocabo","lat":"6.69001","lng":"-4.5914"},{"label":"Bocanda","lat":"7.06264","lng":"-4.49948"},{"label":"Bodi","lat":"8.58031","lng":"-3.17058"},{"label":"Bodiba","lat":"6.44513","lng":"-5.71371"},{"label":"Bodo","lat":"5.90955","lng":"-4.68498"},{"label":"Bodokro","lat":"7.86144","lng":"-5.47745"},{"label":"Bodossipa","lat":"6.33652","lng":"-5.95294"},{"label":"Boduaso","lat":"7.70644","lng":"-6.39561"},{"label":"Boé Sowada","lat":"6.35479","lng":"-5.67337"},{"label":"Bofésso Douma","lat":"7.55542","lng":"-7.53194"},{"label":"Bofia","lat":"6.72004","lng":"-5.00626"},{"label":"Bofia","lat":"7.21731","lng":"-5.23673"},{"label":"Bofoué-Ngatakro","lat":"7.39772","lng":"-3.99081"},{"label":"Bogbam","lat":"6.38085","lng":"-6.19258"},{"label":"Bognankro","lat":"7.01048","lng":"-4.9005"},{"label":"Bognonzra","lat":"6.94321","lng":"-5.96734"},{"label":"Bogoboua","lat":"6.02672","lng":"-5.6929"},{"label":"Bogolo","lat":"7.79383","lng":"-6.44515"},{"label":"Bogopenfla","lat":"7.29426","lng":"-5.99691"},{"label":"Bogouayo","lat":"6.07914","lng":"-6.30617"},{"label":"Bogouiné","lat":"7.2576","lng":"-7.59619"},{"label":"Bogouiné II","lat":"7.35782","lng":"-7.64211"},{"label":"Bogrényoa","lat":"6.09028","lng":"-6.01333"},{"label":"Boguédia","lat":"6.63434","lng":"-6.51915"},{"label":"Bohi","lat":"7.92487","lng":"-2.86207"},{"label":"Bohibli","lat":"6.59392","lng":"-8.24397"},{"label":"Bohinou","lat":"7.17337","lng":"-6.83116"},{"label":"Bohizra","lat":"7.48771","lng":"-6.02441"},{"label":"Bohn","lat":"5.31578","lng":"-4.49481"},{"label":"Boho","lat":"7.0859","lng":"-7.35305"},{"label":"Bohoubli","lat":"6.47056","lng":"-8.36632"},{"label":"Bohouléma","lat":"8.07173","lng":"-6.14258"},{"label":"Boignikro","lat":"5.06156","lng":"-6.46309"},{"label":"Boka","lat":"5.94293","lng":"-4.39767"},{"label":"Bokabo","lat":"7.03","lng":"-5.44222"},{"label":"Bokakokoré","lat":"6.45809","lng":"-3.38934"},{"label":"Bokala","lat":"8.40705","lng":"-4.60629"},{"label":"Bokaréguhé","lat":"6.59822","lng":"-6.85731"},{"label":"Bokassi","lat":"6.61515","lng":"-4.20065"},{"label":"Boké","lat":"4.40489","lng":"-7.37583"},{"label":"Bokéda","lat":"6.3615","lng":"-5.71192"},{"label":"Bokoré","lat":"7.80301","lng":"-3.15211"},{"label":"Bolè","lat":"9.66733","lng":"-4.24704"},{"label":"Boli","lat":"7.22648","lng":"-4.80666"},{"label":"Bolia","lat":"6.77074","lng":"-6.39726"},{"label":"Bolona","lat":"10.29666","lng":"-6.43756"},{"label":"Bolorouko","lat":"5.15391","lng":"-5.66014"},{"label":"Bombokro","lat":"6.99181","lng":"-4.5144"},{"label":"Bomizambo","lat":"7.10248","lng":"-5.23446"},{"label":"Bonaouin","lat":"6.56474","lng":"-3.76066"},{"label":"Bondié Kouamanakro","lat":"7.20439","lng":"-3.96791"},{"label":"Bondo-Dioula","lat":"8.21942","lng":"-3.2004"},{"label":"Bondoukou","lat":"8.0402","lng":"-2.80003"},{"label":"Bondoyo","lat":"8.44322","lng":"-3.4022"},{"label":"Bonéfla","lat":"7.25747","lng":"-6.25669"},{"label":"Bongana","lat":"9.60498","lng":"-6.26872"},{"label":"Bongobo","lat":"7.02056","lng":"-5.03862"},{"label":"Bongofla","lat":"7.53854","lng":"-5.78708"},{"label":"Bongouanou","lat":"6.65175","lng":"-4.20406"},{"label":"Bonguéra","lat":"7.66663","lng":"-4.24335"},{"label":"Boniérédougou","lat":"8.37683","lng":"-4.72083"},{"label":"Bonikouassikro","lat":"6.86336","lng":"-4.54889"},{"label":"Bonikro","lat":"6.38676","lng":"-5.22592"},{"label":"Bonikro","lat":"6.24264","lng":"-4.47948"},{"label":"Bonon","lat":"6.9268","lng":"-6.0489"},{"label":"Bonoua","lat":"5.27247","lng":"-3.59625"},{"label":"Bonoufla","lat":"7.12906","lng":"-6.47424"},{"label":"Bonti","lat":"6.59775","lng":"-5.21856"},{"label":"Bonyoa","lat":"6.06554","lng":"-5.8204"},{"label":"Bonzi","lat":"6.91666","lng":"-5.53405"},{"label":"Bonzi","lat":"6.82421","lng":"-5.3293"},{"label":"Bonzo","lat":"8.16028","lng":"-7.26472"},{"label":"Booda","lat":"6.36075","lng":"-5.68817"},{"label":"Bopleu","lat":"7.09835","lng":"-8.13684"},{"label":"Borokodala","lat":"8.40614","lng":"-5.86527"},{"label":"Boron","lat":"8.69445","lng":"-5.96906"},{"label":"Borotapia","lat":"6.49704","lng":"-6.54615"},{"label":"Borotou","lat":"8.7347","lng":"-7.49237"},{"label":"Borotou-Koro","lat":"8.49111","lng":"-7.17861"},{"label":"Boroumba","lat":"8.04653","lng":"-2.62145"},{"label":"Boroyaradougou","lat":"7.95261","lng":"-4.50023"},{"label":"Bossematié","lat":"6.60798","lng":"-3.44162"},{"label":"Bossignamienkro","lat":"7.28651","lng":"-3.03716"},{"label":"Botifla","lat":"7.71473","lng":"-6.47159"},{"label":"Botindé","lat":"5.7781","lng":"-4.75524"},{"label":"Botindin","lat":"5.64327","lng":"-4.90882"},{"label":"Botongouiné","lat":"7.30665","lng":"-7.57056"},{"label":"Botro","lat":"7.85249","lng":"-5.31063"},{"label":"Boua","lat":"5.01997","lng":"-7.05443"},{"label":"Boua Kako","lat":"6.14917","lng":"-5.3"},{"label":"Bouafla","lat":"7.25219","lng":"-5.84987"},{"label":"Bouafla","lat":"7.45098","lng":"-6.73428"},{"label":"Bouaflé","lat":"6.99041","lng":"-5.7442"},{"label":"Bouafoukro","lat":"6.67163","lng":"-4.47453"},{"label":"Bouagleu I","lat":"7.19947","lng":"-8.12411"},{"label":"Bouaka","lat":"7.6707","lng":"-6.09708"},{"label":"Bouaké","lat":"7.69385","lng":"-5.03031"},{"label":"Bouan Houyé","lat":"7.54624","lng":"-8.33217"},{"label":"Bouandougou","lat":"8.21598","lng":"-5.66962"},{"label":"Bouapé","lat":"6.26239","lng":"-3.81457"},{"label":"Boubélé","lat":"4.48859","lng":"-7.24347"},{"label":"Bouboury","lat":"5.33871","lng":"-4.4596"},{"label":"Boudépé","lat":"5.98392","lng":"-3.98698"},{"label":"Bouébly","lat":"7.21268","lng":"-7.21138"},{"label":"Bouedianfla","lat":"7.51139","lng":"-5.845"},{"label":"Bouénneu","lat":"6.92505","lng":"-8.22727"},{"label":"Bougou","lat":"10.22306","lng":"-5.8657"},{"label":"Bougouloboua","lat":"6.54731","lng":"-6.33324"},{"label":"Bougouma","lat":"8.38954","lng":"-6.14187"},{"label":"Bougousso","lat":"9.25696","lng":"-7.82416"},{"label":"Bouitafla","lat":"7.37556","lng":"-6.46221"},{"label":"Boukébo","lat":"7.75456","lng":"-5.32458"},{"label":"Bouko","lat":"9.47865","lng":"-3.17299"},{"label":"Bouko","lat":"8.87507","lng":"-7.7902"},{"label":"Bouleu","lat":"7.18472","lng":"-8.14444"},{"label":"Bouna","lat":"9.26927","lng":"-2.9951"},{"label":"Bounadougou","lat":"8.38658","lng":"-4.70271"},{"label":"Bounafla","lat":"6.72204","lng":"-5.51812"},{"label":"Bounantinfla","lat":"6.75449","lng":"-5.91559"},{"label":"Boundiali","lat":"9.52167","lng":"-6.48694"},{"label":"Bouniakro","lat":"7.86056","lng":"-4.01222"},{"label":"Bounta","lat":"7.64675","lng":"-7.95915"},{"label":"Bounta","lat":"7.25312","lng":"-8.35804"},{"label":"Bountou","lat":"8.49333","lng":"-7.18278"},{"label":"Bouobly","lat":"7.13213","lng":"-7.26981"},{"label":"Bouoissué","lat":"6.96348","lng":"-3.2324"},{"label":"Bourébo","lat":"7.71513","lng":"-5.7218"},{"label":"Bourgodon","lat":"8.4001","lng":"-3.11484"},{"label":"Bouroukponko","lat":"8.21569","lng":"-2.63425"},{"label":"Bouroukrou","lat":"7.66846","lng":"-3.21398"},{"label":"Bouroumasso","lat":"9.68076","lng":"-7.15475"},{"label":"Bourounon","lat":"7.74843","lng":"-6.09362"},{"label":"Boussoukro","lat":"5.88398","lng":"-4.69507"},{"label":"Boutouo II","lat":"6.94609","lng":"-8.08604"},{"label":"Bouyabo","lat":"7.44352","lng":"-4.21167"},{"label":"Bouzoupalégnoa","lat":"5.9014","lng":"-5.90702"},{"label":"Boyakro","lat":"7.64693","lng":"-5.70688"},{"label":"Boyo","lat":"9.95478","lng":"-6.37826"},{"label":"Brabodougou Douzarékro","lat":"5.79833","lng":"-5.29786"},{"label":"Brabori","lat":"5.91321","lng":"-5.3794"},{"label":"Braffédon","lat":"5.13839","lng":"-4.98963"},{"label":"Brafouéby","lat":"5.65002","lng":"-4.56434"},{"label":"Brahéri","lat":"5.46838","lng":"-5.27029"},{"label":"Brahima","lat":"8.15157","lng":"-6.15965"},{"label":"Brakaguhé","lat":"6.80111","lng":"-6.54797"},{"label":"Brazzaville","lat":"5.06762","lng":"-6.55879"},{"label":"Brégbo","lat":"5.30406","lng":"-3.82188"},{"label":"Bréguiagui","lat":"5.24854","lng":"-6.37914"},{"label":"Brékoua","lat":"6.16828","lng":"-5.81299"},{"label":"Brévet","lat":"5.74021","lng":"-5.12815"},{"label":"Bricolo","lat":"5.78502","lng":"-6.45205"},{"label":"Briéoa","lat":"6.11436","lng":"-6.22574"},{"label":"Brihi","lat":"6.45027","lng":"-5.91893"},{"label":"Brindoukro","lat":"6.8575","lng":"-3.28438"},{"label":"Bringakro","lat":"6.41369","lng":"-5.09042"},{"label":"Brizéboua","lat":"7.00954","lng":"-6.46905"},{"label":"Brobo","lat":"7.64026","lng":"-4.82541"},{"label":"Brodoufla","lat":"7.5178","lng":"-5.81534"},{"label":"Brofodoumé","lat":"5.51358","lng":"-3.93072"},{"label":"Brohouan","lat":"6.767","lng":"-6.51275"},{"label":"Brokohio","lat":"5.87281","lng":"-6.10725"},{"label":"Broma","lat":"6.48505","lng":"-6.3844"},{"label":"Bronda","lat":"6.22892","lng":"-5.66807"},{"label":"Brou akpaousso","lat":"6.90916","lng":"-4.05582"},{"label":"Brou Totokro","lat":"7.16416","lng":"-4.86326"},{"label":"Brou-Attakro","lat":"6.6774","lng":"-3.80374"},{"label":"Brouafla","lat":"7.24429","lng":"-6.68344"},{"label":"Brouafla-nattis","lat":"7.59623","lng":"-6.51838"},{"label":"Brouagui","lat":"5.65075","lng":"-6.82418"},{"label":"Broubrou","lat":"5.72477","lng":"-4.8237"},{"label":"Broubrou-Sokoura","lat":"8.52397","lng":"-4.31125"},{"label":"Broudoukou-Kpenda","lat":"5.52314","lng":"-5.51411"},{"label":"Broudoumé","lat":"6.36303","lng":"-5.87113"},{"label":"Broukro","lat":"6.6464","lng":"-4.22305"},{"label":"Broukro","lat":"5.9886","lng":"-4.91325"},{"label":"Broukro Ahoué","lat":"7.37093","lng":"-5.21902"},{"label":"Brouta","lat":"7.24953","lng":"-6.18451"},{"label":"Brouzra","lat":"7.65656","lng":"-5.94004"},{"label":"Brozan","lat":"6.39873","lng":"-5.50306"},{"label":"Butubré I","lat":"5.51071","lng":"-6.44838"},{"label":"Buyo","lat":"6.27534","lng":"-6.99704"},{"label":"Bwangé","lat":"9.28102","lng":"-7.04538"},{"label":"Campt Kridi","lat":"6.32278","lng":"-7.51687"},{"label":"Cécéluibo","lat":"7.19556","lng":"-3.54522"},{"label":"Cfi-Baroko","lat":"5.72051","lng":"-5.17192"},{"label":"Chiépo","lat":"5.69519","lng":"-5.06251"},{"label":"Cnra","lat":"5.77255","lng":"-5.22936"},{"label":"Complexe","lat":"7.60288","lng":"-6.14386"},{"label":"Copa","lat":"6.24298","lng":"-4.11802"},{"label":"Cosrou","lat":"5.31906","lng":"-4.65889"},{"label":"Da","lat":"6.97453","lng":"-7.5465"},{"label":"Daako","lat":"6.07822","lng":"-5.18439"},{"label":"Dabakala","lat":"8.36321","lng":"-4.42863"},{"label":"Dabégo","lat":"4.9956","lng":"-5.97392"},{"label":"Dabori","lat":"5.83606","lng":"-5.43984"},{"label":"Dabou","lat":"5.32556","lng":"-4.37685"},{"label":"Dabouzra","lat":"6.93826","lng":"-5.98661"},{"label":"Dadéguhé","lat":"6.51917","lng":"-6.75076"},{"label":"Dadiassé","lat":"7.8128","lng":"-2.94769"},{"label":"Dadiékro","lat":"7.68058","lng":"-4.34516"},{"label":"Dadressio","lat":"5.50288","lng":"-2.83359"},{"label":"Dafrahinou Darinsala","lat":"6.43243","lng":"-7.08849"},{"label":"Dagadji","lat":"5.12569","lng":"-6.81483"},{"label":"Dagba","lat":"9.24503","lng":"-5.96465"},{"label":"Dagbaboua","lat":"6.73594","lng":"-6.47014"},{"label":"Dagbao I","lat":"5.56025","lng":"-6.02111"},{"label":"Dagbaplé","lat":"9.57357","lng":"-5.82126"},{"label":"Daguikoi","lat":"6.28497","lng":"-3.98031"},{"label":"Dahiépa-Kéhi","lat":"6.21256","lng":"-5.84627"},{"label":"Dahili","lat":"5.50267","lng":"-6.78421"},{"label":"Dahira","lat":"6.54137","lng":"-6.32131"},{"label":"Dahiri","lat":"5.26206","lng":"-5.52897"},{"label":"Dahopa","lat":"6.15742","lng":"-5.8486"},{"label":"Dahoua","lat":"6.68253","lng":"-7.34761"},{"label":"Dainé II","lat":"7.42997","lng":"-7.60525"},{"label":"Dairo","lat":"5.66059","lng":"-5.47393"},{"label":"Dakouépleu","lat":"7.18522","lng":"-7.5726"},{"label":"Dakougoume","lat":"7.10375","lng":"-7.98071"},{"label":"Dakoulitrohoin","lat":"5.97105","lng":"-5.59673"},{"label":"Dakpadou","lat":"5.25664","lng":"-6.06774"},{"label":"Dalangbo","lat":"9.06605","lng":"-5.61332"},{"label":"Dalawaré","lat":"8.16251","lng":"-3.83426"},{"label":"Daleu","lat":"7.51085","lng":"-8.10603"},{"label":"Dalia","lat":"6.28885","lng":"-6.51586"},{"label":"Daligépalenyoa","lat":"5.83389","lng":"-5.93635"},{"label":"Daloa","lat":"6.87735","lng":"-6.45022"},{"label":"Dalou","lat":"6.75146","lng":"-3.78743"},{"label":"Damé","lat":"7.07085","lng":"-3.14883"},{"label":"Danané","lat":"7.25957","lng":"-8.15498"},{"label":"Dananon","lat":"7.61072","lng":"-6.36333"},{"label":"Dandougou","lat":"8.38361","lng":"-5.90125"},{"label":"Dangoukro","lat":"7.53833","lng":"-4.29196"},{"label":"Dangrézo","lat":"8.0504","lng":"-7.09243"},{"label":"Danguineu","lat":"7.28915","lng":"-8.1955"},{"label":"Danguira","lat":"5.67033","lng":"-3.76763"},{"label":"Dania","lat":"7.15082","lng":"-6.84125"},{"label":"Danipleu","lat":"7.4973","lng":"-8.40799"},{"label":"Dantogo","lat":"7.81135","lng":"-6.2224"},{"label":"Dantongouiné","lat":"7.65517","lng":"-8.09705"},{"label":"Danzourou","lat":"10.43194","lng":"-6.34972"},{"label":"Daobli","lat":"5.88205","lng":"-7.4756"},{"label":"Daoro","lat":"5.19159","lng":"-6.81734"},{"label":"Daouakro","lat":"7.04338","lng":"-4.40542"},{"label":"Daoukro","lat":"7.0591","lng":"-3.9631"},{"label":"Daoulébo","lat":"7.20138","lng":"-4.00592"},{"label":"Daoungbeu","lat":"6.76839","lng":"-6.85474"},{"label":"Daouo","lat":"7.40348","lng":"-6.61788"},{"label":"Dapéoua","lat":"6.13774","lng":"-6.87847"},{"label":"Dapo-Iboké","lat":"4.72959","lng":"-7.38578"},{"label":"Dar Es","lat":"7.98308","lng":"-6.90316"},{"label":"Daragboué","lat":"9.07862","lng":"-6.30706"},{"label":"Darakokaha","lat":"8.28921","lng":"-5.15868"},{"label":"Darala","lat":"8.44417","lng":"-4.36233"},{"label":"Daridougou","lat":"8.17492","lng":"-3.62796"},{"label":"Daso","lat":"7.98428","lng":"-6.89452"},{"label":"Dassoungboho","lat":"9.38861","lng":"-5.78584"},{"label":"Datouzon","lat":"7.28136","lng":"-7.35877"},{"label":"Datta","lat":"5.9363","lng":"-5.32465"},{"label":"Dawara","lat":"8.28325","lng":"-6.07373"},{"label":"Déagbangompleu","lat":"6.99812","lng":"-8.12953"},{"label":"Déahouépleu","lat":"7.21723","lng":"-8.21557"},{"label":"Déamangbeupleu","lat":"7.27799","lng":"-8.14963"},{"label":"Déba","lat":"8.34504","lng":"-3.16039"},{"label":"Débango","lat":"8.30668","lng":"-2.60344"},{"label":"Débélé","lat":"10.61306","lng":"-6.59528"},{"label":"Déblablé","lat":"4.85229","lng":"-7.4808"},{"label":"Débo I","lat":"6.67498","lng":"-6.77728"},{"label":"Débrimou","lat":"5.36716","lng":"-4.39018"},{"label":"Dédégbeu","lat":"6.70786","lng":"-6.76684"},{"label":"Dédifla","lat":"7.2851","lng":"-6.58711"},{"label":"Dédjan","lat":"6.3838","lng":"-8.21473"},{"label":"Degbézéré","lat":"6.98867","lng":"-5.65635"},{"label":"Déhouépleu","lat":"7.0993","lng":"-8.1135"},{"label":"Déhouninké","lat":"4.7517","lng":"-7.39323"},{"label":"Déinneu","lat":"6.97556","lng":"-8.28128"},{"label":"Déki-Kouadiokro","lat":"7.17284","lng":"-4.13461"},{"label":"Dékokaha","lat":"9.65468","lng":"-5.17971"},{"label":"Dékréta","lat":"7.5258","lng":"-5.56895"},{"label":"Délobly","lat":"6.8805","lng":"-7.41623"},{"label":"Déma","lat":"7.30833","lng":"-6.48194"},{"label":"Dèmba","lat":"7.20322","lng":"-3.10616"},{"label":"Denan","lat":"6.53798","lng":"-8.2772"},{"label":"Dengbé","lat":"5.70761","lng":"-4.28986"},{"label":"Déoulé","lat":"7.50267","lng":"-7.50796"},{"label":"Dépa","lat":"6.44583","lng":"-6.54944"},{"label":"Dépingo","lat":"8.55144","lng":"-3.56969"},{"label":"Déragon","lat":"7.54179","lng":"-6.51454"},{"label":"Déraouan","lat":"6.89087","lng":"-6.4232"},{"label":"Dérayo","lat":"6.45132","lng":"-6.3887"},{"label":"Dérigoué","lat":"5.92439","lng":"-5.89992"},{"label":"Détikaha","lat":"9.92581","lng":"-5.16847"},{"label":"Détroya","lat":"6.68297","lng":"-6.82599"},{"label":"Déwaké","lat":"4.8002","lng":"-7.45821"},{"label":"Dey-Oboguié","lat":"6.0044","lng":"-4.25499"},{"label":"Dézidougou","lat":"7.73139","lng":"-4.26861"},{"label":"Dézra","lat":"7.54449","lng":"-6.36244"},{"label":"Diabo","lat":"7.78959","lng":"-5.17102"},{"label":"Diacohou-Sud","lat":"6.78794","lng":"-5.87103"},{"label":"Diafla","lat":"7.42124","lng":"-6.86751"},{"label":"Diahouin","lat":"6.84368","lng":"-7.40842"},{"label":"Diai","lat":"6.51715","lng":"-8.34021"},{"label":"Diakohou","lat":"7.63594","lng":"-5.54458"},{"label":"Dialakoro","lat":"8.1921","lng":"-5.8429"},{"label":"Diale","lat":"7.04892","lng":"-5.61566"},{"label":"Diamalabo","lat":"6.92155","lng":"-5.33888"},{"label":"Diamankani","lat":"10.56303","lng":"-6.52987"},{"label":"Diamarakro","lat":"6.23681","lng":"-3.32006"},{"label":"Diamba","lat":"7.80975","lng":"-3.31254"},{"label":"Dianambroufla","lat":"6.65823","lng":"-5.62325"},{"label":"Diané","lat":"7.55709","lng":"-7.43561"},{"label":"Dianfla","lat":"7.13457","lng":"-5.85845"},{"label":"Diangbanasso","lat":"9.08161","lng":"-4.6415"},{"label":"Diangobo","lat":"6.56564","lng":"-3.33675"},{"label":"Diangobo","lat":"6.5201","lng":"-4.53664"},{"label":"Diangobo","lat":"6.14632","lng":"-3.64219"},{"label":"Diangokokokro","lat":"6.95434","lng":"-4.69679"},{"label":"Diangokro","lat":"6.75991","lng":"-4.58476"},{"label":"Diangoménou","lat":"6.75238","lng":"-5.03403"},{"label":"Dianoufla","lat":"6.79928","lng":"-6.01422"},{"label":"Dianra","lat":"8.94333","lng":"-6.2549"},{"label":"Dianra-Village","lat":"8.76437","lng":"-6.24411"},{"label":"Diapé","lat":"6.0142","lng":"-3.92726"},{"label":"Diapleu","lat":"7.20716","lng":"-7.61704"},{"label":"Diarabana","lat":"8.18668","lng":"-6.60866"},{"label":"Diaradougou","lat":"8.05495","lng":"-4.51339"},{"label":"Diaraoula","lat":"5.77396","lng":"-7.39078"},{"label":"Diarratiédougou","lat":"10.00665","lng":"-5.25154"},{"label":"Diassa","lat":"6.41587","lng":"-6.69652"},{"label":"Diasson","lat":"5.97152","lng":"-3.72759"},{"label":"Diatokro","lat":"5.39545","lng":"-3.34407"},{"label":"Diawala","lat":"10.10701","lng":"-5.47295"},{"label":"Dibobli","lat":"6.73952","lng":"-7.02156"},{"label":"Diboké","lat":"6.44434","lng":"-8.11234"},{"label":"Dibri-Assirikro","lat":"7.58913","lng":"-5.16783"},{"label":"Diby","lat":"5.65774","lng":"-2.97845"},{"label":"Dida","lat":"6.90169","lng":"-4.46808"},{"label":"Dida-N'Glossou","lat":"6.4417","lng":"-4.74909"},{"label":"Didablé","lat":"6.43004","lng":"-4.82048"},{"label":"Didakouadiokro","lat":"6.40004","lng":"-4.82095"},{"label":"Didayaokro","lat":"6.41457","lng":"-4.81807"},{"label":"Didia","lat":"6.43514","lng":"-5.85164"},{"label":"Didiassa","lat":"7.07919","lng":"-4.35694"},{"label":"Didiévi","lat":"7.12866","lng":"-4.89804"},{"label":"Didizo","lat":"5.65104","lng":"-5.45993"},{"label":"Didoko","lat":"6.02111","lng":"-5.31207"},{"label":"Diébly","lat":"7.10352","lng":"-7.22019"},{"label":"Diédrou","lat":"6.99139","lng":"-7.77825"},{"label":"Diégonéfla","lat":"6.28919","lng":"-5.57413"},{"label":"Diéhiba","lat":"6.90152","lng":"-7.41376"},{"label":"Diékabo","lat":"6.50784","lng":"-4.52103"},{"label":"Diékadiokro","lat":"6.49617","lng":"-4.41371"},{"label":"Diélé","lat":"10.18837","lng":"-5.70346"},{"label":"Diembisédougou","lat":"7.93401","lng":"-4.26699"},{"label":"Diempleu","lat":"7.68222","lng":"-8.0675"},{"label":"Diendana-Sokoura","lat":"8.15174","lng":"-4.38272"},{"label":"Diénédian","lat":"8.07806","lng":"-6.11889"},{"label":"Diénédoufla","lat":"6.65173","lng":"-5.80595"},{"label":"Dienfé","lat":"7.93681","lng":"-6.96942"},{"label":"Dienguesso","lat":"8.5166","lng":"-4.67378"},{"label":"Diéouzon","lat":"7.15575","lng":"-7.32219"},{"label":"Diérissonkaha","lat":"9.46979","lng":"-5.53591"},{"label":"Diéta","lat":"7.28097","lng":"-8.32771"},{"label":"Diétiguisso","lat":"8.37964","lng":"-5.76992"},{"label":"Dieviessou","lat":"7.565","lng":"-5.61574"},{"label":"Diezué","lat":"7.9789","lng":"-3.88231"},{"label":"Digba","lat":"6.75915","lng":"-6.41019"},{"label":"Digbam","lat":"6.41422","lng":"-6.24297"},{"label":"Digbapia I","lat":"6.84051","lng":"-6.5966"},{"label":"Digbeugnoa","lat":"6.1415","lng":"-6.06404"},{"label":"Digbeuguhé","lat":"6.32146","lng":"-6.73138"},{"label":"Digbohouo","lat":"6.47578","lng":"-5.69982"},{"label":"Digila","lat":"7.83333","lng":"-6.5"},{"label":"Dignago","lat":"6.29164","lng":"-6.27945"},{"label":"Digoualé","lat":"7.72321","lng":"-7.5166"},{"label":"Dihinébo","lat":"7.35476","lng":"-3.3642"},{"label":"Dihintédouo","lat":"8.75526","lng":"-3.03941"},{"label":"Dikodougou","lat":"9.06757","lng":"-5.77222"},{"label":"Dikodougou","lat":"8.5","lng":"-5.86667"},{"label":"Dikouéhipalényoa","lat":"6.05257","lng":"-5.87217"},{"label":"Diléya","lat":"6.74406","lng":"-6.94578"},{"label":"Diloboua","lat":"6.53252","lng":"-6.31716"},{"label":"Dimandougou","lat":"8.01204","lng":"-3.77288"},{"label":"Dimata","lat":"7.53137","lng":"-6.36337"},{"label":"Dimbokro","lat":"6.64678","lng":"-4.70519"},{"label":"Dimoulé","lat":"4.7589","lng":"-6.71697"},{"label":"Dinaodi","lat":"8.12681","lng":"-3.22975"},{"label":"Dindéresso","lat":"10.03477","lng":"-6.6"},{"label":"Dingbé","lat":"7.07131","lng":"-3.95703"},{"label":"Dingbi","lat":"8.10391","lng":"-3.03738"},{"label":"Dingouin","lat":"7.66277","lng":"-7.60603"},{"label":"Dio","lat":"7.78107","lng":"-7.57678"},{"label":"Diogo","lat":"9.42972","lng":"-6.68083"},{"label":"Diolala","lat":"10.19776","lng":"-7.34259"},{"label":"Dioman","lat":"8.13276","lng":"-7.54529"},{"label":"Diomandougou","lat":"8.83806","lng":"-6.85861"},{"label":"Dionkro","lat":"7.78614","lng":"-3.98623"},{"label":"Diorholé","lat":"7.79787","lng":"-6.36755"},{"label":"Diotouo","lat":"7.19412","lng":"-8.13002"},{"label":"Dioulabougou-Boléko","lat":"5.35444","lng":"-5.16966"},{"label":"Dioulatiédougou","lat":"8.97225","lng":"-7.2323"},{"label":"Dioulé","lat":"7.10861","lng":"-7.55306"},{"label":"Diourouzon","lat":"6.88922","lng":"-7.51952"},{"label":"Ditroudra Béoué","lat":"6.36467","lng":"-7.52826"},{"label":"Divo","lat":"5.83739","lng":"-5.35723"},{"label":"Djagnadou","lat":"5.5","lng":"-6.03333"},{"label":"Djagoboua","lat":"5.97375","lng":"-5.72771"},{"label":"Djahio","lat":"4.86761","lng":"-6.75708"},{"label":"Djamandioké","lat":"4.4296","lng":"-7.47038"},{"label":"Djanhankro","lat":"7.4086","lng":"-4.75395"},{"label":"Djapadji","lat":"5.29114","lng":"-6.82023"},{"label":"Djébonoua","lat":"7.51573","lng":"-5.0735"},{"label":"Djédana","lat":"9.21019","lng":"-4.87894"},{"label":"Djédjédigbeupa","lat":"6.20971","lng":"-5.86734"},{"label":"Djegbé","lat":"9.20962","lng":"-6.39037"},{"label":"Djégnéné","lat":"9.18404","lng":"-4.47976"},{"label":"Djéka","lat":"5.23849","lng":"-7.32605"},{"label":"Djékanou","lat":"6.48389","lng":"-5.11553"},{"label":"Djékouamékro","lat":"5.91928","lng":"-5.07921"},{"label":"Djélébélé","lat":"9.56813","lng":"-4.98143"},{"label":"Djélisso","lat":"10.19489","lng":"-5.39097"},{"label":"Djénzoukro","lat":"7.12972","lng":"-4.56803"},{"label":"Djétéoa","lat":"6.19352","lng":"-6.26949"},{"label":"Djibrosso","lat":"8.76968","lng":"-6.99918"},{"label":"Djidji","lat":"6.15401","lng":"-5.69333"},{"label":"Djidjikro","lat":"5.30993","lng":"-4.87689"},{"label":"Djidoubaye","lat":"6.08567","lng":"-7.48642"},{"label":"Djigbagui","lat":"5.61444","lng":"-6.87374"},{"label":"Djihimbo","lat":"4.65184","lng":"-7.21976"},{"label":"Djiminikoffikro","lat":"5.28672","lng":"-3.45353"},{"label":"Djimon","lat":"5.82346","lng":"-5.59998"},{"label":"Djimprédouo","lat":"8.56524","lng":"-3.0255"},{"label":"Djinbala","lat":"9.4963","lng":"-4.96872"},{"label":"Djiro-Gnépahio","lat":"4.84675","lng":"-6.62739"},{"label":"Djiroutou","lat":"5.36758","lng":"-7.28412"},{"label":"Djougbosso","lat":"6.06039","lng":"-3.8159"},{"label":"Djoutou","lat":"4.4172","lng":"-7.50873"},{"label":"Dô","lat":"8.19167","lng":"-7.27"},{"label":"Dobadougou","lat":"8.06704","lng":"-6.15832"},{"label":"Doboko","lat":"5.69705","lng":"-6.23065"},{"label":"Doboua","lat":"6.86253","lng":"-6.53228"},{"label":"Dobrépa","lat":"6.2092","lng":"-5.88125"},{"label":"Dodianyoa","lat":"6.03326","lng":"-5.97138"},{"label":"Dodokoi","lat":"6.21172","lng":"-4.00843"},{"label":"Dodougnoa","lat":"6.0193","lng":"-5.80116"},{"label":"Dogozo","lat":"5.69303","lng":"-5.05171"},{"label":"Dohiriguékaha","lat":"9.46436","lng":"-5.40324"},{"label":"Dohouba","lat":"6.79984","lng":"-8.32471"},{"label":"Dohoupleu","lat":"6.64748","lng":"-8.34718"},{"label":"Dokanou","lat":"7.58334","lng":"-3.30512"},{"label":"Doké","lat":"6.59281","lng":"-8.11205"},{"label":"Dokpodon","lat":"5.18955","lng":"-5.45087"},{"label":"Dolla","lat":"7.95374","lng":"-7.56707"},{"label":"Domangbeu","lat":"6.98467","lng":"-7.01882"},{"label":"Domobly","lat":"6.5321","lng":"-7.57411"},{"label":"Dompleu","lat":"7.34809","lng":"-7.5382"},{"label":"Donakakaha","lat":"9.63206","lng":"-5.46919"},{"label":"Dondi","lat":"6.31472","lng":"-5.66547"},{"label":"Dondoni","lat":"7.66279","lng":"-4.20752"},{"label":"Dongbo","lat":"5.40811","lng":"-4.83195"},{"label":"Donguikro","lat":"7.52726","lng":"-4.0025"},{"label":"Donhio","lat":"5.8949","lng":"-5.91651"},{"label":"Donsohouo","lat":"6.44981","lng":"-5.6963"},{"label":"Donvagne","lat":"8.20222","lng":"-3.23931"},{"label":"Dopleu","lat":"6.82353","lng":"-8.31382"},{"label":"Dorifla","lat":"7.52528","lng":"-5.88806"},{"label":"Dorodioro","lat":"7.89541","lng":"-3.71761"},{"label":"Doropo","lat":"9.80955","lng":"-3.34577"},{"label":"Dotou","lat":"4.82591","lng":"-6.9252"},{"label":"Douagéré","lat":"7.68833","lng":"-7.32139"},{"label":"Douagué","lat":"7.47944","lng":"-7.13336"},{"label":"Douandrou","lat":"6.53436","lng":"-7.91502"},{"label":"Douanzra","lat":"7.40259","lng":"-6.21903"},{"label":"Douapleu","lat":"7.48904","lng":"-8.06097"},{"label":"Douasso","lat":"10.08881","lng":"-6.6639"},{"label":"Douatouo","lat":"7.16462","lng":"-8.25947"},{"label":"Douaville","lat":"6.1179","lng":"-5.2999"},{"label":"Doubo","lat":"6.02868","lng":"-5.33962"},{"label":"Doué","lat":"7.81227","lng":"-7.64852"},{"label":"Douédy","lat":"7.3592","lng":"-7.30992"},{"label":"Douékpé","lat":"7.1362","lng":"-7.32839"},{"label":"Douélé","lat":"7.21199","lng":"-7.58013"},{"label":"Douéleu","lat":"6.96005","lng":"-8.3062"},{"label":"Douéné","lat":"7.5422","lng":"-7.31873"},{"label":"Doufla","lat":"7.45659","lng":"-6.74097"},{"label":"Dougba","lat":"10.2725","lng":"-6.40889"},{"label":"Dougbafra","lat":"6.34539","lng":"-5.40101"},{"label":"Dougodou","lat":"5.30101","lng":"-5.35141"},{"label":"Dougounoukouadiokro","lat":"6.83378","lng":"-5.34593"},{"label":"Dougoutiguidougou","lat":"7.98257","lng":"-3.39731"},{"label":"Doukouya","lat":"6.42623","lng":"-5.55925"},{"label":"Doukouyo","lat":"5.84233","lng":"-5.97134"},{"label":"Doulayéko","lat":"4.81405","lng":"-6.42692"},{"label":"Douleu","lat":"7.17583","lng":"-7.80444"},{"label":"Doulourovogo","lat":"9.65423","lng":"-5.48293"},{"label":"Doumbaro","lat":"5.75811","lng":"-5.42044"},{"label":"Doumbiadougou","lat":"6.60253","lng":"-7.31889"},{"label":"Doumorossi","lat":"7.58952","lng":"-3.50005"},{"label":"Douongopleu","lat":"7.63834","lng":"-8.02984"},{"label":"Dourougbé","lat":"8.43871","lng":"-6.96766"},{"label":"Dousoulékana","lat":"8.90745","lng":"-5.13725"},{"label":"Dousséba","lat":"6.11433","lng":"-5.67738"},{"label":"Dramanekro","lat":"6.7112","lng":"-3.61916"},{"label":"Drangouiné","lat":"7.45393","lng":"-7.80126"},{"label":"Drayo","lat":"6.25898","lng":"-6.04026"},{"label":"Drékuha","lat":"6.45828","lng":"-6.7407"},{"label":"Drembo","lat":"7.71539","lng":"-5.39453"},{"label":"Drikouaïfla","lat":"7.4267","lng":"-6.00803"},{"label":"Drissasso","lat":"8.00277","lng":"-6.80107"},{"label":"Drongouiné","lat":"7.20085","lng":"-8.08631"},{"label":"Dropleu","lat":"7.24132","lng":"-7.99556"},{"label":"Duagbo","lat":"6.46494","lng":"-5.72467"},{"label":"Dualla","lat":"8.12398","lng":"-6.54099"},{"label":"Dubaso","lat":"7.59997","lng":"-6.30358"},{"label":"Duekoué","lat":"6.74202","lng":"-7.34918"},{"label":"Duférébo","lat":"7.08976","lng":"-3.44624"},{"label":"Duokro","lat":"6.65903","lng":"-5.23498"},{"label":"Duonfla","lat":"6.843","lng":"-5.49915"},{"label":"Duquesnes-Crémone","lat":"6.17606","lng":"-3.9067"},{"label":"Dyakobou","lat":"8.21935","lng":"-5.80576"},{"label":"Dyamonso","lat":"8.30114","lng":"-6.93248"},{"label":"Dyantégéla","lat":"9.92618","lng":"-7.81629"},{"label":"Dyaondi","lat":"7.18452","lng":"-7.35662"},{"label":"Dyapléan","lat":"7.13512","lng":"-7.39486"},{"label":"Dyarala","lat":"8.47489","lng":"-6.10289"},{"label":"Dyégon","lat":"9.06472","lng":"-5.69735"},{"label":"Dyéifla","lat":"7.71736","lng":"-6.00154"},{"label":"Dyéliso","lat":"8.78861","lng":"-6.50262"},{"label":"Dyémédougou","lat":"8.54583","lng":"-6.13056"},{"label":"Dyénéné","lat":"8.58528","lng":"-6.2175"},{"label":"Dyenfé","lat":"7.78663","lng":"-6.4763"},{"label":"Dyéou","lat":"7.119","lng":"-7.43232"},{"label":"Dyingélé","lat":"9.54271","lng":"-7.13751"},{"label":"Dyobala","lat":"7.81247","lng":"-6.41398"},{"label":"Dyoronakaha","lat":"9.35997","lng":"-5.13982"},{"label":"Dyotrou","lat":"7.27738","lng":"-7.48796"},{"label":"Dyougoublé","lat":"9.52789","lng":"-5.935"},{"label":"Ebikro-Ndakro","lat":"5.725","lng":"-3.11099"},{"label":"Ebilassokro","lat":"6.37917","lng":"-3.34722"},{"label":"Ebimlossou","lat":"6.61156","lng":"-4.63843"},{"label":"Ebimpe","lat":"5.49901","lng":"-4.08207"},{"label":"Eboissué","lat":"6.82661","lng":"-3.50931"},{"label":"Eboko","lat":"5.14866","lng":"-3.0874"},{"label":"Eboué","lat":"5.34407","lng":"-3.1255"},{"label":"Ebounou","lat":"5.12398","lng":"-5.34694"},{"label":"Ebra","lat":"5.27768","lng":"-3.73981"},{"label":"Edjambo","lat":"5.19767","lng":"-2.9625"},{"label":"Ehanian-Tanoé","lat":"5.24215","lng":"-2.76644"},{"label":"Ehian","lat":"5.38573","lng":"-3.17843"},{"label":"Eholié","lat":"5.45312","lng":"-3.11525"},{"label":"Ehouassabo","lat":"5.38464","lng":"-3.20669"},{"label":"Ehouman","lat":"6.00128","lng":"-4.74083"},{"label":"Ehuasso","lat":"6.32597","lng":"-3.44403"},{"label":"Ehuikro","lat":"6.53086","lng":"-4.41667"},{"label":"Elenzué","lat":"6.80811","lng":"-4.09735"},{"label":"Elinso","lat":"6.99426","lng":"-3.72144"},{"label":"Ellibou","lat":"5.6882","lng":"-4.51"},{"label":"Elognékro","lat":"7.44555","lng":"-3.7884"},{"label":"Eloka To","lat":"5.30114","lng":"-3.74102"},{"label":"Elokaté","lat":"5.29386","lng":"-3.74875"},{"label":"Elovi","lat":"5.65159","lng":"-4.19232"},{"label":"Emangbo","lat":"5.46619","lng":"-4.57811"},{"label":"Emanzoukro","lat":"6.8846","lng":"-3.26764"},{"label":"Epiénou","lat":"5.38757","lng":"-3.17083"},{"label":"Eplemlan","lat":"5.29802","lng":"-3.26531"},{"label":"Erémankono","lat":"9.08479","lng":"-6.73738"},{"label":"Erémankono","lat":"5.92829","lng":"-5.02252"},{"label":"Ery-Makouguié II","lat":"5.90458","lng":"-4.17084"},{"label":"Essan Kouakoukro","lat":"7.37168","lng":"-4.70139"},{"label":"Essegnon","lat":"5.99467","lng":"-4.45556"},{"label":"Essuikro","lat":"6.63024","lng":"-4.3"},{"label":"Etroukro","lat":"7.25889","lng":"-3.76389"},{"label":"Ettienkro","lat":"6.8669","lng":"-4.42076"},{"label":"Etuéboué","lat":"5.21101","lng":"-3.21473"},{"label":"Facobly","lat":"7.3883","lng":"-7.37644"},{"label":"Fadiadougou","lat":"8.7","lng":"-6.62139"},{"label":"Fafala","lat":"10.24343","lng":"-6.87809"},{"label":"Fahandougou","lat":"9.61336","lng":"-6.41082"},{"label":"Fahé","lat":"4.99303","lng":"-6.64073"},{"label":"Famienkro","lat":"7.86322","lng":"-3.98564"},{"label":"Fandasso","lat":"9.46034","lng":"-6.88011"},{"label":"Fandérékaha","lat":"9.55826","lng":"-5.17988"},{"label":"Fapleu","lat":"6.72791","lng":"-8.29382"},{"label":"Faraba","lat":"8.65459","lng":"-6.252"},{"label":"Farako","lat":"8.60462","lng":"-3.14654"},{"label":"Farakoro","lat":"9.44495","lng":"-7.11679"},{"label":"Farakoro","lat":"8.49501","lng":"-5.88524"},{"label":"Farakoro","lat":"8.78113","lng":"-5.91635"},{"label":"Farakro","lat":"7.80359","lng":"-4.01999"},{"label":"Farandougou","lat":"9.21667","lng":"-6.66667"},{"label":"Faranikan","lat":"9.62252","lng":"-5.58831"},{"label":"Fari Oko","lat":"7.76105","lng":"-4.95992"},{"label":"Fassélémon","lat":"9.27862","lng":"-4.52904"},{"label":"Féapleu","lat":"7.13644","lng":"-7.94577"},{"label":"Fébiasso","lat":"10.30945","lng":"-6.53819"},{"label":"Féliapla","lat":"7.9694","lng":"-5.76615"},{"label":"Fengolo","lat":"9.92572","lng":"-6.90525"},{"label":"Fengolo","lat":"6.78634","lng":"-7.39338"},{"label":"Féni","lat":"10.53655","lng":"-6.5793"},{"label":"Fényampleu","lat":"7.4477","lng":"-7.40114"},{"label":"Férantéra","lat":"8.23894","lng":"-7.79945"},{"label":"Férédougou","lat":"9.84178","lng":"-7.74046"},{"label":"Féréfougoula","lat":"9.28537","lng":"-7.72973"},{"label":"Férémandougou","lat":"8.95805","lng":"-7.57167"},{"label":"Ferkessédougou","lat":"9.5928","lng":"-5.19449"},{"label":"Fiampleu","lat":"7.18241","lng":"-8.0044"},{"label":"Fiassé","lat":"6.16357","lng":"-3.63625"},{"label":"Fiékon","lat":"7.09963","lng":"-6.84547"},{"label":"Fila Faraba","lat":"8.91806","lng":"-6.3175"},{"label":"Filasso","lat":"8.38209","lng":"-6.13309"},{"label":"Findimanou","lat":"6.83153","lng":"-4.08298"},{"label":"Fingolo","lat":"8.88836","lng":"-6.74555"},{"label":"Finneu","lat":"6.99749","lng":"-8.15283"},{"label":"Fisa","lat":"8.01226","lng":"-3.14018"},{"label":"Fitabro","lat":"7.78987","lng":"-5.49438"},{"label":"Fizankoro","lat":"8.46361","lng":"-6.19861"},{"label":"Fizanlouma","lat":"8.03163","lng":"-6.08507"},{"label":"Flabougou","lat":"10.49723","lng":"-6.46663"},{"label":"Flakièdougou","lat":"8.48273","lng":"-3.1273"},{"label":"Flandapleu","lat":"7.11219","lng":"-8.03611"},{"label":"Floleu","lat":"6.84397","lng":"-8.12554"},{"label":"Fodio","lat":"9.515","lng":"-6.22223"},{"label":"Fodonition","lat":"9.49843","lng":"-5.64127"},{"label":"Folonfokaha","lat":"8.57671","lng":"-5.20799"},{"label":"Fonondara","lat":"9.47083","lng":"-6.27139"},{"label":"Foro","lat":"9.41106","lng":"-5.71389"},{"label":"Foro Foro","lat":"7.98399","lng":"-5.05851"},{"label":"Foto-Kouamékro","lat":"7.56834","lng":"-5.13085"},{"label":"Fouanga","lat":"7.76316","lng":"-6.08752"},{"label":"Foula","lat":"9.33892","lng":"-7.78958"},{"label":"Foumbolo","lat":"8.64189","lng":"-4.64539"},{"label":"Foungouésso","lat":"7.9489","lng":"-7.67664"},{"label":"Fourouna","lat":"8.13357","lng":"-6.62362"},{"label":"Frambo","lat":"5.12696","lng":"-2.96074"},{"label":"Fransobli","lat":"7.52986","lng":"-7.24973"},{"label":"Fresco","lat":"5.08226","lng":"-5.56938"},{"label":"Fronan","lat":"8.21494","lng":"-5.12549"},{"label":"Fronobo","lat":"6.70865","lng":"-4.37941"},{"label":"Frototou","lat":"8.59644","lng":"-6.61095"},{"label":"Gaba","lat":"7.99549","lng":"-8.0033"},{"label":"Gabia","lat":"6.40891","lng":"-6.3791"},{"label":"Gabiadji","lat":"5.0234","lng":"-6.56157"},{"label":"Gaboua","lat":"7.0625","lng":"-6.46806"},{"label":"Gadago","lat":"6.15207","lng":"-6.4381"},{"label":"Gadouan","lat":"6.65623","lng":"-6.16609"},{"label":"Gadoutolo","lat":"8.22631","lng":"-7.94633"},{"label":"Gagnoa","lat":"6.13193","lng":"-5.9506"},{"label":"Gagny","lat":"5.0491","lng":"-6.74477"},{"label":"Gagoré","lat":"6.04931","lng":"-5.62934"},{"label":"Gahabli","lat":"5.93919","lng":"-7.4751"},{"label":"Galébo","lat":"7.03418","lng":"-4.92321"},{"label":"Galébré","lat":"6.0059","lng":"-6.29403"},{"label":"Galékro","lat":"5.68529","lng":"-3.43001"},{"label":"Galgologo","lat":"10.34198","lng":"-5.67897"},{"label":"Gama","lat":"7.61933","lng":"-7.70057"},{"label":"Gama","lat":"9.05864","lng":"-6.22306"},{"label":"Gamina","lat":"6.96772","lng":"-6.65495"},{"label":"Gan","lat":"7.06596","lng":"-7.89385"},{"label":"Gan-Houyé","lat":"6.74898","lng":"-8.33725"},{"label":"Ganaoni","lat":"9.28498","lng":"-6.32285"},{"label":"Gandié","lat":"7.61591","lng":"-7.44206"},{"label":"Gangbapleu","lat":"7.74878","lng":"-7.89301"},{"label":"Gangoro","lat":"7.19134","lng":"-5.29665"},{"label":"Ganhiba","lat":"7.31065","lng":"-8.19712"},{"label":"Gankoro","lat":"8.20734","lng":"-3.01946"},{"label":"Ganlé","lat":"7.66611","lng":"-7.50977"},{"label":"Ganné","lat":"7.62574","lng":"-7.31775"},{"label":"Ganoufla","lat":"6.75697","lng":"-6.10427"},{"label":"Gansé","lat":"8.62049","lng":"-3.91399"},{"label":"Ganwé","lat":"8.18768","lng":"-7.85064"},{"label":"Gaolé-Graba","lat":"7.57976","lng":"-7.35989"},{"label":"Gaougnagbolilié","lat":"5.884","lng":"-5.84769"},{"label":"Gaoulou","lat":"5.03347","lng":"-6.15137"},{"label":"Gaouroubré","lat":"5.28057","lng":"-6.24612"},{"label":"Gaoussoukro","lat":"5.2484","lng":"-2.97116"},{"label":"Gaoya","lat":"7.09152","lng":"-7.40563"},{"label":"Garango","lat":"6.96301","lng":"-5.80875"},{"label":"Garobo","lat":"6.76646","lng":"-6.85808"},{"label":"Gatifla","lat":"7.37244","lng":"-6.51464"},{"label":"Gatouo I","lat":"6.75178","lng":"-8.30086"},{"label":"Gazahio","lat":"6.24409","lng":"-6.35457"},{"label":"Gazaville","lat":"5.76","lng":"-5.32103"},{"label":"Gazéhio","lat":"6.56093","lng":"-6.35398"},{"label":"Gazibouo","lat":"6.36791","lng":"-6.49427"},{"label":"Gbabam","lat":"5.46651","lng":"-5.58678"},{"label":"Gbablasso","lat":"7.76277","lng":"-7.69428"},{"label":"Gbabo","lat":"7.12097","lng":"-6.76377"},{"label":"Gbadjié","lat":"6.04568","lng":"-5.90532"},{"label":"Gbadrou","lat":"7.36097","lng":"-7.46849"},{"label":"Gbalagoua","lat":"6.77318","lng":"-6.44719"},{"label":"Gbalébouo","lat":"5.73699","lng":"-6.34582"},{"label":"Gbaléguhé","lat":"6.24393","lng":"-6.51169"},{"label":"Gbalekro","lat":"5.95024","lng":"-4.27914"},{"label":"Gbaleu","lat":"7.19278","lng":"-8.265"},{"label":"Gbaléville","lat":"6.14396","lng":"-6.45327"},{"label":"Gbaléyo","lat":"5.76218","lng":"-6.54693"},{"label":"Gbalo","lat":"8.01674","lng":"-6.41652"},{"label":"Gbalo","lat":"9.84355","lng":"-6.29662"},{"label":"Gbambalanyougokaha","lat":"9.61435","lng":"-5.44544"},{"label":"Gbambélédougou","lat":"8.08187","lng":"-4.4594"},{"label":"Gbamga","lat":"9.55158","lng":"-4.93812"},{"label":"Gbampleu","lat":"6.70613","lng":"-8.38924"},{"label":"Gban Houyé","lat":"7.33153","lng":"-8.35535"},{"label":"Gbangbégouiné","lat":"7.67478","lng":"-7.47338"},{"label":"Gbangbégouiné","lat":"7.33087","lng":"-7.67449"},{"label":"Gbangbossou","lat":"7.53963","lng":"-4.81773"},{"label":"Gbango","lat":"8.05342","lng":"-3.53692"},{"label":"Gbanhan Ngatakro","lat":"7.40841","lng":"-4.70203"},{"label":"Gbanhan Yaokro","lat":"7.52143","lng":"-4.60623"},{"label":"Gbanleu","lat":"7.61126","lng":"-8.05647"},{"label":"Gbanvyélou","lat":"8.00623","lng":"-6.15735"},{"label":"Gbapleu","lat":"6.47983","lng":"-7.16528"},{"label":"Gbapolkaha","lat":"9.24014","lng":"-5.66765"},{"label":"Gbarou","lat":"5.33923","lng":"-7.28896"},{"label":"Gbata","lat":"6.93973","lng":"-8.2361"},{"label":"Gbatina","lat":"5.89434","lng":"-6.8661"},{"label":"Gbatongouen","lat":"7.52326","lng":"-7.62431"},{"label":"Gbatosso","lat":"8.97252","lng":"-6.27608"},{"label":"Gbazoa","lat":"6.22999","lng":"-6.62608"},{"label":"Gbédéguéla","lat":"8.45746","lng":"-6.65074"},{"label":"Gbédjénou","lat":"5.57436","lng":"-4.90272"},{"label":"Gbéhigbly","lat":"7.25591","lng":"-7.05965"},{"label":"Gbéléban","lat":"9.58461","lng":"-8.13183"},{"label":"Gbélibli","lat":"6.89387","lng":"-7.02506"},{"label":"Gbèlo","lat":"7.92074","lng":"-6.98255"},{"label":"Gbémazo","lat":"8.51306","lng":"-6.94"},{"label":"Gbéné","lat":"7.51609","lng":"-7.71782"},{"label":"Gbérékoro-Noumousso","lat":"8.27305","lng":"-4.299"},{"label":"Gbéssé","lat":"5.8394","lng":"-4.29264"},{"label":"Gbéta","lat":"7.42089","lng":"-8.37753"},{"label":"Gbétitapéa","lat":"6.78951","lng":"-6.45138"},{"label":"Gbétogo","lat":"8.12639","lng":"-6.94361"},{"label":"Gbétontigouiné","lat":"7.21275","lng":"-7.5843"},{"label":"Gbeugréhoa","lat":"6.20546","lng":"-6.33818"},{"label":"Gbeya","lat":"10.31053","lng":"-6.93507"},{"label":"Gbézio","lat":"7.39832","lng":"-7.32613"},{"label":"Gbigbikou","lat":"6.39151","lng":"-5.95964"},{"label":"Gbihana","lat":"7.8154","lng":"-6.46759"},{"label":"Gbily","lat":"6.22964","lng":"-6.96934"},{"label":"Gbimanan","lat":"8.23371","lng":"-6.79954"},{"label":"Gbinzo","lat":"10.21961","lng":"-5.48452"},{"label":"Gbisso","lat":"6.23508","lng":"-6.54391"},{"label":"Gblaleu","lat":"7.04725","lng":"-8.18047"},{"label":"Gblépleu","lat":"7.13099","lng":"-7.96004"},{"label":"Gblétia","lat":"5.6337","lng":"-6.62994"},{"label":"Gbliglo","lat":"6.13533","lng":"-7.02576"},{"label":"Gblonlé","lat":"7.11513","lng":"-7.57974"},{"label":"Gbobléko","lat":"5.2357","lng":"-5.35512"},{"label":"Gbodonon","lat":"9.57899","lng":"-5.66469"},{"label":"Gbogbo","lat":"5.39433","lng":"-6.46508"},{"label":"Gboguhé","lat":"6.75728","lng":"-6.58371"},{"label":"Gbokora","lat":"6.90724","lng":"-6.45124"},{"label":"Gbolouville","lat":"5.79408","lng":"-4.66127"},{"label":"Gboly","lat":"8.18177","lng":"-4.76114"},{"label":"Gbombélo I","lat":"7.59058","lng":"-7.64526"},{"label":"Gboménéda","lat":"6.31812","lng":"-5.6592"},{"label":"Gbominaso","lat":"8.93364","lng":"-6.37626"},{"label":"Gbon","lat":"9.83238","lng":"-6.44716"},{"label":"Gbon Houyé","lat":"7.42396","lng":"-8.33997"},{"label":"Gbondougou","lat":"8.63339","lng":"-5.84703"},{"label":"Gbonkaha","lat":"9.11687","lng":"-6.89666"},{"label":"Gbonné","lat":"7.53116","lng":"-7.41275"},{"label":"Gbonniellé","lat":"9.12333","lng":"-6.52361"},{"label":"Gbonou","lat":"7.14752","lng":"-4.4035"},{"label":"Gbouagleu","lat":"7.00629","lng":"-8.26426"},{"label":"Gbougbo","lat":"5.30229","lng":"-4.37685"},{"label":"Gbouiso","lat":"9.08361","lng":"-7.59197"},{"label":"Gbrakro","lat":"7.74375","lng":"-4.04101"},{"label":"Géaso","lat":"7.72071","lng":"-6.05881"},{"label":"Geso Bondoso","lat":"8.27729","lng":"-5.65933"},{"label":"Gèzra","lat":"7.43097","lng":"-6.02389"},{"label":"Ghegbessou","lat":"7.10481","lng":"-4.93472"},{"label":"Giléiri","lat":"5.74802","lng":"-5.30998"},{"label":"Giri","lat":"7.22529","lng":"-7.34574"},{"label":"Glangoualé","lat":"7.92103","lng":"-7.98655"},{"label":"Glanié","lat":"7.75948","lng":"-8.0813"},{"label":"Glanleu","lat":"6.84888","lng":"-8.2511"},{"label":"Glaou","lat":"6.62573","lng":"-7.37005"},{"label":"Glareu","lat":"6.6728","lng":"-8.27193"},{"label":"Glépleu","lat":"6.68173","lng":"-8.30832"},{"label":"Gligbeuadji","lat":"5.2","lng":"-6.7"},{"label":"Gliouieu","lat":"6.63143","lng":"-8.30519"},{"label":"Glo Djekro","lat":"7.19903","lng":"-4.83359"},{"label":"Gloleu","lat":"7.22149","lng":"-7.52095"},{"label":"Gloleu","lat":"7.12901","lng":"-7.76901"},{"label":"Glopaoudi","lat":"6.5443","lng":"-7.63274"},{"label":"Gloplou","lat":"7.11261","lng":"-7.35152"},{"label":"Gloubli","lat":"6.89842","lng":"-7.77758"},{"label":"Gnagbodougnoa","lat":"5.96632","lng":"-5.84337"},{"label":"Gnagboya","lat":"6.07877","lng":"-6.93104"},{"label":"Gnago","lat":"5.24032","lng":"-5.79516"},{"label":"Gnahouahué","lat":"5.67828","lng":"-5.86947"},{"label":"Gnakoragui","lat":"5.7168","lng":"-6.63119"},{"label":"Gnalégribouo","lat":"5.94045","lng":"-5.93872"},{"label":"Gnama","lat":"5.73862","lng":"-5.48283"},{"label":"Gnamagnoa","lat":"5.93607","lng":"-5.85008"},{"label":"Gnambouasso","lat":"5.59796","lng":"-5.245"},{"label":"Gnandi-Boménéda","lat":"6.23853","lng":"-5.58614"},{"label":"Gnankan-Gnankanso","lat":"6.01293","lng":"-4.96966"},{"label":"Gnanké","lat":"5.29851","lng":"-6.5289"},{"label":"Gnanmangui","lat":"5.81397","lng":"-6.72379"},{"label":"Gnansohmun","lat":"5.43606","lng":"-3.92283"},{"label":"Gnanzombly","lat":"5.93006","lng":"-4.98006"},{"label":"Gnatroa","lat":"5.92273","lng":"-6.15013"},{"label":"Gnéhiri","lat":"5.96394","lng":"-5.41427"},{"label":"Gnénaholoké","lat":"4.61043","lng":"-7.38356"},{"label":"Gnépasso","lat":"4.98218","lng":"-7.06024"},{"label":"Gniguédougou","lat":"5.72954","lng":"-5.42977"},{"label":"Gninglé","lat":"7.59926","lng":"-7.27571"},{"label":"Gninlnafolokaha","lat":"8.62052","lng":"-5.64471"},{"label":"Gnipi","lat":"5.66876","lng":"-6.64374"},{"label":"Gnititoigui","lat":"5.34392","lng":"-6.48204"},{"label":"Gnoahé","lat":"7.26941","lng":"-7.30516"},{"label":"Gnouboyo","lat":"5.878","lng":"-6.40086"},{"label":"Goafla","lat":"7.60285","lng":"-5.87662"},{"label":"Goazra","lat":"6.94429","lng":"-5.96878"},{"label":"Gobéry","lat":"5.67628","lng":"-5.79317"},{"label":"Gobia","lat":"6.5986","lng":"-5.41906"},{"label":"Goboué","lat":"5.76624","lng":"-5.77362"},{"label":"Gobroko","lat":"5.40626","lng":"-5.90484"},{"label":"Goda","lat":"6.45384","lng":"-6.60408"},{"label":"Godélilié","lat":"6.0456","lng":"-5.84345"},{"label":"Godesso","lat":"5.60302","lng":"-4.91103"},{"label":"Godou","lat":"6.11416","lng":"-5.62152"},{"label":"Godoua","lat":"6.51865","lng":"-6.30316"},{"label":"Goénié","lat":"7.10519","lng":"-7.4715"},{"label":"Goétifla","lat":"7.38207","lng":"-6.03181"},{"label":"Goézra","lat":"7.26448","lng":"-6.25441"},{"label":"Gofabo","lat":"6.82417","lng":"-5.08968"},{"label":"Gogné","lat":"6.01947","lng":"-5.76279"},{"label":"Gogo","lat":"9.7714","lng":"-3.53092"},{"label":"Gogobro","lat":"6.15532","lng":"-5.32088"},{"label":"Gogoguhé","lat":"6.66028","lng":"-6.42073"},{"label":"Gogoko","lat":"5.9992","lng":"-5.69357"},{"label":"Goh","lat":"5.2323","lng":"-6.63627"},{"label":"Gohifla","lat":"7.30511","lng":"-6.001"},{"label":"Gohitafla","lat":"7.49076","lng":"-5.87952"},{"label":"Gohizra","lat":"7.37593","lng":"-6.62194"},{"label":"Gohondo","lat":"8.32415","lng":"-3.09586"},{"label":"Gohouo","lat":"7.05402","lng":"-7.44035"},{"label":"Gohouo-Zarabaon","lat":"7.00374","lng":"-7.7499"},{"label":"Gohouo-Zibiao","lat":"7.23022","lng":"-7.35852"},{"label":"Gokra","lat":"6.68619","lng":"-6.57907"},{"label":"Golé","lat":"7.25","lng":"-7.63333"},{"label":"Goli-Kpangbassou","lat":"7.96129","lng":"-5.50737"},{"label":"Goli-Maya","lat":"8.0951","lng":"-5.45695"},{"label":"Goli-Nzikro","lat":"7.33983","lng":"-4.3603"},{"label":"Goliahio","lat":"6.32206","lng":"-6.3749"},{"label":"Golikro","lat":"7.67033","lng":"-5.43584"},{"label":"Golikro","lat":"7.14498","lng":"-6.1943"},{"label":"Golipla","lat":"7.81978","lng":"-5.83535"},{"label":"Goménébéri","lat":"5.37889","lng":"-5.51833"},{"label":"Gomon","lat":"5.72358","lng":"-4.44129"},{"label":"Gona","lat":"8.27854","lng":"-6.09931"},{"label":"Gonaté","lat":"6.90418","lng":"-6.24347"},{"label":"Gonazofla","lat":"6.63577","lng":"-6.11557"},{"label":"Gondia","lat":"7.92084","lng":"-3.37655"},{"label":"Gongouiné I","lat":"7.25931","lng":"-7.61926"},{"label":"Gonié-Tahouaké","lat":"7.13159","lng":"-7.29997"},{"label":"Gonoula","lat":"7.47613","lng":"-6.02215"},{"label":"Gontepleu","lat":"6.75906","lng":"-8.25926"},{"label":"Gooua","lat":"6.6988","lng":"-5.48932"},{"label":"Goply","lat":"5.74323","lng":"-5.30603"},{"label":"Gopoupleu","lat":"7.43483","lng":"-8.28532"},{"label":"Goréké","lat":"4.79602","lng":"-6.70287"},{"label":"Gorodi","lat":"6.70524","lng":"-6.91219"},{"label":"Gorongui","lat":"8.29678","lng":"-3.24275"},{"label":"Gosséa","lat":"6.85692","lng":"-6.55357"},{"label":"Gotongouiné","lat":"7.17363","lng":"-7.74959"},{"label":"Gouabafla","lat":"7.32113","lng":"-6.56099"},{"label":"Gouabo","lat":"5.99741","lng":"-4.32071"},{"label":"Gouabouo II","lat":"6.21854","lng":"-6.51867"},{"label":"Gouagonoplé","lat":"7.2992","lng":"-7.71754"},{"label":"Gouakatouo","lat":"6.97558","lng":"-8.08426"},{"label":"Gouané","lat":"7.81634","lng":"-7.41956"},{"label":"Goudi","lat":"6.12401","lng":"-5.10372"},{"label":"Goudouko","lat":"5.73666","lng":"-5.61581"},{"label":"Gouéda","lat":"6.21439","lng":"-5.69125"},{"label":"Gouédié","lat":"7.5321","lng":"-7.75032"},{"label":"Gouégolé","lat":"7.23543","lng":"-7.69161"},{"label":"Gouégouiné","lat":"7.18694","lng":"-7.68889"},{"label":"Gouéguéni","lat":"10.34336","lng":"-6.7948"},{"label":"Gouékangouiné","lat":"7.24071","lng":"-7.65424"},{"label":"Gouélégui Béoué","lat":"6.10222","lng":"-7.48874"},{"label":"Gouéleu","lat":"7.46656","lng":"-8.30278"},{"label":"Gouéma","lat":"7.72922","lng":"-6.0529"},{"label":"Gouénoufla","lat":"7.24057","lng":"-6.19779"},{"label":"Gouessesso","lat":"7.76115","lng":"-7.65271"},{"label":"Gouétifla","lat":"7.60749","lng":"-6.29014"},{"label":"Gouétilé","lat":"7.01239","lng":"-7.7094"},{"label":"Gouétimba","lat":"7.4999","lng":"-7.46052"},{"label":"Goueupouta","lat":"7.49021","lng":"-8.19879"},{"label":"Gouézépleu","lat":"7.16639","lng":"-7.93973"},{"label":"Gouimpleu I","lat":"7.46389","lng":"-7.63206"},{"label":"Gouiné","lat":"7.71628","lng":"-7.41383"},{"label":"Goulaleu","lat":"6.70309","lng":"-8.36241"},{"label":"Goulaonfla","lat":"7.67736","lng":"-6.54254"},{"label":"Gouléako Dioula","lat":"5.84015","lng":"-7.41217"},{"label":"Goulia","lat":"10.01908","lng":"-7.20108"},{"label":"Goulikao","lat":"6.50706","lng":"-5.52408"},{"label":"Gouméré","lat":"7.8963","lng":"-2.98013"},{"label":"Gounga","lat":"7.73606","lng":"-5.99902"},{"label":"Gourané","lat":"7.61198","lng":"-7.2986"},{"label":"Gouriela","lat":"7.53053","lng":"-6.5145"},{"label":"Gouriniani","lat":"7.20357","lng":"-6.18393"},{"label":"Goutro","lat":"7.23806","lng":"-8.2892"},{"label":"Gouzanfla","lat":"7.55784","lng":"-5.76129"},{"label":"Goya","lat":"6.57755","lng":"-8.02756"},{"label":"Goya","lat":"6.56487","lng":"-7.42735"},{"label":"Gozi","lat":"7.45645","lng":"-6.3425"},{"label":"Goziogouiné I","lat":"7.14637","lng":"-7.56326"},{"label":"Gozon","lat":"6.89282","lng":"-7.4689"},{"label":"Grabazouo","lat":"5.69698","lng":"-6.23128"},{"label":"Grabo","lat":"4.92035","lng":"-7.49562"},{"label":"Grahipla Bragbrusso","lat":"7.81854","lng":"-5.8951"},{"label":"Gramessabo","lat":"6.45525","lng":"-4.39102"},{"label":"Grand","lat":"7.00857","lng":"-7.40793"},{"label":"Grand Alépé","lat":"5.47503","lng":"-3.76424"},{"label":"Grand Berebi","lat":"4.65098","lng":"-6.9237"},{"label":"Grand Djourou","lat":"4.72864","lng":"-6.98394"},{"label":"Grand Morié","lat":"5.98312","lng":"-4.13537"},{"label":"Grand Motcho","lat":"5.95635","lng":"-4.18615"},{"label":"Grand Yapo","lat":"5.82634","lng":"-4.15452"},{"label":"Grand-Bassam","lat":"5.2118","lng":"-3.73884"},{"label":"Grand-Déboua","lat":"5.95092","lng":"-5.70664"},{"label":"Grand-Jacques","lat":"5.19693","lng":"-4.46753"},{"label":"Grand-Lahou","lat":"5.13825","lng":"-5.02123"},{"label":"Grand-Zattry","lat":"6.1162","lng":"-6.53603"},{"label":"Grand-Zia","lat":"6.18837","lng":"-6.24898"},{"label":"Grazra","lat":"7.51726","lng":"-5.93119"},{"label":"Grébié","lat":"6.19183","lng":"-6.05467"},{"label":"Grébouo","lat":"5.66667","lng":"-6.33333"},{"label":"Grégbeu","lat":"6.80685","lng":"-6.71716"},{"label":"Gréguibré","lat":"5.24742","lng":"-6.25389"},{"label":"Gréikro","lat":"6.81693","lng":"-7.05859"},{"label":"Gréléon","lat":"4.78262","lng":"-6.91293"},{"label":"Gribouo","lat":"6.19511","lng":"-6.9132"},{"label":"Grié II","lat":"6.44449","lng":"-8.36568"},{"label":"Gripazo","lat":"5.83064","lng":"-6.59389"},{"label":"Gro","lat":"6.03865","lng":"-5.31207"},{"label":"Groanfla","lat":"7.56917","lng":"-5.96139"},{"label":"Grobako","lat":"5.582","lng":"-5.11216"},{"label":"Grobia Souané","lat":"5.85058","lng":"-5.48885"},{"label":"Grobiakoko","lat":"5.85505","lng":"-5.51665"},{"label":"Grogouya","lat":"5.98696","lng":"-5.73638"},{"label":"Grogro","lat":"7.21396","lng":"-5.42524"},{"label":"Groguida","lat":"5.1325","lng":"-5.08555"},{"label":"Guédiboua","lat":"6.73463","lng":"-6.52825"},{"label":"Guedjigbeu I","lat":"6.78827","lng":"-6.77324"},{"label":"Guéhiébli","lat":"6.89479","lng":"-7.43139"},{"label":"Guéhou","lat":"5.97037","lng":"-5.32193"},{"label":"Guéhouyé","lat":"6.80515","lng":"-8.27746"},{"label":"Guéidepleu","lat":"6.72561","lng":"-8.23572"},{"label":"Guékpé","lat":"7.20211","lng":"-7.39358"},{"label":"Guéménédou","lat":"6.21385","lng":"-6.02202"},{"label":"Guémou","lat":"9.42925","lng":"-6.56007"},{"label":"Guenndé","lat":"7.8554","lng":"-3.09155"},{"label":"Guenzou","lat":"10.10742","lng":"-7.83834"},{"label":"Guéoulé","lat":"7.59893","lng":"-7.90071"},{"label":"Guépaouo","lat":"6.47268","lng":"-5.70615"},{"label":"Guériafla","lat":"7.42289","lng":"-5.82871"},{"label":"Guéssabo","lat":"6.73668","lng":"-6.95487"},{"label":"Guéssiguié Un","lat":"5.73853","lng":"-4.2355"},{"label":"Guessihio","lat":"6.10722","lng":"-6.00722"},{"label":"Guétuzon II","lat":"6.75146","lng":"-6.92283"},{"label":"Guéya","lat":"6.55368","lng":"-7.95722"},{"label":"Guéyédé","lat":"6.55356","lng":"-8.54326"},{"label":"Guéyéguhé","lat":"6.60505","lng":"-6.85223"},{"label":"Guéyo","lat":"5.6882","lng":"-6.0712"},{"label":"Guézanénoufla","lat":"6.82103","lng":"-5.7775"},{"label":"Guézem","lat":"6.26489","lng":"-6.19138"},{"label":"Guézon","lat":"6.74177","lng":"-7.11742"},{"label":"Guézon","lat":"6.56696","lng":"-7.70203"},{"label":"Guézon-Gbéan","lat":"7.29348","lng":"-7.30629"},{"label":"Guézon-Tahouaké","lat":"7.0761","lng":"-7.18719"},{"label":"Guiaguien","lat":"7.16742","lng":"-8.045"},{"label":"Guiamapleu","lat":"6.65357","lng":"-8.32742"},{"label":"Guianlé","lat":"7.33822","lng":"-7.59795"},{"label":"Guiapleu","lat":"7.29437","lng":"-7.67469"},{"label":"Guibéroua","lat":"6.23869","lng":"-6.17147"},{"label":"Guibobli","lat":"6.61108","lng":"-8.21224"},{"label":"Guibouo","lat":"6.51283","lng":"-6.69075"},{"label":"Guiellé","lat":"6.58955","lng":"-8.37482"},{"label":"Guiembé","lat":"9.23298","lng":"-5.71277"},{"label":"Guienzoukro","lat":"7.92246","lng":"-5.49834"},{"label":"Guiglo","lat":"6.54368","lng":"-7.4935"},{"label":"Guiguia","lat":"5.97732","lng":"-5.92709"},{"label":"Guiguidou","lat":"5.77128","lng":"-5.05354"},{"label":"Guimbo","lat":"6.89292","lng":"-4.3468"},{"label":"Guimbo Ndolikro","lat":"7.22389","lng":"-4.55944"},{"label":"Guiméyo","lat":"5.83072","lng":"-6.30877"},{"label":"Guin Houyé","lat":"7.24613","lng":"-8.24044"},{"label":"Guingleu","lat":"7.03658","lng":"-8.26408"},{"label":"Guinglo","lat":"6.89055","lng":"-7.48794"},{"label":"Guinglo-Gbéan","lat":"7.27103","lng":"-7.32255"},{"label":"Guinglo-Ville","lat":"7.18774","lng":"-7.40883"},{"label":"Guinguerini","lat":"9.53333","lng":"-6.6"},{"label":"Guinkin","lat":"6.5667","lng":"-7.72277"},{"label":"Guintéguéla","lat":"8.29044","lng":"-7.30927"},{"label":"Guiré","lat":"5.5165","lng":"-6.58983"},{"label":"Guitrozon","lat":"6.75012","lng":"-7.3714"},{"label":"Guitry","lat":"5.51952","lng":"-5.24038"},{"label":"Guizreu","lat":"7.65907","lng":"-8.14087"},{"label":"Gunglo Zia","lat":"6.82062","lng":"-7.24392"},{"label":"Gwana","lat":"8.21687","lng":"-7.25035"},{"label":"Gwékoro","lat":"8.25376","lng":"-8.02479"},{"label":"Haali Kolie Nzikro","lat":"7.03458","lng":"-4.38989"},{"label":"Half Berebi","lat":"4.55859","lng":"-7.02811"},{"label":"Hallanikro","lat":"6.85323","lng":"-5.63957"},{"label":"Hana","lat":"5.68994","lng":"-6.82328"},{"label":"Hannié","lat":"5.19401","lng":"-7.35304"},{"label":"Hérébo","lat":"7.952","lng":"-3.05796"},{"label":"Hiré","lat":"6.18878","lng":"-5.29463"},{"label":"Houmakpin","lat":"8.37478","lng":"-3.16577"},{"label":"Huafla","lat":"6.56368","lng":"-5.79967"},{"label":"Iboguhé","lat":"6.5481","lng":"-6.84419"},{"label":"Ifou","lat":"7.24252","lng":"-3.01505"},{"label":"Iguila","lat":"7.72474","lng":"-3.22641"},{"label":"Inagbéhio","lat":"5.79262","lng":"-6.10723"},{"label":"Inahiri","lat":"5.14007","lng":"-6.21354"},{"label":"Inbié","lat":"9.21133","lng":"-2.85722"},{"label":"Ipouagui","lat":"5.51902","lng":"-6.83564"},{"label":"Ira","lat":"5.35403","lng":"-4.65894"},{"label":"Irassuénou","lat":"7.71508","lng":"-5.30867"},{"label":"Iratéké","lat":"4.7077","lng":"-7.25869"},{"label":"Irho La","lat":"5.45611","lng":"-3.84831"},{"label":"Irianikro","lat":"6.85138","lng":"-4.80678"},{"label":"Iribafla","lat":"6.73042","lng":"-6.11757"},{"label":"Iriéfla","lat":"7.68645","lng":"-5.85026"},{"label":"Irindékoro","lat":"9.4629","lng":"-4.6254"},{"label":"Irobo","lat":"5.29358","lng":"-4.79603"},{"label":"Irogogoua","lat":"6.41233","lng":"-6.5761"},{"label":"Issia","lat":"6.49224","lng":"-6.58558"},{"label":"Issikro","lat":"7.9217","lng":"-3.31764"},{"label":"Issoneu","lat":"7.23843","lng":"-7.848"},{"label":"Ity","lat":"6.88388","lng":"-8.1191"},{"label":"Iyaba","lat":"7.17397","lng":"-7.87755"},{"label":"Izambré","lat":"6.26527","lng":"-6.02112"},{"label":"Jacqueville","lat":"5.20515","lng":"-4.4146"},{"label":"Johin","lat":"5.80465","lng":"-6.78437"},{"label":"Kaabo","lat":"7.61268","lng":"-5.43768"},{"label":"Kaadé","lat":"6.56928","lng":"-7.71427"},{"label":"Kabakouma","lat":"7.72119","lng":"-7.68693"},{"label":"Kabangbe","lat":"10.14279","lng":"-7.55359"},{"label":"Kabéhoa","lat":"6.19945","lng":"-6.23053"},{"label":"Kabolokoro","lat":"9.45252","lng":"-5.97851"},{"label":"Kabrankro","lat":"6.71393","lng":"-3.75982"},{"label":"Kacoukro","lat":"5.29605","lng":"-3.37752"},{"label":"Kadarvogo","lat":"10.29083","lng":"-5.15972"},{"label":"Kadéko","lat":"6.09846","lng":"-5.58439"},{"label":"Kadiasso","lat":"9.70699","lng":"-6.96218"},{"label":"Kadiéoulé-Sourdian","lat":"8.41004","lng":"-4.54439"},{"label":"Kadioha","lat":"8.96821","lng":"-5.88332"},{"label":"Kadja-Gnanzoukro","lat":"5.16555","lng":"-2.74643"},{"label":"Kadrokpa","lat":"4.97426","lng":"-6.01222"},{"label":"Kafa","lat":"9.59593","lng":"-5.77572"},{"label":"Kafégué","lat":"8.66534","lng":"-6.15795"},{"label":"Kafiné","lat":"8.94825","lng":"-5.61468"},{"label":"Kafiné","lat":"8.50838","lng":"-5.31081"},{"label":"Kafingué","lat":"9.68912","lng":"-6.916"},{"label":"Kafolo","lat":"9.58333","lng":"-4.3"},{"label":"Kafoudougou","lat":"8.46667","lng":"-4.4"},{"label":"Kaganiézé","lat":"5.93098","lng":"-4.79223"},{"label":"Kagbé","lat":"6.16599","lng":"-5.34964"},{"label":"Kagbolokaha","lat":"9.39509","lng":"-5.40203"},{"label":"Kagnénako","lat":"5.81191","lng":"-6.349"},{"label":"Kahankro","lat":"6.57647","lng":"-5.08493"},{"label":"Kahankro-Prepressou","lat":"7.73758","lng":"-4.95638"},{"label":"Kahanso","lat":"9.25291","lng":"-7.60622"},{"label":"Kahen-Zagna","lat":"6.97427","lng":"-7.54724"},{"label":"Kahi","lat":"7.15129","lng":"-7.42682"},{"label":"Kahin","lat":"6.91413","lng":"-7.63121"},{"label":"Kahitohourililié","lat":"5.848","lng":"-5.77119"},{"label":"Kako","lat":"4.77572","lng":"-7.01707"},{"label":"Kakohoro","lat":"9.85392","lng":"-6.91"},{"label":"Kakoubroukro","lat":"6.84558","lng":"-5.13748"},{"label":"Kakpin","lat":"8.65508","lng":"-3.78122"},{"label":"Kakrédou","lat":"6.1606","lng":"-6.01519"},{"label":"Kalakala","lat":"9.46649","lng":"-4.92765"},{"label":"Kalamon","lat":"9.82285","lng":"-3.16533"},{"label":"Kaloa","lat":"10.00277","lng":"-6.05002"},{"label":"Kalogo","lat":"10.15114","lng":"-6.24454"},{"label":"Kalomé","lat":"8.06081","lng":"-3.01011"},{"label":"Kaloufla","lat":"7.68333","lng":"-5.83028"},{"label":"Kamabrou","lat":"6.08002","lng":"-4.34859"},{"label":"Kamala","lat":"8.43434","lng":"-2.72108"},{"label":"Kamelenso","lat":"7.90344","lng":"-4.04145"},{"label":"Kami","lat":"6.88289","lng":"-5.27871"},{"label":"Kamonokaha","lat":"9.45509","lng":"-4.82131"},{"label":"Kamoro","lat":"8.30283","lng":"-5.72558"},{"label":"Kan-sokoura","lat":"8.82169","lng":"-6.2711"},{"label":"Kanakono","lat":"10.35497","lng":"-6.23634"},{"label":"Kanangonon","lat":"8.29825","lng":"-5.05627"},{"label":"Kananwolo","lat":"8.78256","lng":"-5.3108"},{"label":"Kandopleu","lat":"7.59087","lng":"-7.61571"},{"label":"Kandyédougou","lat":"8.44852","lng":"-6.10134"},{"label":"Kanébly","lat":"7.48122","lng":"-7.03262"},{"label":"Kanéguéra","lat":"8.69287","lng":"-4.67777"},{"label":"Kangagui","lat":"5.71755","lng":"-6.80999"},{"label":"Kangbapleu","lat":"7.18771","lng":"-7.98362"},{"label":"Kangrassou Aluibo","lat":"6.71367","lng":"-4.76529"},{"label":"Kangréta","lat":"6.79915","lng":"-6.04175"},{"label":"Kanguélé","lat":"8.11152","lng":"-2.71527"},{"label":"Kanguérasso","lat":"8.54791","lng":"-4.34636"},{"label":"Kani","lat":"8.47807","lng":"-6.60509"},{"label":"Kaniasso","lat":"9.81471","lng":"-7.5125"},{"label":"Kaniéméné","lat":"8.27995","lng":"-4.56039"},{"label":"Kaniéné","lat":"9.36612","lng":"-6.62764"},{"label":"Kaniéné","lat":"8.6944","lng":"-4.7099"},{"label":"Kanitélégué","lat":"9.6368","lng":"-6.22956"},{"label":"Kanoroba","lat":"9.11088","lng":"-6.12238"},{"label":"Kanouan","lat":"7.41694","lng":"-5.45222"},{"label":"Kanta","lat":"7.14364","lng":"-8.16147"},{"label":"Kanzra","lat":"7.32282","lng":"-6.22237"},{"label":"Kaokosabli","lat":"7.34574","lng":"-7.40341"},{"label":"Kaouara","lat":"10.09085","lng":"-5.19482"},{"label":"Kapékaha","lat":"9.9407","lng":"-5.54678"},{"label":"Kapélé","lat":"9.43482","lng":"-5.69657"},{"label":"Kapolokoro","lat":"8.6833","lng":"-4.60299"},{"label":"Kaprémé","lat":"9.14727","lng":"-5.7342"},{"label":"Karaba","lat":"8.49866","lng":"-6.93939"},{"label":"Karagboko","lat":"9.44063","lng":"-4.66472"},{"label":"Karako","lat":"7.9446","lng":"-3.00501"},{"label":"Karakoro","lat":"9.4166","lng":"-5.494"},{"label":"Karakpo","lat":"9.22683","lng":"-5.67947"},{"label":"Karamokola","lat":"8.09985","lng":"-6.18261"},{"label":"Karankono-Sobara","lat":"8.22153","lng":"-4.08556"},{"label":"Karasso","lat":"9.69103","lng":"-7.28275"},{"label":"Karié","lat":"5.437","lng":"-7.33944"},{"label":"Karo-Gblobo","lat":"7.79666","lng":"-4.96208"},{"label":"Karpélé","lat":"8.32055","lng":"-4.75868"},{"label":"Kartoudouo","lat":"8.79018","lng":"-3.0027"},{"label":"Kassam","lat":"7.52977","lng":"-3.10017"},{"label":"Kasséligué","lat":"9.93636","lng":"-6.0204"},{"label":"Kasséré","lat":"9.82723","lng":"-6.2167"},{"label":"Kassiapleu","lat":"7.35994","lng":"-7.62384"},{"label":"Kassiguié","lat":"5.67927","lng":"-4.24801"},{"label":"Kassiné","lat":"8.11667","lng":"-4.93333"},{"label":"Kassiongo-Koura","lat":"10.01975","lng":"-5.57195"},{"label":"Kassiongokro","lat":"10.10677","lng":"-5.7265"},{"label":"Kata","lat":"7.60551","lng":"-8.09942"},{"label":"Katadji","lat":"5.66771","lng":"-4.54136"},{"label":"Katanra","lat":"9.64694","lng":"-6.49417"},{"label":"Katara","lat":"10.17649","lng":"-6.17737"},{"label":"Katchré Essekro","lat":"7.02407","lng":"-4.6128"},{"label":"Kati","lat":"6.51464","lng":"-7.52569"},{"label":"Katiali","lat":"9.82268","lng":"-5.93381"},{"label":"Katiénou","lat":"7.40914","lng":"-5.12405"},{"label":"Katièplénou","lat":"7.08694","lng":"-4.28306"},{"label":"Katimasso","lat":"7.34226","lng":"-3.57435"},{"label":"Katiola","lat":"8.13728","lng":"-5.10095"},{"label":"Kato","lat":"8.48821","lng":"-6.82936"},{"label":"Katogbo","lat":"8.47169","lng":"-6.67102"},{"label":"Katonon","lat":"10.03596","lng":"-5.61363"},{"label":"Katoro","lat":"10.14962","lng":"-6.12869"},{"label":"Katouo","lat":"6.76163","lng":"-8.32828"},{"label":"Katya","lat":"9.37072","lng":"-5.65616"},{"label":"Katyaha","lat":"9.7306","lng":"-5.99651"},{"label":"Katyonon","lat":"8.16667","lng":"-5.1"},{"label":"Kaundrobo","lat":"7.4764","lng":"-4.61582"},{"label":"Kavagouma","lat":"7.85229","lng":"-6.10534"},{"label":"Kavaka","lat":"7.60319","lng":"-6.0949"},{"label":"Kaviessou","lat":"6.9359","lng":"-5.64402"},{"label":"Kawolo-Dioulasso","lat":"8.26835","lng":"-4.48015"},{"label":"Kawolo-Sobara","lat":"8.3","lng":"-4.51667"},{"label":"Kaya-Ziduho","lat":"7.40932","lng":"-6.04822"},{"label":"Kayéta","lat":"6.63906","lng":"-5.65406"},{"label":"Kayo","lat":"5.80977","lng":"-6.47534"},{"label":"Kazéribéri","lat":"5.63899","lng":"-5.61016"},{"label":"Kébi","lat":"9.3056","lng":"-6.61848"},{"label":"Kébouébo","lat":"6.62618","lng":"-8.19529"},{"label":"Kédigbo","lat":"5.29061","lng":"-5.92564"},{"label":"Keibla","lat":"6.84886","lng":"-6.5791"},{"label":"Kéibly","lat":"5.99636","lng":"-7.4726"},{"label":"Keifa","lat":"6.3849","lng":"-5.44402"},{"label":"Kéiténably","lat":"7.26047","lng":"-7.33748"},{"label":"Kékégoza","lat":"6.76412","lng":"-6.55133"},{"label":"Kekirini","lat":"7.76917","lng":"-2.96113"},{"label":"Kékrénou","lat":"7.52837","lng":"-5.59692"},{"label":"Kélégbala","lat":"10.03229","lng":"-6.75961"},{"label":"Kéliéguhé","lat":"6.56481","lng":"-6.84803"},{"label":"Kémédi","lat":"8.06059","lng":"-3.27861"},{"label":"Kenbé","lat":"8.03622","lng":"-7.00602"},{"label":"Kendè-Dan","lat":"7.88093","lng":"-5.67293"},{"label":"Kénéfoué","lat":"7.46749","lng":"-5.58992"},{"label":"Kenneu","lat":"7.2012","lng":"-8.10437"},{"label":"Kéraoréguhé","lat":"6.51892","lng":"-6.73892"},{"label":"Kérébadougou","lat":"9.94954","lng":"-7.62055"},{"label":"Kéréguhé","lat":"6.42922","lng":"-6.67223"},{"label":"Késabli","lat":"7.31407","lng":"-7.30169"},{"label":"Kétasso","lat":"5.75869","lng":"-5.03378"},{"label":"Kétésso","lat":"5.87796","lng":"-3.17407"},{"label":"Kétro","lat":"7.18256","lng":"-6.643"},{"label":"Kibouo","lat":"6.82898","lng":"-6.51516"},{"label":"Kiélé","lat":"7.50805","lng":"-7.6658"},{"label":"Kiémou","lat":"9.0605","lng":"-5.54983"},{"label":"Kièndi","lat":"8.16925","lng":"-2.77586"},{"label":"Kiendi-Ba","lat":"8.15","lng":"-2.91667"},{"label":"Kiéré","lat":"9.09609","lng":"-6.06171"},{"label":"Kiéti","lat":"8.05","lng":"-3.48333"},{"label":"Kilimoukro","lat":"6.67691","lng":"-4.32499"},{"label":"Kimbirila","lat":"9.70649","lng":"-7.60894"},{"label":"Kimoukro","lat":"6.51274","lng":"-5.30009"},{"label":"Kinéyèkaha","lat":"9.43605","lng":"-5.14094"},{"label":"Kinkinkaha","lat":"9.48883","lng":"-5.0594"},{"label":"Kinkoua","lat":"7.86667","lng":"-2.88333"},{"label":"Kiramissé","lat":"8.22181","lng":"-3.44671"},{"label":"Kirifi","lat":"6.80645","lng":"-3.50866"},{"label":"Kiryao","lat":"7.38704","lng":"-7.34171"},{"label":"Kissié Malékro","lat":"7.43616","lng":"-4.64346"},{"label":"Klangbolabli","lat":"7.53312","lng":"-7.23796"},{"label":"Klaon","lat":"6.58526","lng":"-8.52765"},{"label":"Klapleu","lat":"7.56861","lng":"-7.75599"},{"label":"Klémékro","lat":"7.75946","lng":"-5.29641"},{"label":"Klimankro Ndénou","lat":"7.50698","lng":"-4.56729"},