[{"label":"Alaïli Ḏaḏḏa‘","lat":"12.42167","lng":"42.89556"},{"label":"Ali Sabih","lat":"11.15583","lng":"42.7125"},{"label":"Arta","lat":"11.52639","lng":"42.85194"},{"label":"Dikhil","lat":"11.10454","lng":"42.36971"},{"label":"Djibouti","lat":"11.58901","lng":"43.14503"},{"label":"Dorra","lat":"12.15028","lng":"42.47624"},{"label":"Gâlâfi","lat":"11.71583","lng":"41.83611"},{"label":"Goubétto","lat":"11.42389","lng":"43.00028"},{"label":"Holhol","lat":"11.31028","lng":"42.92944"},{"label":"Loyada","lat":"11.46111","lng":"43.25278"},{"label":"Obock","lat":"11.96693","lng":"43.28835"}]