[{"label":"’Aïn Abid","lat":"36.23194","lng":"6.94333"},{"label":"’Aïn Azel","lat":"35.81846","lng":"5.51115"},{"label":"’Aïn Benian","lat":"36.80277","lng":"2.92185"},{"label":"’Aïn Boucif","lat":"35.89123","lng":"3.1585"},{"label":"’Aïn Deheb","lat":"34.84218","lng":"1.54697"},{"label":"’Aïn el Bell","lat":"34.34381","lng":"3.22475"},{"label":"’Aïn el Berd","lat":"35.36395","lng":"-0.51279"},{"label":"’Aïn el Hadjar","lat":"34.75846","lng":"0.14528"},{"label":"’Aïn el Hammam","lat":"36.56471","lng":"4.30619"},{"label":"’Aïn el Melh","lat":"34.84146","lng":"4.16383"},{"label":"’Aïn el Turk","lat":"35.74381","lng":"-0.7693"},{"label":"’Aïn Merane","lat":"36.16277","lng":"0.97037"},{"label":"Abadla","lat":"31.019","lng":"-2.72387"},{"label":"Abou el Hassan","lat":"36.41657","lng":"1.19616"},{"label":"Adrar","lat":"27.87429","lng":"-0.29388"},{"label":"Aflou","lat":"34.11279","lng":"2.10228"},{"label":"Aghlal","lat":"35.20111","lng":"-1.06958"},{"label":"Ahmed Bel Hadj","lat":"36.80146","lng":"7.60811"},{"label":"Aïn Arnat","lat":"36.18683","lng":"5.31347"},{"label":"Aïn Beïda","lat":"35.79639","lng":"7.39278"},{"label":"Aïn Bessem","lat":"36.29333","lng":"3.67319"},{"label":"Aïn Defla","lat":"36.26405","lng":"1.9679"},{"label":"Aïn el Bya","lat":"35.80389","lng":"-0.30178"},{"label":"Ain el Hadjel","lat":"35.67003","lng":"3.88153"},{"label":"Aïn Fakroun","lat":"35.97108","lng":"6.87374"},{"label":"Aïn Kercha","lat":"35.92472","lng":"6.69528"},{"label":"Aïn Lechiakh","lat":"36.15848","lng":"2.40514"},{"label":"Aïn M’Lila","lat":"36.03687","lng":"6.57219"},{"label":"Aïn Oulmene","lat":"35.92296","lng":"5.29604"},{"label":"Aïn Oussera","lat":"35.45139","lng":"2.90583"},{"label":"Aïn Sefra","lat":"32.75","lng":"-0.58333"},{"label":"Aïn Smara","lat":"36.2674","lng":"6.50135"},{"label":"Aïn Taya","lat":"36.79333","lng":"3.28694"},{"label":"Aïn Temouchent","lat":"35.29749","lng":"-1.14037"},{"label":"Aïn Touta","lat":"35.37675","lng":"5.90001"},{"label":"Ait Yahia","lat":"36.58907","lng":"4.33505"},{"label":"Akbou","lat":"36.4575","lng":"4.53494"},{"label":"Algiers","lat":"36.73225","lng":"3.08746"},{"label":"Ali Mendjeli","lat":"36.2459","lng":"6.5671"},{"label":"Amizour","lat":"36.64022","lng":"4.90131"},{"label":"Ammi Moussa","lat":"35.86781","lng":"1.11143"},{"label":"Annaba","lat":"36.9","lng":"7.76667"},{"label":"Aoulef","lat":"26.96667","lng":"1.08333"},{"label":"Arbatache","lat":"36.63773","lng":"3.37127"},{"label":"Arhribs","lat":"36.79361","lng":"4.31158"},{"label":"Arris","lat":"35.25881","lng":"6.34706"},{"label":"Arzew","lat":"35.85048","lng":"-0.318"},{"label":"Assi Bou Nif","lat":"35.69222","lng":"-0.49944"},{"label":"Azazga","lat":"36.74472","lng":"4.37222"},{"label":"Azzaba","lat":"36.73944","lng":"7.10528"},{"label":"Bab Ezzouar","lat":"36.72615","lng":"3.18291"},{"label":"BABOR - VILLE","lat":"36.48994","lng":"5.5393"},{"label":"Baraki","lat":"36.66655","lng":"3.09606"},{"label":"Barbacha","lat":"36.56667","lng":"4.96667"},{"label":"Barbouche","lat":"36.10589","lng":"2.48185"},{"label":"Barika","lat":"35.38901","lng":"5.36584"},{"label":"Batna City","lat":"35.55597","lng":"6.17414"},{"label":"Béchar","lat":"31.61667","lng":"-2.21667"},{"label":"Béjaïa","lat":"36.75587","lng":"5.08433"},{"label":"Ben Mehidi","lat":"36.76967","lng":"7.90641"},{"label":"Béni Abbès","lat":"30.13306","lng":"-2.16611"},{"label":"Beni Amrane","lat":"36.66774","lng":"3.59115"},{"label":"Beni Douala","lat":"36.61954","lng":"4.08282"},{"label":"Beni Mered","lat":"36.52389","lng":"2.86131"},{"label":"Beni Mester","lat":"34.87045","lng":"-1.42319"},{"label":"Beni Saf","lat":"35.30099","lng":"-1.38226"},{"label":"Beni Tamou","lat":"36.53833","lng":"2.82174"},{"label":"Bensekrane","lat":"35.07465","lng":"-1.22431"},{"label":"Berrahal","lat":"36.83528","lng":"7.45333"},{"label":"Berriane","lat":"32.82648","lng":"3.76689"},{"label":"Berrouaghia","lat":"36.13516","lng":"2.91085"},{"label":"Besbes","lat":"36.70222","lng":"7.84722"},{"label":"Bir el Ater","lat":"34.74488","lng":"8.06024"},{"label":"Bir el Djir","lat":"35.72","lng":"-0.545"},{"label":"Birine","lat":"35.635","lng":"3.225"},{"label":"Birkhadem","lat":"36.71499","lng":"3.05002"},{"label":"Biskra","lat":"34.85038","lng":"5.72805"},{"label":"Blida","lat":"36.47004","lng":"2.8277"},{"label":"Boghni","lat":"36.54222","lng":"3.95306"},{"label":"Bordj Bou Arreridj","lat":"36.07389","lng":"4.76139"},{"label":"Bordj el Kiffan","lat":"36.74871","lng":"3.19249"},{"label":"Bordj Ghdir","lat":"35.90111","lng":"4.89806"},{"label":"Bordj Menaïel","lat":"36.74328","lng":"3.7173"},{"label":"Bordj Zemoura","lat":"36.27462","lng":"4.85668"},{"label":"Boû Arfa","lat":"36.46298","lng":"2.81464"},{"label":"Bou Hanifia el Hamamat","lat":"35.31473","lng":"-0.05037"},{"label":"Bou Ismaïl","lat":"36.64262","lng":"2.69007"},{"label":"Bou Saâda","lat":"35.20855","lng":"4.17402"},{"label":"Bou Tlelis","lat":"35.57272","lng":"-0.8996"},{"label":"Boudjima","lat":"36.80218","lng":"4.15187"},{"label":"Boudouaou","lat":"36.72735","lng":"3.40995"},{"label":"Boufarik","lat":"36.57413","lng":"2.91214"},{"label":"Bougaa","lat":"36.33293","lng":"5.08843"},{"label":"Bougara","lat":"36.54178","lng":"3.081"},{"label":"Bougzoul","lat":"35.70558","lng":"2.84599"},{"label":"Bouinan","lat":"36.53167","lng":"2.99194"},{"label":"Bouïra","lat":"36.37489","lng":"3.902"},{"label":"Boukadir","lat":"36.06629","lng":"1.12602"},{"label":"Boumagueur","lat":"35.5052","lng":"5.5525"},{"label":"Boumahra Ahmed","lat":"36.45833","lng":"7.51389"},{"label":"Brezina","lat":"33.09892","lng":"1.26082"},{"label":"Chabet el Ameur","lat":"36.63709","lng":"3.69474"},{"label":"Charef","lat":"34.62098","lng":"2.79503"},{"label":"Chebli","lat":"36.57722","lng":"3.00917"},{"label":"Chelghoum el Aïd","lat":"36.16286","lng":"6.16651"},{"label":"Chellalat el Adhaouara","lat":"35.93968","lng":"3.41588"},{"label":"Chemini","lat":"36.6","lng":"4.61667"},{"label":"Cheraga","lat":"36.76775","lng":"2.95924"},{"label":"Cherchell","lat":"36.605","lng":"2.19083"},{"label":"Cheria","lat":"35.27306","lng":"7.75194"},{"label":"Chetouane","lat":"34.92129","lng":"-1.29512"},{"label":"Chiffa","lat":"36.46293","lng":"2.73873"},{"label":"Chlef","lat":"36.16525","lng":"1.33452"},{"label":"Chorfa","lat":"36.36505","lng":"4.32636"},{"label":"Collo","lat":"37.00563","lng":"6.56049"},{"label":"Constantine","lat":"36.365","lng":"6.61472"},{"label":"Dar Chioukh","lat":"34.89638","lng":"3.48543"},{"label":"Dar el Beïda","lat":"36.71333","lng":"3.2125"},{"label":"Debila","lat":"33.51667","lng":"6.95"},{"label":"Dellys","lat":"36.91716","lng":"3.91311"},{"label":"Didouche Mourad","lat":"36.4525","lng":"6.63639"},{"label":"District of Taher","lat":"36.772","lng":"5.8982"},{"label":"Djamaa","lat":"33.53388","lng":"5.99306"},{"label":"Djanet","lat":"24.55528","lng":"9.485"},{"label":"Djebilet Rosfa","lat":"34.86375","lng":"0.83496"},{"label":"Djelfa","lat":"34.67279","lng":"3.263"},{"label":"Djidiouia","lat":"35.92989","lng":"0.82871"},{"label":"Douéra","lat":"36.67","lng":"2.94444"},{"label":"Draa Ben Khedda","lat":"36.73436","lng":"3.96223"},{"label":"Draa el Mizan","lat":"36.53628","lng":"3.8334"},{"label":"Draâ Esmar","lat":"36.27354","lng":"2.71695"},{"label":"Draa Klalouche","lat":"35.79234","lng":"5.97706"},{"label":"Drean","lat":"36.68482","lng":"7.75111"},{"label":"Ech Chettia","lat":"36.19591","lng":"1.25537"},{"label":"El Abadia","lat":"36.26951","lng":"1.68609"},{"label":"El Abiodh Sidi Cheikh","lat":"32.893","lng":"0.54839"},{"label":"El Achir","lat":"36.06386","lng":"4.62744"},{"label":"El Affroun","lat":"36.4701","lng":"2.62528"},{"label":"El Amria","lat":"35.52439","lng":"-1.01577"},{"label":"El Aouinet","lat":"35.86691","lng":"7.88673"},{"label":"El Arrouch","lat":"36.65306","lng":"6.83639"},{"label":"El Attaf","lat":"36.22393","lng":"1.67187"},{"label":"El Bayadh","lat":"33.68318","lng":"1.01927"},{"label":"El Eulma","lat":"36.15281","lng":"5.69016"},{"label":"El Hadjar","lat":"36.80377","lng":"7.73684"},{"label":"El Hadjira","lat":"32.61336","lng":"5.51259"},{"label":"el hed","lat":"36.65","lng":"4.77361"},{"label":"El Idrissia","lat":"34.44542","lng":"2.52749"},{"label":"El Kala","lat":"36.89556","lng":"8.44333"},{"label":"El Khroub","lat":"36.26333","lng":"6.69361"},{"label":"El Kseur","lat":"36.67942","lng":"4.8555"},{"label":"El Malah","lat":"35.39137","lng":"-1.09238"},{"label":"El Meghaïer","lat":"33.95139","lng":"5.92222"},{"label":"El Menia","lat":"30.57556","lng":"2.88417"},{"label":"El Milia","lat":"36.75472","lng":"6.2725"},{"label":"El Oued","lat":"33.35608","lng":"6.86319"},{"label":"El Tarf","lat":"36.7672","lng":"8.31377"},{"label":"En Nedjma","lat":"35.64785","lng":"-0.5695"},{"label":"Es Senia","lat":"35.64779","lng":"-0.62397"},{"label":"Fedj M’Zala","lat":"36.40937","lng":"5.94463"},{"label":"Feidh el Botma","lat":"34.5","lng":"3.76667"},{"label":"Feraoun","lat":"36.56041","lng":"4.85454"},{"label":"Freha","lat":"36.75234","lng":"4.3155"},{"label":"Frenda","lat":"35.06544","lng":"1.04945"},{"label":"Gdyel","lat":"35.78111","lng":"-0.42581"},{"label":"Ghardaïa","lat":"32.49094","lng":"3.67347"},{"label":"Ghazaouet","lat":"35.09579","lng":"-1.85772"},{"label":"Grarem","lat":"36.51611","lng":"6.32722"},{"label":"Guelma","lat":"36.46214","lng":"7.42608"},{"label":"Guemar","lat":"33.48529","lng":"6.79693"},{"label":"Guerara","lat":"32.79211","lng":"4.49949"},{"label":"Hadjout","lat":"36.51257","lng":"2.41382"},{"label":"Hamma Bouziane","lat":"36.41205","lng":"6.59603"},{"label":"Hammam Bou Hadjar","lat":"35.37889","lng":"-0.96778"},{"label":"Hammam Righa","lat":"36.37972","lng":"2.39889"},{"label":"Hammamet","lat":"35.44862","lng":"7.95184"},{"label":"Hassi Bahbah","lat":"35.07109","lng":"3.0299"},{"label":"Hassi Messaoud","lat":"31.68041","lng":"6.07286"},{"label":"Héliopolis","lat":"36.50361","lng":"7.44278"},{"label":"Hennaya","lat":"34.95139","lng":"-1.36806"},{"label":"Ighram","lat":"36.46295","lng":"4.50532"},{"label":"Illizi","lat":"26.48333","lng":"8.46667"},{"label":"In Guezzam","lat":"19.57361","lng":"5.76806"},{"label":"In Salah","lat":"27.19678","lng":"2.47913"},{"label":"Jijel","lat":"36.821","lng":"5.76352"},{"label":"Kaïs","lat":"35.49474","lng":"6.92492"},{"label":"Kerkera","lat":"36.92917","lng":"6.58556"},{"label":"Khemis el Khechna","lat":"36.64997","lng":"3.3308"},{"label":"Khemis Miliana","lat":"36.26104","lng":"2.22015"},{"label":"Khenchela","lat":"35.43583","lng":"7.14333"},{"label":"Kolea","lat":"36.63888","lng":"2.76845"},{"label":"Ksar Chellala","lat":"35.21222","lng":"2.31889"},{"label":"Ksar el Boukhari","lat":"35.88889","lng":"2.74905"},{"label":"L’Arbaa Naït Irathen","lat":"36.63112","lng":"4.19864"},{"label":"Laghouat","lat":"33.8","lng":"2.86514"},{"label":"Lakhdaria","lat":"36.56463","lng":"3.5933"},{"label":"Larbaâ","lat":"36.56471","lng":"3.15434"},{"label":"Lardjem","lat":"35.74922","lng":"1.54778"},{"label":"M’Daourouch","lat":"36.07821","lng":"7.8196"},{"label":"M'Sila","lat":"35.70889","lng":"4.53722"},{"label":"Maâtkas","lat":"36.60466","lng":"3.98437"},{"label":"Maghnia","lat":"34.84969","lng":"-1.72753"},{"label":"Makouda","lat":"36.78567","lng":"4.06273"},{"label":"Mansoûra","lat":"34.86158","lng":"-1.33935"},{"label":"Mansourah","lat":"36.08725","lng":"4.45192"},{"label":"Mascara","lat":"35.39664","lng":"0.14027"},{"label":"Mazouna","lat":"36.12232","lng":"0.89865"},{"label":"Mecheria","lat":"33.54453","lng":"-0.28117"},{"label":"Médéa","lat":"36.26417","lng":"2.75393"},{"label":"Meftah","lat":"36.6204","lng":"3.22248"},{"label":"Megarine","lat":"33.19195","lng":"6.08695"},{"label":"Mehdia daira de meghila","lat":"35.43058","lng":"1.75714"},{"label":"Mekla","lat":"36.68178","lng":"4.26378"},{"label":"Melouza","lat":"35.97999","lng":"4.18665"},{"label":"Merouana","lat":"35.63106","lng":"5.91186"},{"label":"Mers el Kebir","lat":"35.7279","lng":"-0.7081"},{"label":"Meskiana","lat":"35.63058","lng":"7.66606"},{"label":"Messaad","lat":"34.15429","lng":"3.50309"},{"label":"Metlili Chaamba","lat":"32.26667","lng":"3.63333"},{"label":"Mila","lat":"36.45028","lng":"6.26444"},{"label":"Miliana","lat":"36.30554","lng":"2.2248"},{"label":"Mohammadia","lat":"35.58861","lng":"0.06861"},{"label":"Mostaganem","lat":"35.93115","lng":"0.08918"},{"label":"Mouzaïa","lat":"36.46695","lng":"2.68991"},{"label":"N’Gaous","lat":"35.555","lng":"5.61056"},{"label":"Naama","lat":"33.26667","lng":"-0.31667"},{"label":"Naciria","lat":"36.74625","lng":"3.83163"},{"label":"Nedroma","lat":"35.01361","lng":"-1.74799"},{"label":"Oran","lat":"35.69906","lng":"-0.63588"},{"label":"Ouargla","lat":"31.94932","lng":"5.32502"},{"label":"Oued el Abtal","lat":"35.45595","lng":"0.68778"},{"label":"Oued el Alleug","lat":"36.55528","lng":"2.79028"},{"label":"Oued Fodda","lat":"36.18503","lng":"1.53299"},{"label":"Oued Rhiou","lat":"35.96124","lng":"0.91896"},{"label":"Oued Sly","lat":"36.10124","lng":"1.19949"},{"label":"Oued Zenati","lat":"36.31611","lng":"7.16364"},{"label":"Ouenza","lat":"35.95333","lng":"8.12917"},{"label":"Ouled Djellal","lat":"34.43","lng":"5.06139"},{"label":"Ouled Haddaj","lat":"36.71461","lng":"3.3422"},{"label":"Ouled Mimoun","lat":"34.90472","lng":"-1.03394"},{"label":"Ouled Moussa","lat":"36.68394","lng":"3.36661"},{"label":"Ouled Slama Fouaga","lat":"36.54828","lng":"3.11006"},{"label":"Oum el Bouaghi","lat":"35.87541","lng":"7.11353"},{"label":"Oumache","lat":"34.69292","lng":"5.68092"},{"label":"Ouzera","lat":"36.25417","lng":"2.84722"},{"label":"Râs el Aïoun","lat":"35.67384","lng":"5.6453"},{"label":"Râs el Oued","lat":"35.9441","lng":"5.03107"},{"label":"Reggane","lat":"26.71576","lng":"0.1714"},{"label":"Reghaïa","lat":"36.73587","lng":"3.34018"},{"label":"Reguiba","lat":"33.56391","lng":"6.70326"},{"label":"Relizane","lat":"35.73734","lng":"0.55599"},{"label":"Remchi","lat":"35.06196","lng":"-1.43362"},{"label":"Robbah","lat":"33.27967","lng":"6.90984"},{"label":"Rouached","lat":"36.45774","lng":"6.04267"},{"label":"Rouiba","lat":"36.73829","lng":"3.28079"},{"label":"Rouissat","lat":"31.92427","lng":"5.35018"},{"label":"Saïda","lat":"34.83033","lng":"0.15171"},{"label":"Salah Bey","lat":"35.85451","lng":"5.29053"},{"label":"Saoula","lat":"36.70456","lng":"3.02462"},{"label":"Sebdou","lat":"34.63703","lng":"-1.33143"},{"label":"Seddouk","lat":"36.54722","lng":"4.68611"},{"label":"Sedrata","lat":"36.12868","lng":"7.53376"},{"label":"Sétif","lat":"36.19112","lng":"5.41373"},{"label":"Sfizef","lat":"35.23464","lng":"-0.24435"},{"label":"Sidi Abdelli","lat":"35.06937","lng":"-1.13706"},{"label":"Sidi Aïssa","lat":"35.88548","lng":"3.77236"},{"label":"Sidi Akkacha","lat":"36.46472","lng":"1.30258"},{"label":"Sidi Amar","lat":"36.82019","lng":"7.71641"},{"label":"Sidi Amrane","lat":"33.49885","lng":"6.00803"},{"label":"Sidi Bel Abbes","lat":"35.18994","lng":"-0.63085"},{"label":"Sidi ech Chahmi","lat":"35.65903","lng":"-0.52168"},{"label":"Sidi Khaled","lat":"34.387","lng":"4.98785"},{"label":"Sidi Mérouane","lat":"36.52056","lng":"6.26111"},{"label":"Sidi Moussa","lat":"36.60637","lng":"3.08783"},{"label":"Sidi Okba","lat":"34.74512","lng":"5.89833"},{"label":"Sidi Senoussi سيدي سنوسي","lat":"34.99691","lng":"-1.09449"},{"label":"Sig","lat":"35.52832","lng":"-0.19369"},{"label":"Skikda","lat":"36.87617","lng":"6.90921"},{"label":"Smala","lat":"35.71652","lng":"0.75437"},{"label":"Sougueur","lat":"35.18568","lng":"1.49612"},{"label":"Souk Ahras","lat":"36.28639","lng":"7.95111"},{"label":"Souma","lat":"36.51833","lng":"2.90528"},{"label":"Sour el Ghozlane","lat":"36.14766","lng":"3.69123"},{"label":"Tadjenanet","lat":"36.12129","lng":"5.9867"},{"label":"Tadmaït","lat":"36.74413","lng":"3.90045"},{"label":"Taïbet","lat":"33.08515","lng":"6.3891"},{"label":"Tamalous","lat":"36.83763","lng":"6.64018"},{"label":"Tamanghasset","lat":"22.785","lng":"5.52278"},{"label":"Tarhit Ouled Hellal","lat":"35.08111","lng":"6.33375"},{"label":"Tazoult-Lambese","lat":"35.48171","lng":"6.26074"},{"label":"Tebesbest","lat":"33.11667","lng":"6.08333"},{"label":"Tébessa","lat":"35.40417","lng":"8.12417"},{"label":"Telerghma","lat":"36.11653","lng":"6.35434"},{"label":"Ténès","lat":"36.51076","lng":"1.30809"},{"label":"Thenia","lat":"36.72544","lng":"3.55665"},{"label":"Theniet el Had","lat":"35.87111","lng":"2.02806"},{"label":"Tiaret","lat":"35.37103","lng":"1.31699"},{"label":"Tighenif","lat":"35.41722","lng":"0.32982"},{"label":"Timimoun","lat":"29.26417","lng":"0.23583"},{"label":"Timizart","lat":"36.8","lng":"4.26667"},{"label":"Tindouf","lat":"27.67111","lng":"-8.14743"},{"label":"Tipasa","lat":"36.58972","lng":"2.44889"},{"label":"Tirmitine","lat":"36.65393","lng":"3.98143"},{"label":"Tissemsilt","lat":"35.60722","lng":"1.81081"},{"label":"Tizi Gheniff","lat":"36.58839","lng":"3.77445"},{"label":"Tizi Ouzou","lat":"36.71182","lng":"4.04591"},{"label":"Tizi Rached","lat":"36.67176","lng":"4.19176"},{"label":"Tizi-n-Tleta","lat":"36.54569","lng":"4.05712"},{"label":"Tlemcen","lat":"34.87833","lng":"-1.315"},{"label":"Tolga","lat":"34.72224","lng":"5.37845"},{"label":"Touggourt","lat":"33.11083","lng":"6.07"},{"label":"Zemoura","lat":"35.72251","lng":"0.75509"},{"label":"Zeralda","lat":"36.71169","lng":"2.84244"},{"label":"Zeribet el Oued","lat":"34.68284","lng":"6.51109"},{"label":"Zighout Youcef","lat":"36.53307","lng":"6.71237"}]