[{"label":"‘Izbat al Burj","lat":"31.5084","lng":"31.84106"},{"label":"Abnūb","lat":"27.26881","lng":"31.15232"},{"label":"Abū al Maţāmīr","lat":"30.91018","lng":"30.17438"},{"label":"Abū Kabīr","lat":"30.72508","lng":"31.67148"},{"label":"Abū Qurqāş","lat":"27.93043","lng":"30.83826"},{"label":"Abu Simbel","lat":"22.3457","lng":"31.61624"},{"label":"Abū Tīj","lat":"27.04514","lng":"31.31845"},{"label":"Ad Dilinjāt","lat":"30.82796","lng":"30.53552"},{"label":"Ain Sukhna","lat":"29.60018","lng":"32.31671"},{"label":"Ajā","lat":"30.94162","lng":"31.29039"},{"label":"Akhmīm","lat":"26.5622","lng":"31.74566"},{"label":"Al ‘Alamayn","lat":"30.83007","lng":"28.95502"},{"label":"Al ‘Āshir min Ramaḑān","lat":"30.29636","lng":"31.74633"},{"label":"Al ‘Ayyāţ","lat":"29.61972","lng":"31.2575"},{"label":"Al Badārī","lat":"26.99306","lng":"31.41605"},{"label":"Al Bājūr","lat":"30.43046","lng":"31.03679"},{"label":"Al Balyanā","lat":"26.23648","lng":"32.00387"},{"label":"Al Bawīţī","lat":"28.34827","lng":"28.86936"},{"label":"Al Fashn","lat":"28.82306","lng":"30.89903"},{"label":"Al Fayyūm","lat":"29.30995","lng":"30.8418"},{"label":"Al Ḩāmūl","lat":"31.31146","lng":"31.14766"},{"label":"Al Ḩawāmidīyah","lat":"29.9","lng":"31.25"},{"label":"Al Ibrāhīmīyah","lat":"30.71877","lng":"31.56299"},{"label":"Al Jammālīyah","lat":"31.18065","lng":"31.86497"},{"label":"Al Khānkah","lat":"30.21035","lng":"31.36812"},{"label":"Al Khārjah","lat":"25.45101","lng":"30.54653"},{"label":"Al Khuşūş","lat":"30.15293","lng":"31.31501"},{"label":"Al Maḩallah al Kubrá","lat":"30.97063","lng":"31.1669"},{"label":"Al Manşūrah","lat":"31.03637","lng":"31.38069"},{"label":"Al Manzalah","lat":"31.15823","lng":"31.936"},{"label":"Al Maţarīyah","lat":"31.18287","lng":"32.03108"},{"label":"Al Minshāh","lat":"26.4775","lng":"31.80394"},{"label":"Al Minyā","lat":"28.09193","lng":"30.75813"},{"label":"Al Qanāţir al Khayrīyah","lat":"30.19327","lng":"31.13703"},{"label":"Al Qanāyāt","lat":"30.61927","lng":"31.46165"},{"label":"Al Qurayn","lat":"30.61618","lng":"31.73514"},{"label":"Al Quşayr","lat":"26.10611","lng":"34.27716"},{"label":"Al Qūşīyah","lat":"27.44023","lng":"30.81712"},{"label":"Al Wāsiţah","lat":"29.33778","lng":"31.20556"},{"label":"Al-'Ubūr","lat":"30.22886","lng":"31.48149"},{"label":"Alexandria","lat":"31.20176","lng":"29.91582"},{"label":"Arish","lat":"31.13159","lng":"33.79844"},{"label":"Aş Şaff","lat":"29.56472","lng":"31.28111"},{"label":"As Sallūm","lat":"31.55371","lng":"25.15793"},{"label":"As Sinbillāwayn","lat":"30.88251","lng":"31.46275"},{"label":"Ash Shaykh Zuwayd","lat":"31.2163","lng":"34.11074"},{"label":"Ash Shuhadā’","lat":"30.59683","lng":"30.89931"},{"label":"Ashmūn","lat":"30.29735","lng":"30.97641"},{"label":"Aswan","lat":"24.09082","lng":"32.89942"},{"label":"Asyūţ","lat":"27.18096","lng":"31.18368"},{"label":"At Tall al Kabīr","lat":"30.54323","lng":"31.78504"},{"label":"Awsīm","lat":"30.12303","lng":"31.13571"},{"label":"Az Zarqā","lat":"31.20864","lng":"31.63528"},{"label":"Banhā","lat":"30.45977","lng":"31.1842"},{"label":"Banī Mazār","lat":"28.49456","lng":"30.80526"},{"label":"Banī Suwayf","lat":"29.07441","lng":"31.09785"},{"label":"Basyūn","lat":"30.93976","lng":"30.81338"},{"label":"Bi’r al ‘Abd","lat":"31.01887","lng":"33.0098"},{"label":"Bilbays","lat":"30.42039","lng":"31.56223"},{"label":"Bilqās","lat":"31.21452","lng":"31.35798"},{"label":"Būsh","lat":"29.14816","lng":"31.12733"},{"label":"Cairo","lat":"30.06263","lng":"31.24967"},{"label":"Dahab","lat":"28.48208","lng":"34.49505"},{"label":"Damanhūr","lat":"31.03408","lng":"30.46823"},{"label":"Damietta","lat":"31.41648","lng":"31.81332"},{"label":"Dayr Mawās","lat":"27.64148","lng":"30.85012"},{"label":"Dayrūţ","lat":"27.55642","lng":"30.81057"},{"label":"Dikirnis","lat":"31.08898","lng":"31.59478"},{"label":"Dishnā","lat":"26.12242","lng":"32.46749"},{"label":"Disūq","lat":"31.13259","lng":"30.64784"},{"label":"Diyarb Najm","lat":"30.75438","lng":"31.44016"},{"label":"El Gouna","lat":"27.39417","lng":"33.67825"},{"label":"El-Tor","lat":"28.24168","lng":"33.6222"},{"label":"Fāqūs","lat":"30.72816","lng":"31.79697"},{"label":"Fāraskūr","lat":"31.32977","lng":"31.71507"},{"label":"Farshūţ","lat":"26.05501","lng":"32.16274"},{"label":"Fuwwah","lat":"31.20365","lng":"30.54908"},{"label":"Girga","lat":"26.33721","lng":"31.89295"},{"label":"Giza","lat":"30.00944","lng":"31.20861"},{"label":"Ḩalwān","lat":"29.84144","lng":"31.30084"},{"label":"Ḩawsh ‘Īsá","lat":"30.9128","lng":"30.29019"},{"label":"Hihyā","lat":"30.6713","lng":"31.58801"},{"label":"Hurghada","lat":"27.25738","lng":"33.81291"},{"label":"Ibshawāy","lat":"29.35896","lng":"30.68061"},{"label":"Idfū","lat":"24.97916","lng":"32.87722"},{"label":"Idkū","lat":"31.3073","lng":"30.2981"},{"label":"Ismailia","lat":"30.60427","lng":"32.27225"},{"label":"Isnā","lat":"25.29336","lng":"32.55402"},{"label":"Iţsā","lat":"29.2376","lng":"30.78944"},{"label":"Juhaynah","lat":"26.67418","lng":"31.49686"},{"label":"Kafr ad Dawwār","lat":"31.13379","lng":"30.12969"},{"label":"Kafr ash Shaykh","lat":"31.11174","lng":"30.93991"},{"label":"Kafr az Zayyāt","lat":"30.8248","lng":"30.81805"},{"label":"Kafr Şaqr","lat":"30.79336","lng":"31.62575"},{"label":"Kawm Ḩamādah","lat":"30.76128","lng":"30.69972"},{"label":"Kawm Umbū","lat":"24.47669","lng":"32.94626"},{"label":"Kirdāsah","lat":"30.03103","lng":"31.11109"},{"label":"Luxor","lat":"25.69893","lng":"32.6421"},{"label":"Madīnat an Naşr","lat":"30.06667","lng":"31.3"},{"label":"Madīnat Sittah Uktūbar","lat":"29.81667","lng":"31.05"},{"label":"Maghāghah","lat":"28.64776","lng":"30.841"},{"label":"Makadi Bay","lat":"26.99123","lng":"33.89952"},{"label":"Mallawī","lat":"27.73264","lng":"30.84129"},{"label":"Manfalūţ","lat":"27.3126","lng":"30.96987"},{"label":"Marsa Alam","lat":"25.06305","lng":"34.89005"},{"label":"Mashtūl as Sūq","lat":"30.36056","lng":"31.3776"},{"label":"Maţāy","lat":"28.41866","lng":"30.77861"},{"label":"Mersa Matruh","lat":"31.3529","lng":"27.23725"},{"label":"Minyat an Naşr","lat":"31.12624","lng":"31.64313"},{"label":"Mīt Ghamr","lat":"30.71524","lng":"31.2592"},{"label":"Munshāt ‘Alī Āghā","lat":"31.15791","lng":"30.70177"},{"label":"Munūf","lat":"30.46597","lng":"30.93199"},{"label":"Naja' Ḥammādī","lat":"26.04949","lng":"32.24142"},{"label":"New Cairo","lat":"30.03","lng":"31.47"},{"label":"Nuwaybi‘a","lat":"29.04681","lng":"34.6634"},{"label":"Port Said","lat":"31.26531","lng":"32.3019"},{"label":"Qalyūb","lat":"30.17922","lng":"31.2056"},{"label":"Qaşr al Farāfirah","lat":"27.0568","lng":"27.96979"},{"label":"Qinā","lat":"26.16418","lng":"32.72671"},{"label":"Qūş","lat":"25.91544","lng":"32.76287"},{"label":"Quţūr","lat":"30.97225","lng":"30.95614"},{"label":"Quwaysinā","lat":"30.56482","lng":"31.15777"},{"label":"Rafaḩ","lat":"31.28204","lng":"34.23869"},{"label":"Ras Gharib","lat":"28.35831","lng":"33.07829"},{"label":"Rosetta","lat":"31.39951","lng":"30.41718"},{"label":"Safaga","lat":"26.74906","lng":"33.93891"},{"label":"Saint Catherine","lat":"28.56191","lng":"33.94934"},{"label":"Samālūţ","lat":"28.31214","lng":"30.71007"},{"label":"Samannūd","lat":"30.9616","lng":"31.24069"},{"label":"Sharm el-Sheikh","lat":"27.91582","lng":"34.32995"},{"label":"Shibīn al Kawm","lat":"30.55258","lng":"31.00904"},{"label":"Shibīn al Qanāṭir","lat":"30.31269","lng":"31.32018"},{"label":"Shirbīn","lat":"31.19688","lng":"31.5243"},{"label":"Shubrā al Khaymah","lat":"30.12511","lng":"31.25053"},{"label":"Sīdī Barānī","lat":"31.61166","lng":"25.92539"},{"label":"Sīdī Sālim","lat":"31.27133","lng":"30.78617"},{"label":"Sinnūris","lat":"29.41345","lng":"30.86579"},{"label":"Siwa Oasis","lat":"29.2032","lng":"25.51965"},{"label":"Sohag","lat":"26.55695","lng":"31.69478"},{"label":"Suez","lat":"29.97371","lng":"32.52627"},{"label":"Sumusţā as Sulţānī","lat":"28.91667","lng":"30.85"},{"label":"Ţahţā","lat":"26.76866","lng":"31.50198"},{"label":"Talā","lat":"30.6798","lng":"30.94364"},{"label":"Ţalkhā","lat":"31.0539","lng":"31.37787"},{"label":"Ţāmiyah","lat":"29.47639","lng":"30.96119"},{"label":"Ţanţā","lat":"30.78847","lng":"31.00192"},{"label":"Ţimā","lat":"26.90843","lng":"31.43469"},{"label":"Ţūkh","lat":"30.35487","lng":"31.20105"},{"label":"Zagazig","lat":"30.58768","lng":"31.502"}]