[{"label":"‘Izbat ‘Alī as Sayyid","lat":"31.15671","lng":"30.14775"},{"label":"‘Izbat al Burj","lat":"31.5084","lng":"31.84106"},{"label":"6th of October City","lat":"29.81667","lng":"31.05"},{"label":"Abnūb","lat":"27.26881","lng":"31.15232"},{"label":"Abū al Maţāmīr","lat":"30.91018","lng":"30.17438"},{"label":"Abū an Numrus","lat":"29.95","lng":"31.2"},{"label":"Abū Ḩammād","lat":"30.53766","lng":"31.67875"},{"label":"Abū Ḩummuş","lat":"31.09311","lng":"30.31418"},{"label":"Abū Kabīr","lat":"30.72508","lng":"31.67148"},{"label":"Abū Qurqāş","lat":"27.93043","lng":"30.83826"},{"label":"Abu Simbel","lat":"22.3457","lng":"31.61624"},{"label":"Abu Suweir-el-Mahatta","lat":"30.56977","lng":"32.1146"},{"label":"Abū Tīj","lat":"27.04514","lng":"31.31845"},{"label":"Abū Ţisht","lat":"26.12039","lng":"32.09543"},{"label":"Ad Dilinjāt","lat":"30.82796","lng":"30.53552"},{"label":"Aga","lat":"30.94162","lng":"31.29039"},{"label":"Ain Sukhna","lat":"29.60018","lng":"32.31671"},{"label":"Akhmīm","lat":"26.5622","lng":"31.74566"},{"label":"Al ‘Alamayn","lat":"30.83007","lng":"28.95502"},{"label":"Al ‘Āshir min Ramaḑān","lat":"30.29636","lng":"31.74633"},{"label":"Al ‘Ayyāţ","lat":"29.61972","lng":"31.2575"},{"label":"Al ‘Idwah","lat":"28.69919","lng":"30.7673"},{"label":"Al Badārī","lat":"26.99306","lng":"31.41605"},{"label":"Al Badrashayn","lat":"29.85","lng":"31.26667"},{"label":"Al Bājūr","lat":"30.43046","lng":"31.03679"},{"label":"Al Balyanā","lat":"26.23648","lng":"32.00387"},{"label":"Al Başalīyah Baḩrī","lat":"25.15","lng":"32.71667"},{"label":"Al Bawīţī","lat":"28.34827","lng":"28.86936"},{"label":"Al Bayāḑīyah","lat":"25.66477","lng":"32.63539"},{"label":"Al Burj","lat":"31.58229","lng":"30.98095"},{"label":"Al Fashn","lat":"28.82306","lng":"30.89903"},{"label":"Al Fayyum","lat":"29.30995","lng":"30.8418"},{"label":"Al Ghanāyim","lat":"26.87524","lng":"31.32963"},{"label":"Al Ḩammām","lat":"30.84532","lng":"29.38818"},{"label":"Al Ḩāmūl","lat":"31.31146","lng":"31.14766"},{"label":"Al Ḩawāmidīyah","lat":"29.9","lng":"31.25"},{"label":"Al Ḩusaynīyah","lat":"30.86163","lng":"31.91809"},{"label":"Al Ibrāhīmīyah","lat":"30.71877","lng":"31.56299"},{"label":"Al Jammālīyah","lat":"31.18065","lng":"31.86497"},{"label":"Al Khānkah","lat":"30.21035","lng":"31.36812"},{"label":"Al Khārjah","lat":"25.45101","lng":"30.54653"},{"label":"Al Khuşūş","lat":"30.15293","lng":"31.31501"},{"label":"Al Maḩallah al Kubrá","lat":"30.97063","lng":"31.1669"},{"label":"Al Maḩmūdīyah","lat":"31.18352","lng":"30.52448"},{"label":"Al Mansurah","lat":"31.03637","lng":"31.38069"},{"label":"Al Manzalah","lat":"31.15823","lng":"31.936"},{"label":"Al Marāghah","lat":"26.69981","lng":"31.60464"},{"label":"Al Maţarīyah","lat":"31.18287","lng":"32.03108"},{"label":"Al Minshāh","lat":"26.4775","lng":"31.80394"},{"label":"Al Qāhirah al Jadīdah","lat":"30.04214","lng":"31.44446"},{"label":"Al Qanāţir al Khayrīyah","lat":"30.19327","lng":"31.13703"},{"label":"Al Qanāyāt","lat":"30.61927","lng":"31.46165"},{"label":"Al Qanţarah","lat":"30.85711","lng":"32.31183"},{"label":"Al Qaşşāşīn","lat":"30.56412","lng":"31.93386"},{"label":"Al Qurayn","lat":"30.61618","lng":"31.73514"},{"label":"Al Quşayr","lat":"26.10611","lng":"34.27716"},{"label":"Al Qūşīyah","lat":"27.44023","lng":"30.81712"},{"label":"Al Waqf","lat":"26.08657","lng":"32.42265"},{"label":"Al Wāsiţah","lat":"29.33778","lng":"31.20556"},{"label":"Al-'Ubūr","lat":"30.22886","lng":"31.48149"},{"label":"Al-Khārijah","lat":"25.25","lng":"30.55"},{"label":"Al-Minyā al-Jadīdah","lat":"28.08639","lng":"30.81464"},{"label":"Alexandria","lat":"31.20176","lng":"29.91582"},{"label":"An Nāşirīyah","lat":"27.20583","lng":"31.19639"},{"label":"An Nūbārīyah","lat":"30.6687","lng":"30.07391"},{"label":"An-Najaylah","lat":"31.4071","lng":"26.5832"},{"label":"Ar Radīsīyah Qiblī","lat":"24.90652","lng":"32.88563"},{"label":"Ar Raḩmānīyah","lat":"31.10483","lng":"30.64135"},{"label":"Ar Riyāḑ","lat":"31.24193","lng":"30.94504"},{"label":"Ar-Rawḍah","lat":"31.32336","lng":"31.76122"},{"label":"Arīsh","lat":"31.13159","lng":"33.79844"},{"label":"Armant","lat":"25.61988","lng":"32.54305"},{"label":"Aş Şaff","lat":"29.56472","lng":"31.28111"},{"label":"As Sāḩil","lat":"27.06309","lng":"31.34425"},{"label":"Aş Şalāḩāt","lat":"31.00205","lng":"31.62626"},{"label":"Aş Şāliḩīyah al Jadīdah","lat":"30.63146","lng":"31.93927"},{"label":"As Sallūm","lat":"31.55371","lng":"25.15793"},{"label":"As Sanţah","lat":"30.74614","lng":"31.12964"},{"label":"As Sarw","lat":"31.23867","lng":"31.65379"},{"label":"As Sibā‘īyah","lat":"25.19413","lng":"32.6771"},{"label":"As Sinbillāwayn","lat":"30.88251","lng":"31.46275"},{"label":"Ash Shaykh Zuwayd","lat":"31.2163","lng":"34.11074"},{"label":"Ash Shuhadā’","lat":"30.59683","lng":"30.89931"},{"label":"Ash-Shaykh Zāyid","lat":"30.02","lng":"31"},{"label":"Ashmūn","lat":"30.29735","lng":"30.97641"},{"label":"Assiut","lat":"27.18096","lng":"31.18368"},{"label":"Aswān","lat":"24.09082","lng":"32.89942"},{"label":"At Tall al Kabīr","lat":"30.54323","lng":"31.78504"},{"label":"Aţ Ţārif","lat":"25.73826","lng":"32.63684"},{"label":"Aţfīḩ","lat":"29.4075","lng":"31.2525"},{"label":"Awlād Şaqr","lat":"30.93055","lng":"31.69864"},{"label":"Awsīm","lat":"30.12303","lng":"31.13571"},{"label":"Az Zarqā","lat":"31.20864","lng":"31.63528"},{"label":"Az Zaynīyah Qiblī","lat":"25.75089","lng":"32.6776"},{"label":"Badr","lat":"30.136","lng":"31.715"},{"label":"Badr","lat":"30.575","lng":"30.71111"},{"label":"Balţīm","lat":"31.55582","lng":"31.08918"},{"label":"Banhā","lat":"30.45977","lng":"31.1842"},{"label":"Banī ‘Ubayd","lat":"27.95243","lng":"30.78082"},{"label":"Banī Mazār","lat":"28.49456","lng":"30.80526"},{"label":"Banī Suwayf","lat":"29.07441","lng":"31.09785"},{"label":"Banī Suwayf al Jadīdah","lat":"29.033","lng":"31.11408"},{"label":"Basyūn","lat":"30.93976","lng":"30.81338"},{"label":"Bi’r al ‘Abd","lat":"31.01887","lng":"33.0098"},{"label":"Bibā","lat":"28.92406","lng":"30.98544"},{"label":"Bilbeis","lat":"30.42039","lng":"31.56223"},{"label":"Bilqās","lat":"31.21452","lng":"31.35798"},{"label":"Birkat as Sab‘","lat":"30.62914","lng":"31.08235"},{"label":"Biyalā","lat":"31.17419","lng":"31.2218"},{"label":"Burj al ‘Arab","lat":"30.90316","lng":"29.55276"},{"label":"Burj al ‘Arab al Jadīdah","lat":"30.88525","lng":"29.57721"},{"label":"Būsh","lat":"29.14816","lng":"31.12733"},{"label":"Cairo","lat":"30.06263","lng":"31.24967"},{"label":"Dahab","lat":"28.48208","lng":"34.49505"},{"label":"Damanhur","lat":"31.03408","lng":"30.46823"},{"label":"Damietta","lat":"31.41648","lng":"31.81332"},{"label":"Dār as Salām","lat":"26.27845","lng":"32.05608"},{"label":"Darāw","lat":"24.40796","lng":"32.92324"},{"label":"Dayr Mawās","lat":"27.64148","lng":"30.85012"},{"label":"Dayrūţ","lat":"27.55642","lng":"30.81057"},{"label":"Dikirnis","lat":"31.08898","lng":"31.59478"},{"label":"Dishnā","lat":"26.12242","lng":"32.46749"},{"label":"Disūq","lat":"31.13259","lng":"30.64784"},{"label":"Diyarb Najm","lat":"30.75438","lng":"31.44016"},{"label":"Dumyāţ al Jadīdah","lat":"31.43482","lng":"31.67506"},{"label":"Edfu","lat":"24.97916","lng":"32.87722"},{"label":"El Dabaa","lat":"31.02819","lng":"28.44498"},{"label":"El Gouna","lat":"27.39417","lng":"33.67825"},{"label":"El Shorouk","lat":"30.13806","lng":"31.61556"},{"label":"El-Tor","lat":"28.24168","lng":"33.6222"},{"label":"Esna","lat":"25.29336","lng":"32.55402"},{"label":"Fāqūs","lat":"30.72816","lng":"31.79697"},{"label":"Fāraskūr","lat":"31.32977","lng":"31.71507"},{"label":"Farshūţ","lat":"26.05501","lng":"32.16274"},{"label":"Fāyīd","lat":"30.31263","lng":"32.30935"},{"label":"Fuwwah","lat":"31.20365","lng":"30.54908"},{"label":"Girga","lat":"26.33721","lng":"31.89295"},{"label":"Giza","lat":"30.00944","lng":"31.20861"},{"label":"Ḩadā’iq al Qubbah","lat":"30.08843","lng":"31.28351"},{"label":"Ḩalwān","lat":"29.84144","lng":"31.30084"},{"label":"Ḩawsh ‘Īsá","lat":"30.9128","lng":"30.29019"},{"label":"Hihyā","lat":"30.6713","lng":"31.58801"},{"label":"Hurghada","lat":"27.25738","lng":"33.81291"},{"label":"Ibshawāy","lat":"29.35896","lng":"30.68061"},{"label":"Idkū","lat":"31.3073","lng":"30.2981"},{"label":"Ihnāsīyah","lat":"29.09285","lng":"31.02043"},{"label":"Ismailia","lat":"30.60427","lng":"32.27225"},{"label":"Ītāy al Bārūd","lat":"30.88697","lng":"30.66724"},{"label":"Iţsā","lat":"29.2376","lng":"30.78944"},{"label":"Jarājūs","lat":"25.87198","lng":"32.75585"},{"label":"Juhaynah","lat":"26.67418","lng":"31.49686"},{"label":"Kafr ad Dawwār","lat":"31.13379","lng":"30.12969"},{"label":"Kafr al Baţţīkh","lat":"31.40398","lng":"31.73778"},{"label":"Kafr al Kurdī","lat":"31.16844","lng":"31.7655"},{"label":"Kafr ash Shaykh","lat":"31.11174","lng":"30.93991"},{"label":"Kafr az Zayyāt","lat":"30.8248","lng":"30.81805"},{"label":"Kafr Sa‘d","lat":"31.35573","lng":"31.68484"},{"label":"Kafr Şaqr","lat":"30.79336","lng":"31.62575"},{"label":"Kafr Shukr","lat":"30.54972","lng":"31.24444"},{"label":"Kawm Ḩamādah","lat":"30.76128","lng":"30.69972"},{"label":"Kirdāsah","lat":"30.03103","lng":"31.11109"},{"label":"Kom Ombo","lat":"24.47669","lng":"32.94626"},{"label":"Luxor","lat":"25.69893","lng":"32.6421"},{"label":"Madīnat an Naşr","lat":"30.06667","lng":"31.3"},{"label":"Madīnat as Sādāt","lat":"30.36742","lng":"30.50871"},{"label":"Madīnat Wādī an Naţrūn","lat":"30.37746","lng":"30.35032"},{"label":"Maghāghah","lat":"28.64776","lng":"30.841"},{"label":"Maḩallat Damanah","lat":"31.07287","lng":"31.49503"},{"label":"Makadi Bay","lat":"26.99123","lng":"33.89952"},{"label":"Mallawī","lat":"27.73264","lng":"30.84129"},{"label":"Manfalūţ","lat":"27.3126","lng":"30.96987"},{"label":"Manshīyat al Qanāţir","lat":"30.18479","lng":"31.10649"},{"label":"Marsa Alam","lat":"25.06305","lng":"34.89005"},{"label":"Marsá Maţrūḩ","lat":"31.3529","lng":"27.23725"},{"label":"Mashtūl as Sūq","lat":"30.36056","lng":"31.3776"},{"label":"Maţāy","lat":"28.41866","lng":"30.77861"},{"label":"Minya","lat":"28.09193","lng":"30.75813"},{"label":"Minyā al Qamḩ","lat":"30.51552","lng":"31.34629"},{"label":"Minyat an Naşr","lat":"31.12624","lng":"31.64313"},{"label":"Mīt Abū Ghālib","lat":"31.28837","lng":"31.67719"},{"label":"Mīt Ghamr","lat":"30.71524","lng":"31.2592"},{"label":"Mīt Salsīl","lat":"31.16757","lng":"31.80125"},{"label":"Munsha‘at Abū ‘Umar","lat":"30.90711","lng":"32.02341"},{"label":"Munshāt ‘Alī Āghā","lat":"31.15791","lng":"30.70177"},{"label":"Munūf","lat":"30.46597","lng":"30.93199"},{"label":"Mūţ","lat":"25.48742","lng":"28.97918"},{"label":"Muţūbas","lat":"31.29443","lng":"30.52248"},{"label":"Nabarūh","lat":"31.09755","lng":"31.30312"},{"label":"Nag Hammâdi","lat":"26.04949","lng":"32.24142"},{"label":"Naqādah","lat":"25.90107","lng":"32.72392"},{"label":"New Cairo","lat":"30.03","lng":"31.47"},{"label":"Nuwaybi‘a","lat":"29.04681","lng":"34.6634"},{"label":"Port Said","lat":"31.26531","lng":"32.3019"},{"label":"Qahā","lat":"30.28011","lng":"31.20531"},{"label":"Qalyub","lat":"30.17922","lng":"31.2056"},{"label":"Qaşr al Farāfirah","lat":"27.0568","lng":"27.96979"},{"label":"Qifţ","lat":"25.99845","lng":"32.81808"},{"label":"Qillīn","lat":"31.0475","lng":"30.85487"},{"label":"Qina","lat":"26.16418","lng":"32.72671"},{"label":"Qūş","lat":"25.91544","lng":"32.76287"},{"label":"Quţūr","lat":"30.97225","lng":"30.95614"},{"label":"Quwaysinā","lat":"30.56482","lng":"31.15777"},{"label":"Rafaḩ","lat":"31.28204","lng":"34.23869"},{"label":"Râs el-Barr","lat":"31.51027","lng":"31.82851"},{"label":"Ras Gharib","lat":"28.35831","lng":"33.07829"},{"label":"Rosetta","lat":"31.39951","lng":"30.41718"},{"label":"Safaga","lat":"26.74906","lng":"33.93891"},{"label":"Saint Catherine","lat":"28.56191","lng":"33.94934"},{"label":"Samālūţ","lat":"28.31214","lng":"30.71007"},{"label":"Samannūd","lat":"30.9616","lng":"31.24069"},{"label":"Şān al Ḩajar al Qiblīyah","lat":"30.97478","lng":"31.87231"},{"label":"Sānt Kātrīnā","lat":"28.56199","lng":"33.95005"},{"label":"Sāqultah","lat":"26.65817","lng":"31.67137"},{"label":"Shalātīn","lat":"23.13905","lng":"35.59821"},{"label":"Sharm el-Sheikh","lat":"27.91582","lng":"34.32995"},{"label":"Shibīn al Kawm","lat":"30.55258","lng":"31.00904"},{"label":"Shibīn al Qanāţir","lat":"30.31269","lng":"31.32018"},{"label":"Shirbīn","lat":"31.19688","lng":"31.5243"},{"label":"Shubrā al Khaymah","lat":"30.12511","lng":"31.25053"},{"label":"Shubrākhīt","lat":"31.02795","lng":"30.71493"},{"label":"Şidfā","lat":"26.96637","lng":"31.37953"},{"label":"Sīdī Barānī","lat":"31.61166","lng":"25.92539"},{"label":"Sīdī Ghāzī","lat":"31.21114","lng":"31.05119"},{"label":"Sīdī Sālim","lat":"31.27133","lng":"30.78617"},{"label":"Sinnūris","lat":"29.41345","lng":"30.86579"},{"label":"Sirs al Layyānah","lat":"30.4428","lng":"30.96975"},{"label":"Sīwah","lat":"29.2032","lng":"25.51965"},{"label":"Sohag","lat":"26.55695","lng":"31.69478"},{"label":"Suez","lat":"29.97371","lng":"32.52627"},{"label":"Sumusţā al Waqf","lat":"28.92095","lng":"30.85367"},{"label":"Sumusţā as Sulţānī","lat":"28.91667","lng":"30.85"},{"label":"Ţahţā","lat":"26.76866","lng":"31.50198"},{"label":"Talā","lat":"30.6798","lng":"30.94364"},{"label":"Ţalkhā","lat":"31.0539","lng":"31.37787"},{"label":"Ţāmiyah","lat":"29.47639","lng":"30.96119"},{"label":"Tanta","lat":"30.78847","lng":"31.00192"},{"label":"Ţimā","lat":"26.90843","lng":"31.43469"},{"label":"Timayy al Imdīd","lat":"30.94384","lng":"31.52926"},{"label":"Ţūd","lat":"25.58278","lng":"32.5329"},{"label":"Ţūkh","lat":"30.35487","lng":"31.20105"},{"label":"Yūsuf aṣ-Ṣiddīq","lat":"29.385","lng":"30.557"},{"label":"Zagazig","lat":"30.58768","lng":"31.502"}]