[{"label":"Äänekoski","lat":"62.6","lng":"25.73333"},{"label":"Äetsä","lat":"61.29494","lng":"22.70459"},{"label":"Ähtäri","lat":"62.55403","lng":"24.06186"},{"label":"Akaa","lat":"61.16667","lng":"23.86667"},{"label":"Alahärmä","lat":"63.24831","lng":"22.85493"},{"label":"Alajärvi","lat":"63","lng":"23.81667"},{"label":"Älajärvi","lat":"63.00027","lng":"23.81586"},{"label":"Alastaro","lat":"60.95","lng":"22.85"},{"label":"Alavieska","lat":"64.16667","lng":"24.3"},{"label":"Alavus","lat":"62.58333","lng":"23.61667"},{"label":"Anjala","lat":"60.68333","lng":"26.83333"},{"label":"Artjärvi","lat":"60.74544","lng":"26.07084"},{"label":"Asikkala","lat":"61.21667","lng":"25.5"},{"label":"Askainen","lat":"60.56667","lng":"21.86667"},{"label":"Askola","lat":"60.53333","lng":"25.6"},{"label":"Aura","lat":"60.6471","lng":"22.58755"},{"label":"Auttoinen","lat":"61.29901","lng":"25.08887"},{"label":"Bennäs","lat":"63.6","lng":"22.8"},{"label":"Broby","lat":"60.5","lng":"26.71667"},{"label":"Dragsfjärd","lat":"60.06667","lng":"22.48333"},{"label":"East Helsinki","lat":"60.21043","lng":"25.08289"},{"label":"Ekenäs","lat":"59.97359","lng":"23.43389"},{"label":"Elimäki","lat":"60.71667","lng":"26.46667"},{"label":"Eno","lat":"62.80511","lng":"30.15422"},{"label":"Enonkoski","lat":"62.08333","lng":"28.93333"},{"label":"Enontekiö","lat":"68.38573","lng":"23.63215"},{"label":"Espoo","lat":"60.2052","lng":"24.6522"},{"label":"Eura","lat":"61.13333","lng":"22.13333"},{"label":"Eurajoki","lat":"61.2","lng":"21.73333"},{"label":"Evijärvi","lat":"63.36667","lng":"23.48333"},{"label":"Forssa","lat":"60.81462","lng":"23.62146"},{"label":"Gumböle","lat":"60.21948","lng":"24.61684"},{"label":"Haapajärvi","lat":"63.75","lng":"25.33333"},{"label":"Haapavesi","lat":"64.13333","lng":"25.36667"},{"label":"Hailuoto","lat":"65.009","lng":"24.71385"},{"label":"Halikko","lat":"60.4","lng":"23.08333"},{"label":"Halsua","lat":"63.46667","lng":"24.16667"},{"label":"Hämeenkoski","lat":"61.02222","lng":"25.15417"},{"label":"Hämeenkyrö","lat":"61.63913","lng":"23.19531"},{"label":"Hämeenlinna","lat":"60.99596","lng":"24.46434"},{"label":"Hamina","lat":"60.56974","lng":"27.19794"},{"label":"Hankasalmi","lat":"62.38333","lng":"26.43333"},{"label":"Hanko","lat":"59.83333","lng":"22.95"},{"label":"Harjavalta","lat":"61.31667","lng":"22.13333"},{"label":"Hartola","lat":"61.58333","lng":"26.01667"},{"label":"Hauho","lat":"61.17255","lng":"24.56303"},{"label":"Haukipudas","lat":"65.17654","lng":"25.35233"},{"label":"Haukivuori","lat":"62.01753","lng":"27.21906"},{"label":"Hausjärvi","lat":"60.78333","lng":"24.93333"},{"label":"Heinävesi","lat":"62.43333","lng":"28.6"},{"label":"Heinola","lat":"61.20564","lng":"26.03811"},{"label":"Helsinki","lat":"60.16952","lng":"24.93545"},{"label":"Hietalahti","lat":"63.0848","lng":"21.61716"},{"label":"Himanka","lat":"64.06218","lng":"23.65447"},{"label":"Hirvensalmi","lat":"61.63333","lng":"26.8"},{"label":"Hollola","lat":"61.05","lng":"25.43333"},{"label":"Hollola","lat":"61","lng":"25.5"},{"label":"Honkajoki","lat":"61.98333","lng":"22.26667"},{"label":"Houtskär","lat":"60.22284","lng":"21.37218"},{"label":"Huittinen","lat":"61.18333","lng":"22.7"},{"label":"Humppila","lat":"60.93333","lng":"23.36667"},{"label":"Hyrynsalmi","lat":"64.66667","lng":"28.53333"},{"label":"Hyvinge","lat":"60.63333","lng":"24.86667"},{"label":"Ii","lat":"65.31735","lng":"25.3731"},{"label":"Iisalmi","lat":"63.55915","lng":"27.19067"},{"label":"Iitti","lat":"60.89488","lng":"26.33869"},{"label":"Ikaalinen","lat":"61.76951","lng":"23.0658"},{"label":"Ilmajoki","lat":"62.73333","lng":"22.56667"},{"label":"Ilomantsi","lat":"62.67162","lng":"30.93276"},{"label":"Imatra","lat":"61.17185","lng":"28.75242"},{"label":"Inari","lat":"68.90596","lng":"27.02881"},{"label":"Ingå","lat":"60.04587","lng":"24.00459"},{"label":"Iniö","lat":"60.4","lng":"21.4"},{"label":"Isojoki","lat":"62.11319","lng":"21.95884"},{"label":"Isokyrö","lat":"63.01172","lng":"22.33332"},{"label":"Ivalo","lat":"68.65986","lng":"27.53891"},{"label":"Jaala","lat":"61.05251","lng":"26.48117"},{"label":"Jakobstad","lat":"63.67486","lng":"22.70256"},{"label":"Jalasjärvi","lat":"62.49018","lng":"22.75901"},{"label":"Jämijärvi","lat":"61.81667","lng":"22.7"},{"label":"Jämsä","lat":"61.8642","lng":"25.19002"},{"label":"Jämsänkoski","lat":"61.919","lng":"25.17011"},{"label":"Janakkala","lat":"60.9","lng":"24.6"},{"label":"Jäppilä","lat":"62.37899","lng":"27.43372"},{"label":"Järvelä","lat":"60.86667","lng":"25.28333"},{"label":"Järvenpää","lat":"60.47369","lng":"25.08992"},{"label":"Joensuu","lat":"62.60118","lng":"29.76316"},{"label":"Jokioinen","lat":"60.80162","lng":"23.48004"},{"label":"Joroinen","lat":"62.17823","lng":"27.83165"},{"label":"Joutsa","lat":"61.73333","lng":"26.11667"},{"label":"Joutseno","lat":"61.11796","lng":"28.50763"},{"label":"Juankoski","lat":"63.06667","lng":"28.35"},{"label":"Jurva","lat":"62.68333","lng":"21.98333"},{"label":"Juuka","lat":"63.23333","lng":"29.25"},{"label":"Juupajoki","lat":"61.79901","lng":"24.36939"},{"label":"Juva","lat":"61.9","lng":"27.85"},{"label":"Jyväskylä","lat":"62.24147","lng":"25.72088"},{"label":"Kaarela","lat":"60.25174","lng":"24.88111"},{"label":"Kaarina","lat":"60.40724","lng":"22.36904"},{"label":"Kaavi","lat":"62.98333","lng":"28.5"},{"label":"Kajaani","lat":"64.22728","lng":"27.72846"},{"label":"Kalajoki","lat":"64.25","lng":"23.95"},{"label":"Kållby","lat":"63.62542","lng":"22.89594"},{"label":"Kallio","lat":"60.18427","lng":"24.95034"},{"label":"Kälviä","lat":"63.86067","lng":"23.45289"},{"label":"Kalvola","lat":"61.10081","lng":"24.12177"},{"label":"Kangasala","lat":"61.46383","lng":"24.07602"},{"label":"Kangaslampi","lat":"62.29563","lng":"28.25289"},{"label":"Kangasniemi","lat":"61.99357","lng":"26.64785"},{"label":"Kankaanpää","lat":"61.8","lng":"22.41667"},{"label":"Kannonkoski","lat":"62.96667","lng":"25.25"},{"label":"Kannus","lat":"63.9","lng":"23.9"},{"label":"Karhula","lat":"60.52156","lng":"26.93125"},{"label":"Karijoki","lat":"62.30851","lng":"21.70856"},{"label":"Karinaisten Kirkonkylä","lat":"60.67089","lng":"22.77345"},{"label":"Karis","lat":"60.07178","lng":"23.66163"},{"label":"Karjalohja","lat":"60.24015","lng":"23.71789"},{"label":"Karkkila","lat":"60.53418","lng":"24.20977"},{"label":"Kärkölä","lat":"60.91667","lng":"25.25"},{"label":"Kärkölä","lat":"60.61292","lng":"23.94196"},{"label":"Kärsämäki","lat":"63.96667","lng":"25.76667"},{"label":"Karstula","lat":"62.86667","lng":"24.78333"},{"label":"Karttula","lat":"62.8963","lng":"26.97045"},{"label":"Karvia","lat":"62.2","lng":"22.65"},{"label":"Karvia","lat":"62.13333","lng":"22.56667"},{"label":"Kaskinen","lat":"62.38444","lng":"21.22331"},{"label":"Kauhajoki","lat":"62.43333","lng":"22.18333"},{"label":"Kauhava","lat":"63.10299","lng":"23.07129"},{"label":"Kauniainen","lat":"60.21209","lng":"24.72756"},{"label":"Kaustinen","lat":"63.54878","lng":"23.68845"},{"label":"Keitele","lat":"63.18333","lng":"26.36667"},{"label":"Kellokoski","lat":"60.53271","lng":"25.10917"},{"label":"Kemi","lat":"65.73641","lng":"24.56371"},{"label":"Kemijärvi","lat":"66.71309","lng":"27.43056"},{"label":"Keminmaa","lat":"65.80158","lng":"24.54483"},{"label":"Kempele","lat":"64.91314","lng":"25.50339"},{"label":"Kerava","lat":"60.40338","lng":"25.105"},{"label":"Kerimäki","lat":"61.91069","lng":"29.28228"},{"label":"Kesälahti","lat":"61.89752","lng":"29.83494"},{"label":"Kestilä","lat":"64.35002","lng":"26.27921"},{"label":"Keuruu","lat":"62.26667","lng":"24.7"},{"label":"Kihniö","lat":"62.2","lng":"23.18333"},{"label":"Kiihtelysvaara","lat":"62.49525","lng":"30.25081"},{"label":"Kiikala","lat":"60.46667","lng":"23.56667"},{"label":"Kiikoinen","lat":"61.45385","lng":"22.57699"},{"label":"Kiiminki","lat":"65.13139","lng":"25.79744"},{"label":"Kilo","lat":"60.21746","lng":"24.78151"},{"label":"Kimito","lat":"60.16047","lng":"22.729"},{"label":"Kinnula","lat":"63.38333","lng":"24.95"},{"label":"Kinnula","lat":"63.36667","lng":"24.96667"},{"label":"Kirkkonummi","lat":"60.12381","lng":"24.43853"},{"label":"Kisko","lat":"60.23333","lng":"23.48333"},{"label":"Kitee","lat":"62.1","lng":"30.15"},{"label":"Kittilä","lat":"67.66474","lng":"24.89356"},{"label":"Kiukainen","lat":"61.21667","lng":"22.08333"},{"label":"Kiuruvesi","lat":"63.65","lng":"26.61667"},{"label":"Kivijärvi","lat":"63.11984","lng":"25.07835"},{"label":"Klaukkala","lat":"60.38244","lng":"24.751"},{"label":"Kokemäki","lat":"61.25647","lng":"22.35643"},{"label":"Kokkola","lat":"63.83847","lng":"23.13066"},{"label":"Kolari","lat":"67.33047","lng":"23.77785"},{"label":"Konnevesi","lat":"62.61667","lng":"26.31667"},{"label":"Kontiolahti","lat":"62.76023","lng":"29.84711"},{"label":"Koria","lat":"60.84614","lng":"26.60755"},{"label":"Korpilahti","lat":"62.01667","lng":"25.55"},{"label":"Korsholm","lat":"63.11418","lng":"21.68216"},{"label":"Korsnäs","lat":"62.78333","lng":"21.2"},{"label":"Kortesjärvi","lat":"63.3","lng":"23.16667"},{"label":"Koski Tl","lat":"60.65","lng":"23.15"},{"label":"Kotka","lat":"60.4664","lng":"26.94582"},{"label":"Koukkuniemi","lat":"60.15261","lng":"24.76467"},{"label":"Kouvola","lat":"60.86667","lng":"26.7"},{"label":"Köyliö","lat":"61.1191","lng":"22.30976"},{"label":"Kristinestad","lat":"62.27429","lng":"21.37596"},{"label":"Kronoby","lat":"63.72859","lng":"23.03387"},{"label":"Kuhmalahden Kirkonkylä","lat":"61.5046","lng":"24.56048"},{"label":"Kuhmo","lat":"64.13333","lng":"29.51667"},{"label":"Kuhmoinen","lat":"61.56667","lng":"25.18333"},{"label":"Kuivaniemi","lat":"65.57847","lng":"25.18814"},{"label":"Kullaa","lat":"61.46998","lng":"22.16145"},{"label":"Kuopio","lat":"62.89238","lng":"27.67703"},{"label":"Kuortane","lat":"62.8","lng":"23.5"},{"label":"Kurikka","lat":"62.61667","lng":"22.41667"},{"label":"Kuru","lat":"61.87558","lng":"23.71948"},{"label":"Kustavi","lat":"60.54529","lng":"21.3588"},{"label":"Kuusamo","lat":"65.96447","lng":"29.18878"},{"label":"Kuusjoki","lat":"60.51667","lng":"23.2"},{"label":"Kylmäkoski","lat":"61.154","lng":"23.68858"},{"label":"Kyrö","lat":"60.7","lng":"22.75"},{"label":"Kyyjärvi","lat":"63.03333","lng":"24.56667"},{"label":"Lahti","lat":"60.98267","lng":"25.66151"},{"label":"Laihia","lat":"62.97609","lng":"22.01143"},{"label":"Laitila","lat":"60.87575","lng":"21.69765"},{"label":"Lammi","lat":"61.08333","lng":"25.01667"},{"label":"Längelmäki","lat":"61.65","lng":"22.1"},{"label":"Lapinjärvi","lat":"60.62443","lng":"26.1972"},{"label":"Lapinlahti","lat":"63.36667","lng":"27.4"},{"label":"Lappajärvi","lat":"63.2","lng":"23.63333"},{"label":"Lappeenranta","lat":"61.05871","lng":"28.18871"},{"label":"Lappi","lat":"61.1","lng":"21.83333"},{"label":"Lapua","lat":"62.96927","lng":"23.0088"},{"label":"Larsmo","lat":"63.75388","lng":"22.74728"},{"label":"Laukaa","lat":"62.41407","lng":"25.95194"},{"label":"Lauttasaari","lat":"60.15896","lng":"24.86797"},{"label":"Lavia","lat":"61.59659","lng":"22.58726"},{"label":"Leivonmäki","lat":"61.91198","lng":"26.12796"},{"label":"Lemi","lat":"61.06244","lng":"27.80571"},{"label":"Lempäälä","lat":"61.31667","lng":"23.75"},{"label":"Lemu","lat":"60.56667","lng":"21.96667"},{"label":"Leppävirta","lat":"62.49009","lng":"27.78262"},{"label":"Lestijärvi","lat":"63.53333","lng":"24.65"},{"label":"Lieksa","lat":"63.31667","lng":"30.01667"},{"label":"Lieto","lat":"60.51032","lng":"22.46176"},{"label":"Liljendal","lat":"60.57346","lng":"26.05257"},{"label":"Liminka","lat":"64.80985","lng":"25.41545"},{"label":"Liperi","lat":"62.53333","lng":"29.36667"},{"label":"Lohja","lat":"60.24859","lng":"24.06534"},{"label":"Lohtaja","lat":"64.02472","lng":"23.50482"},{"label":"Loimaa","lat":"60.84972","lng":"23.0561"},{"label":"Loppi","lat":"60.71667","lng":"24.45"},{"label":"Lovisa","lat":"60.45659","lng":"26.22505"},{"label":"Luhanka","lat":"61.79682","lng":"25.70457"},{"label":"Lumijoki","lat":"64.83744","lng":"25.18607"},{"label":"Luopioinen","lat":"61.36293","lng":"24.66781"},{"label":"Luumäki","lat":"60.92618","lng":"27.58135"},{"label":"Luvia","lat":"61.36375","lng":"21.62556"},{"label":"Maaninka","lat":"63.15523","lng":"27.29939"},{"label":"Malax","lat":"62.94225","lng":"21.57311"},{"label":"Mäntsälä","lat":"60.63333","lng":"25.31667"},{"label":"Mänttä","lat":"62.03014","lng":"24.62791"},{"label":"Mäntyharju","lat":"61.41667","lng":"26.88333"},{"label":"Marttila","lat":"60.58333","lng":"22.9"},{"label":"Masku","lat":"60.57082","lng":"22.09883"},{"label":"Mellilä","lat":"60.76667","lng":"22.95"},{"label":"Mellunkylä","lat":"60.23355","lng":"25.09947"},{"label":"Merijärvi","lat":"64.3","lng":"24.45"},{"label":"Merikarvia","lat":"61.85839","lng":"21.50035"},{"label":"Merimasku","lat":"60.48333","lng":"21.86667"},{"label":"Miehikkälä","lat":"60.66667","lng":"27.7"},{"label":"Mietoinen","lat":"60.63333","lng":"21.93333"},{"label":"Mikkeli","lat":"61.68857","lng":"27.27227"},{"label":"Monninkylä","lat":"60.49533","lng":"25.53979"},{"label":"Mouhijärvi","lat":"61.5","lng":"23.01667"},{"label":"Muhos","lat":"64.80798","lng":"25.99314"},{"label":"Muhos","lat":"64.76667","lng":"26.1"},{"label":"Multia","lat":"62.41667","lng":"24.78333"},{"label":"Munkkiniemi","lat":"60.19861","lng":"24.87772"},{"label":"Muonio","lat":"67.95546","lng":"23.68258"},{"label":"Muurame","lat":"62.13333","lng":"25.66667"},{"label":"Muurla","lat":"60.35","lng":"23.28333"},{"label":"Mynämäki","lat":"60.67915","lng":"21.99274"},{"label":"Myrskylä","lat":"60.66965","lng":"25.8475"},{"label":"Naantali","lat":"60.46744","lng":"22.02428"},{"label":"Nagu","lat":"60.19375","lng":"21.90972"},{"label":"Nakkila","lat":"61.36667","lng":"22"},{"label":"Närpes","lat":"62.47283","lng":"21.33707"},{"label":"Nastola","lat":"60.94797","lng":"25.92882"},{"label":"Nickby","lat":"60.38333","lng":"25.28333"},{"label":"Nilsiä","lat":"63.20746","lng":"28.08222"},{"label":"Nivala","lat":"63.91667","lng":"24.96667"},{"label":"Nokia","lat":"61.46667","lng":"23.5"},{"label":"Noormarkku","lat":"61.59274","lng":"21.86846"},{"label":"Nousiainen","lat":"60.60416","lng":"22.07926"},{"label":"Nuijamaa","lat":"60.96011","lng":"28.55104"},{"label":"Nurmes","lat":"63.54205","lng":"29.13965"},{"label":"Nurmijärven kirkonkylä","lat":"60.4596","lng":"24.80629"},{"label":"Nurmijärvi","lat":"60.46407","lng":"24.8073"},{"label":"Nykarleby","lat":"63.52277","lng":"22.53073"},{"label":"Oitti","lat":"60.78333","lng":"25.03333"},{"label":"Oravais","lat":"63.30135","lng":"22.37821"},{"label":"Orimattila","lat":"60.80487","lng":"25.72964"},{"label":"Oripää","lat":"60.85","lng":"22.68333"},{"label":"Orivesi","lat":"61.67766","lng":"24.3572"},{"label":"Otaniemi","lat":"60.18395","lng":"24.82786"},{"label":"Oulainen","lat":"64.26667","lng":"24.8"},{"label":"Oulu","lat":"65.01236","lng":"25.46816"},{"label":"Oulunsalo","lat":"64.93456","lng":"25.41121"},{"label":"Outokumpu","lat":"62.72685","lng":"29.01592"},{"label":"Padasjoki","lat":"61.35","lng":"25.28333"},{"label":"Paimio","lat":"60.45671","lng":"22.68694"},{"label":"Pälkäne","lat":"61.33424","lng":"24.27197"},{"label":"Paltamo","lat":"64.41667","lng":"27.83333"},{"label":"Pargas","lat":"60.30672","lng":"22.30097"},{"label":"Parikkala","lat":"61.55","lng":"29.5"},{"label":"Parkano","lat":"62.01667","lng":"23.01667"},{"label":"Parola","lat":"61.04624","lng":"24.35463"},{"label":"Pedersöre","lat":"63.65","lng":"22.68333"},{"label":"Pelkosenniemi","lat":"67.11083","lng":"27.51056"},{"label":"Pello","lat":"66.77364","lng":"23.96255"},{"label":"Perho","lat":"63.21667","lng":"24.41667"},{"label":"Pernå","lat":"60.44869","lng":"26.03187"},{"label":"Perniö","lat":"60.2","lng":"23.13333"},{"label":"Pertteli","lat":"60.43333","lng":"23.26667"},{"label":"Pertunmaa","lat":"61.5","lng":"26.48333"},{"label":"Petäjävesi","lat":"62.25","lng":"25.2"},{"label":"Pieksämäki","lat":"62.3","lng":"27.13333"},{"label":"Pielavesi","lat":"63.23333","lng":"26.75"},{"label":"Pihtipudas","lat":"63.38333","lng":"25.56667"},{"label":"Piikkiö","lat":"60.42481","lng":"22.51601"},{"label":"Piippola","lat":"64.16667","lng":"25.96667"},{"label":"Pirkkala","lat":"61.46125","lng":"23.63228"},{"label":"Pohja","lat":"60.09626","lng":"23.52757"},{"label":"Polvijärvi","lat":"62.85","lng":"29.36667"},{"label":"Pomarkku","lat":"61.69348","lng":"22.00862"},{"label":"Pori","lat":"61.48333","lng":"21.78333"},{"label":"Pornainen","lat":"60.47581","lng":"25.3749"},{"label":"Porvoo","lat":"60.39233","lng":"25.66507"},{"label":"Posio","lat":"66.10856","lng":"28.17186"},{"label":"Pöytyä","lat":"60.76667","lng":"22.66667"},{"label":"Pudasjärvi","lat":"65.38333","lng":"26.91667"},{"label":"Pukkila","lat":"60.644","lng":"25.5821"},{"label":"Pulkkila","lat":"64.26667","lng":"25.86667"},{"label":"Punkaharju","lat":"61.75883","lng":"29.38843"},{"label":"Punkalaidun","lat":"61.11667","lng":"23.1"},{"label":"Puolanka","lat":"64.86667","lng":"27.66667"},{"label":"Puumala","lat":"61.52728","lng":"28.17495"},{"label":"Pyhäjärvi","lat":"67.0701","lng":"27.21763"},{"label":"Pyhäjärvi","lat":"63.66667","lng":"25.9"},{"label":"Pyhäjoki","lat":"64.46667","lng":"24.23333"},{"label":"Pyhäntä","lat":"64.1","lng":"26.31667"},{"label":"Pyhäranta","lat":"60.95","lng":"21.45"},{"label":"Pyhäsalmi","lat":"63.68333","lng":"25.98333"},{"label":"Pyhäselkä","lat":"62.43333","lng":"29.96667"},{"label":"Pyhtää","lat":"60.49349","lng":"26.54346"},{"label":"Pylkönmäki","lat":"62.66667","lng":"24.8"},{"label":"Raahe","lat":"64.68333","lng":"24.48333"},{"label":"Rääkkylä","lat":"62.31667","lng":"29.61667"},{"label":"Raisio","lat":"60.48592","lng":"22.16895"},{"label":"Rantasalmi","lat":"62.06667","lng":"28.3"},{"label":"Rantsila","lat":"64.50613","lng":"25.66449"},{"label":"Ranua","lat":"65.91667","lng":"26.53333"},{"label":"Rauma","lat":"61.12724","lng":"21.51127"},{"label":"Rautalampi","lat":"62.63333","lng":"26.83333"},{"label":"Rautavaara","lat":"63.48333","lng":"28.3"},{"label":"Rautjärvi","lat":"61.43459","lng":"29.37151"},{"label":"Reisjärvi","lat":"63.61667","lng":"24.9"},{"label":"Renko","lat":"60.89563","lng":"24.28785"},{"label":"Replot","lat":"63.22882","lng":"21.41691"},{"label":"Riihimäki","lat":"60.73769","lng":"24.77726"},{"label":"Ristiina","lat":"61.50579","lng":"27.24643"},{"label":"Ristijärvi","lat":"64.5","lng":"28.21667"},{"label":"Ristinummi","lat":"63.09192","lng":"21.72297"},{"label":"Rovaniemi","lat":"66.5","lng":"25.71667"},{"label":"Röykkä","lat":"60.48767","lng":"24.64937"},{"label":"Ruokolahti","lat":"61.28333","lng":"28.83333"},{"label":"Ruotsinpyhtää","lat":"60.5268","lng":"26.46203"},{"label":"Ruovesi","lat":"61.98575","lng":"24.05714"},{"label":"Rusko","lat":"60.53333","lng":"22.21667"},{"label":"Ruukki","lat":"64.66667","lng":"25.1"},{"label":"Rymättylä","lat":"60.37658","lng":"21.94184"},{"label":"Saarenkylä","lat":"61.6494","lng":"29.75186"},{"label":"Saarijärvi","lat":"62.70486","lng":"25.25396"},{"label":"Sahalahti","lat":"61.4746","lng":"24.32652"},{"label":"Säkylä","lat":"61.03333","lng":"22.33333"},{"label":"Salla","lat":"66.83333","lng":"28.66667"},{"label":"Salo","lat":"60.38333","lng":"23.13333"},{"label":"Sammatti","lat":"60.31991","lng":"23.82085"},{"label":"Sandsund","lat":"63.64759","lng":"22.72977"},{"label":"Särkisalo","lat":"60.11389","lng":"22.95"},{"label":"Sastamala","lat":"61.34942","lng":"22.90928"},{"label":"Saukkola","lat":"60.38333","lng":"23.98333"},{"label":"Sauvo","lat":"60.34306","lng":"22.69642"},{"label":"Savitaipale","lat":"61.2","lng":"27.7"},{"label":"Savonlinna","lat":"61.8699","lng":"28.87999"},{"label":"Savonranta","lat":"62.18333","lng":"29.2"},{"label":"Savukoski","lat":"67.2925","lng":"28.15806"},{"label":"Säynätsalo","lat":"62.14025","lng":"25.76948"},{"label":"Seinäjoki","lat":"62.79446","lng":"22.82822"},{"label":"Sibbo","lat":"60.37752","lng":"25.26906"},{"label":"Sievi","lat":"63.9","lng":"24.5"},{"label":"Siikainen","lat":"61.87703","lng":"21.81945"},{"label":"Siikajoki","lat":"64.81455","lng":"24.75924"},{"label":"Siilinjärvi","lat":"63.08333","lng":"27.66667"},{"label":"Simo","lat":"65.66667","lng":"25.05"},{"label":"Simpele","lat":"61.43333","lng":"29.36667"},{"label":"Siuntio","lat":"60.13862","lng":"24.22715"},{"label":"Smedsby","lat":"63.11667","lng":"21.7"},{"label":"Sodankylä","lat":"67.41667","lng":"26.6"},{"label":"Soini","lat":"62.86667","lng":"24.21667"},{"label":"Somero","lat":"60.61667","lng":"23.53333"},{"label":"Sonkajärvi","lat":"63.66667","lng":"27.51667"},{"label":"Sotkamo","lat":"64.13333","lng":"28.41667"},{"label":"Sulkava","lat":"61.78691","lng":"28.37299"},{"label":"Sumiainen","lat":"62.65736","lng":"26.04642"},{"label":"Suodenniemi","lat":"61.5581","lng":"22.78526"},{"label":"Suolahti","lat":"62.56421","lng":"25.85363"},{"label":"Suomusjärvi","lat":"60.35","lng":"23.65"},{"label":"Suomussalmi","lat":"64.88685","lng":"28.90778"},{"label":"Suonenjoki","lat":"62.61667","lng":"27.13333"},{"label":"Sysmä","lat":"61.5","lng":"25.68333"},{"label":"Taavetti","lat":"60.91667","lng":"27.56667"},{"label":"Taipalsaari","lat":"61.15","lng":"28.05"},{"label":"Taivalkoski","lat":"65.56667","lng":"28.25"},{"label":"Taivassalo","lat":"60.56085","lng":"21.61639"},{"label":"Tammela","lat":"60.81035","lng":"23.76823"},{"label":"Tampere","lat":"61.49911","lng":"23.78712"},{"label":"Tarvasjoki","lat":"60.58333","lng":"22.73333"},{"label":"Teeriniemi","lat":"63.09705","lng":"21.6959"},{"label":"Tervakoski","lat":"60.81412","lng":"24.62594"},{"label":"Tervo","lat":"62.95","lng":"26.75"},{"label":"Tervola","lat":"66.08333","lng":"24.8"},{"label":"Teuva","lat":"62.4819","lng":"21.74156"},{"label":"Tohmajärvi","lat":"62.18333","lng":"30.38333"},{"label":"Toholampi","lat":"63.76667","lng":"24.25"},{"label":"Toijala","lat":"61.1678","lng":"23.83819"},{"label":"Toivakka","lat":"62.1","lng":"26.08333"},{"label":"Tornio","lat":"65.84811","lng":"24.14662"},{"label":"Töysä","lat":"62.62803","lng":"23.81828"},{"label":"Turenki","lat":"60.91667","lng":"24.63333"},{"label":"Turku","lat":"60.45148","lng":"22.26869"},{"label":"Tuulos","lat":"61.15","lng":"24.8"},{"label":"Tuupovaara","lat":"62.48372","lng":"30.62731"},{"label":"Tuusniemi","lat":"62.81667","lng":"28.5"},{"label":"Tuusula","lat":"60.40368","lng":"25.02638"},{"label":"Tyrnävä","lat":"64.76469","lng":"25.6523"},{"label":"Ullava","lat":"63.6","lng":"24.08333"},{"label":"Ulvila","lat":"61.42844","lng":"21.87103"},{"label":"Urjala","lat":"61.08333","lng":"23.53333"},{"label":"Utajärvi","lat":"64.7625","lng":"26.41944"},{"label":"Utsjoki","lat":"69.90864","lng":"27.02843"},{"label":"Uurainen","lat":"62.5","lng":"25.45"},{"label":"Uusikaupunki","lat":"60.80043","lng":"21.40841"},{"label":"Vaala","lat":"64.56667","lng":"26.83333"},{"label":"Vaasa","lat":"63.096","lng":"21.61577"},{"label":"Vähäkyrö","lat":"63.05635","lng":"22.10584"},{"label":"Vahto","lat":"60.6","lng":"22.3"},{"label":"Valkeakoski","lat":"61.26421","lng":"24.03122"},{"label":"Valtimo","lat":"63.66667","lng":"28.8"},{"label":"Vammala","lat":"61.33333","lng":"22.9"},{"label":"Vampula","lat":"61.01667","lng":"22.7"},{"label":"Vantaa","lat":"60.29414","lng":"25.04099"},{"label":"Varkaus","lat":"62.31533","lng":"27.873"},{"label":"Varpaisjärvi","lat":"63.35932","lng":"27.75506"},{"label":"Väståboland","lat":"60.29972","lng":"22.3004"},{"label":"Västanfjärd","lat":"60.05","lng":"22.68333"},{"label":"Vehmaa","lat":"60.68333","lng":"21.66667"},{"label":"Vehmersalmi","lat":"62.76101","lng":"28.02853"},{"label":"Veikkari","lat":"60.60965","lng":"24.81241"},{"label":"Velkua","lat":"60.46667","lng":"21.66667"},{"label":"Vesanto","lat":"62.93333","lng":"26.41667"},{"label":"Vesilahti","lat":"61.31667","lng":"23.61667"},{"label":"Veteli","lat":"63.47839","lng":"23.78285"},{"label":"Vieremä","lat":"63.75","lng":"27.01667"},{"label":"Vihanti","lat":"64.48472","lng":"24.99157"},{"label":"Vihti","lat":"60.41699","lng":"24.31965"},{"label":"Viiala","lat":"61.21023","lng":"23.76738"},{"label":"Viitasaari","lat":"63.06667","lng":"25.86667"},{"label":"Viljakkala","lat":"61.70601","lng":"23.26688"},{"label":"Vilppula","lat":"62.02121","lng":"24.50483"},{"label":"Vimpeli","lat":"63.16187","lng":"23.81922"},{"label":"Vinkkilä","lat":"60.68333","lng":"21.71667"},{"label":"Virojoki","lat":"60.5794","lng":"27.70354"},{"label":"Virolahti","lat":"60.51667","lng":"27.68306"},{"label":"Virrat","lat":"62.24759","lng":"23.78004"},{"label":"Virtasalmi","lat":"62.12695","lng":"27.46276"},{"label":"Vörå","lat":"63.13607","lng":"22.25223"},{"label":"Vuokatti","lat":"64.14466","lng":"28.28196"},{"label":"Vuolijoki","lat":"64.18538","lng":"26.99547"},{"label":"Vuores","lat":"61.431","lng":"23.81184"},{"label":"Vuosaari","lat":"60.20963","lng":"25.14195"},{"label":"Ylämaa","lat":"60.8","lng":"28"},{"label":"Yläne","lat":"60.88333","lng":"22.41667"},{"label":"Yli-Ii","lat":"65.37181","lng":"25.8458"},{"label":"Ylihärmä","lat":"63.15","lng":"22.78333"},{"label":"Ylikiiminki","lat":"65.08333","lng":"26.25"},{"label":"Ylitornio","lat":"66.30893","lng":"23.67734"},{"label":"Ylivieska","lat":"64.08333","lng":"24.55"},{"label":"Ylöjärvi","lat":"61.55632","lng":"23.59606"},{"label":"Ypäjä","lat":"60.8","lng":"23.28333"}]