[{"label":"Äänekoski","lat":"62.6","lng":"25.73333"},{"label":"Äetsä","lat":"61.29494","lng":"22.70459"},{"label":"Ähtäri","lat":"62.55403","lng":"24.06186"},{"label":"Akaa","lat":"61.16667","lng":"23.86667"},{"label":"Ala-Malmi","lat":"60.24818","lng":"25.01332"},{"label":"Ala-Pispala","lat":"61.50499","lng":"23.70314"},{"label":"Alahärmä","lat":"63.24831","lng":"22.85493"},{"label":"Alajärvi","lat":"63","lng":"23.81667"},{"label":"Älajärvi","lat":"63.00027","lng":"23.81586"},{"label":"Alakylä","lat":"61.05563","lng":"28.20506"},{"label":"Alastaro","lat":"60.95","lng":"22.85"},{"label":"Alavieska","lat":"64.16667","lng":"24.3"},{"label":"Alavus","lat":"62.58333","lng":"23.61667"},{"label":"Alppiharju","lat":"60.18909","lng":"24.94879"},{"label":"Alppikylä","lat":"60.26006","lng":"25.06943"},{"label":"Alppila","lat":"65.0364","lng":"25.45987"},{"label":"Alppila","lat":"60.18989","lng":"24.94293"},{"label":"Amuri","lat":"61.49957","lng":"23.74459"},{"label":"Amuri A","lat":"61.50094","lng":"23.74435"},{"label":"Amuri B","lat":"61.4989","lng":"23.74586"},{"label":"Anjala","lat":"60.68333","lng":"26.83333"},{"label":"Arabianranta","lat":"60.20727","lng":"24.97956"},{"label":"Artjärvi","lat":"60.74544","lng":"26.07084"},{"label":"Asikkala","lat":"61.21667","lng":"25.5"},{"label":"Askainen","lat":"60.56667","lng":"21.86667"},{"label":"Askisto","lat":"60.28141","lng":"24.78361"},{"label":"Askola","lat":"60.53333","lng":"25.6"},{"label":"Asola","lat":"60.32973","lng":"25.05108"},{"label":"Atala","lat":"61.50283","lng":"23.90685"},{"label":"Aura","lat":"60.6471","lng":"22.58755"},{"label":"Aurinkolahti","lat":"60.20332","lng":"25.1532"},{"label":"Auttoinen","lat":"61.29901","lng":"25.08887"},{"label":"Bennäs","lat":"63.6","lng":"22.8"},{"label":"Box","lat":"60.31048","lng":"25.40002"},{"label":"Broby","lat":"60.5","lng":"26.71667"},{"label":"Dragsfjärd","lat":"60.06667","lng":"22.48333"},{"label":"East Helsinki","lat":"60.21043","lng":"25.08289"},{"label":"Eira","lat":"60.15646","lng":"24.93704"},{"label":"Ekenäs","lat":"59.97359","lng":"23.43389"},{"label":"Elimäki","lat":"60.71667","lng":"26.46667"},{"label":"Eno","lat":"62.80511","lng":"30.15422"},{"label":"Enonkoski","lat":"62.08333","lng":"28.93333"},{"label":"Enontekiö","lat":"68.38573","lng":"23.63215"},{"label":"Epilä","lat":"61.50808","lng":"23.6679"},{"label":"Espoo","lat":"60.2052","lng":"24.6522"},{"label":"Espoon Keskus","lat":"60.20475","lng":"24.65233"},{"label":"Espoonlahden keskus","lat":"60.14972","lng":"24.65513"},{"label":"Espoonlahti","lat":"60.15054","lng":"24.65307"},{"label":"Etelä-Haaga","lat":"60.21347","lng":"24.89536"},{"label":"Etelä-Hervanta","lat":"61.44422","lng":"23.8565"},{"label":"Etelä-Kyttälä","lat":"61.49655","lng":"23.76914"},{"label":"Etu-Töölö","lat":"60.17298","lng":"24.92515"},{"label":"Eura","lat":"61.13333","lng":"22.13333"},{"label":"Eurajoki","lat":"61.2","lng":"21.73333"},{"label":"Evijärvi","lat":"63.36667","lng":"23.48333"},{"label":"Finlayson","lat":"61.50167","lng":"23.75341"},{"label":"Forssa","lat":"60.81462","lng":"23.62146"},{"label":"Grinddal","lat":"60.23348","lng":"24.98087"},{"label":"Grundbacka","lat":"60.28928","lng":"24.72653"},{"label":"Gumböle","lat":"60.21948","lng":"24.61684"},{"label":"Haaga","lat":"60.22132","lng":"24.89759"},{"label":"Haapajärvi","lat":"63.75","lng":"25.33333"},{"label":"Haapavesi","lat":"64.13333","lng":"25.36667"},{"label":"Hailuoto","lat":"65.009","lng":"24.71385"},{"label":"Hakali","lat":"61.07185","lng":"28.27579"},{"label":"Hakkila","lat":"60.29238","lng":"25.07346"},{"label":"Hakunila","lat":"60.27822","lng":"25.10342"},{"label":"Hakuninmaa","lat":"60.25357","lng":"24.89227"},{"label":"Halikko","lat":"60.4","lng":"23.08333"},{"label":"Hallila","lat":"61.4631","lng":"23.82939"},{"label":"Halsua","lat":"63.46667","lng":"24.16667"},{"label":"Hämeenkoski","lat":"61.02222","lng":"25.15417"},{"label":"Hämeenkylä","lat":"60.27124","lng":"24.80009"},{"label":"Hämeenkyrö","lat":"61.63913","lng":"23.19531"},{"label":"Hämeenlinna","lat":"60.99596","lng":"24.46434"},{"label":"Hämevaara","lat":"60.24842","lng":"24.80764"},{"label":"Hamina","lat":"60.56974","lng":"27.19794"},{"label":"Hankasalmi","lat":"62.38333","lng":"26.43333"},{"label":"Hanko","lat":"59.83333","lng":"22.95"},{"label":"Harapainen","lat":"61.05022","lng":"28.21104"},{"label":"Harjavalta","lat":"61.31667","lng":"22.13333"},{"label":"Hartola","lat":"61.58333","lng":"26.01667"},{"label":"Hatanpää","lat":"61.48293","lng":"23.76253"},{"label":"Hauho","lat":"61.17255","lng":"24.56303"},{"label":"Haukilahti","lat":"60.15889","lng":"24.77057"},{"label":"Haukiluoma","lat":"61.51848","lng":"23.60413"},{"label":"Haukipudas","lat":"65.17654","lng":"25.35233"},{"label":"Haukivuori","lat":"62.01753","lng":"27.21906"},{"label":"Hausjärvi","lat":"60.78333","lng":"24.93333"},{"label":"Havukoski","lat":"60.32155","lng":"25.07174"},{"label":"Heikinlaakso","lat":"60.26873","lng":"25.07379"},{"label":"Heikkilänkangas","lat":"64.96861","lng":"25.61425"},{"label":"Heinävesi","lat":"62.43333","lng":"28.6"},{"label":"Heinola","lat":"61.20564","lng":"26.03811"},{"label":"Helsinki","lat":"60.16952","lng":"24.93545"},{"label":"Henttaa","lat":"60.19027","lng":"24.72696"},{"label":"Hermanni","lat":"60.19439","lng":"24.97005"},{"label":"Herttoniemen yritysalue","lat":"60.19417","lng":"25.04303"},{"label":"Herttoniemenranta","lat":"60.19065","lng":"25.0369"},{"label":"Herttoniemi","lat":"60.19471","lng":"25.03535"},{"label":"Hervanta","lat":"61.44792","lng":"23.85301"},{"label":"Hervanta kaakko","lat":"61.44576","lng":"23.86724"},{"label":"Hervanta koillinen","lat":"61.45617","lng":"23.86104"},{"label":"Hervanta lounas","lat":"61.4402","lng":"23.84479"},{"label":"Hervanta luode","lat":"61.4507","lng":"23.83526"},{"label":"Hervantajärvi","lat":"61.43869","lng":"23.87318"},{"label":"Hevossalmi","lat":"60.1657","lng":"25.04655"},{"label":"Hiekkaharju","lat":"60.30357","lng":"25.04411"},{"label":"Hietalahti","lat":"63.0848","lng":"21.61716"},{"label":"Hiironen","lat":"64.98416","lng":"25.52246"},{"label":"Himanka","lat":"64.06218","lng":"23.65447"},{"label":"Hirvensalmi","lat":"61.63333","lng":"26.8"},{"label":"Hiukkavaara","lat":"65.01585","lng":"25.58402"},{"label":"Hollihaka","lat":"65.00779","lng":"25.45527"},{"label":"Hollola","lat":"61.05","lng":"25.43333"},{"label":"Hollola","lat":"61","lng":"25.5"},{"label":"Holvasti","lat":"61.48342","lng":"23.92754"},{"label":"Honkajoki","lat":"61.98333","lng":"22.26667"},{"label":"Houtskär","lat":"60.22284","lng":"21.37218"},{"label":"Höyhtyä","lat":"64.99565","lng":"25.49592"},{"label":"Huikas","lat":"61.4979","lng":"23.83835"},{"label":"Huittinen","lat":"61.18333","lng":"22.7"},{"label":"Humppila","lat":"60.93333","lng":"23.36667"},{"label":"Hyhky","lat":"61.50616","lng":"23.69133"},{"label":"Hyrynsalmi","lat":"64.66667","lng":"28.53333"},{"label":"Hyvinge","lat":"60.63333","lng":"24.86667"},{"label":"I kaupunginosa","lat":"60.45223","lng":"22.28303"},{"label":"Ii","lat":"65.31735","lng":"25.3731"},{"label":"III kaupunginosa","lat":"60.44404","lng":"22.26646"},{"label":"Iisalmi","lat":"63.55915","lng":"27.19067"},{"label":"Iitti","lat":"60.89488","lng":"26.33869"},{"label":"Ikaalinen","lat":"61.76951","lng":"23.0658"},{"label":"Ikuri","lat":"61.51132","lng":"23.59417"},{"label":"Ilmajoki","lat":"62.73333","lng":"22.56667"},{"label":"Ilola","lat":"60.32657","lng":"25.01295"},{"label":"Ilomantsi","lat":"62.67162","lng":"30.93276"},{"label":"Imatra","lat":"61.17185","lng":"28.75242"},{"label":"Inari","lat":"68.90596","lng":"27.02881"},{"label":"Ingå","lat":"60.04587","lng":"24.00459"},{"label":"Iniö","lat":"60.4","lng":"21.4"},{"label":"Intiö","lat":"65.01538","lng":"25.49871"},{"label":"Isojoki","lat":"62.11319","lng":"21.95884"},{"label":"Isokyrö","lat":"63.01172","lng":"22.33332"},{"label":"Itä-Hakkila","lat":"60.29243","lng":"25.11397"},{"label":"Itä-Pakila","lat":"60.24825","lng":"24.95811"},{"label":"Itä-Pasila","lat":"60.19884","lng":"24.94008"},{"label":"Itäkeskus","lat":"60.21015","lng":"25.08144"},{"label":"Ivalo","lat":"68.65986","lng":"27.53891"},{"label":"Jaala","lat":"61.05251","lng":"26.48117"},{"label":"Jääli","lat":"65.09296","lng":"25.68518"},{"label":"Jakobstad","lat":"63.67486","lng":"22.70256"},{"label":"Jakomäki","lat":"60.2594","lng":"25.07801"},{"label":"Jalasjärvi","lat":"62.49018","lng":"22.75901"},{"label":"Jämijärvi","lat":"61.81667","lng":"22.7"},{"label":"Jämsä","lat":"61.8642","lng":"25.19002"},{"label":"Jämsänkoski","lat":"61.919","lng":"25.17011"},{"label":"Janakkala","lat":"60.9","lng":"24.6"},{"label":"Jäppilä","lat":"62.37899","lng":"27.43372"},{"label":"Järvelä","lat":"60.86667","lng":"25.28333"},{"label":"Järvenpää","lat":"60.47369","lng":"25.08992"},{"label":"Järvenperä","lat":"60.24169","lng":"24.71357"},{"label":"Järvensivu","lat":"61.48912","lng":"23.80205"},{"label":"Jätkäsaari","lat":"60.15857","lng":"24.91691"},{"label":"Joensuu","lat":"62.60118","lng":"29.76316"},{"label":"Jokela","lat":"60.55413","lng":"24.96296"},{"label":"Jokiniemi","lat":"60.5665","lng":"26.45833"},{"label":"Jokiniemi","lat":"60.29826","lng":"25.05677"},{"label":"Jokioinen","lat":"60.80162","lng":"23.48004"},{"label":"Jokipohja","lat":"61.47858","lng":"23.80828"},{"label":"Jollas","lat":"60.1628","lng":"25.07361"},{"label":"Joroinen","lat":"62.17823","lng":"27.83165"},{"label":"Joutsa","lat":"61.73333","lng":"26.11667"},{"label":"Joutseno","lat":"61.11796","lng":"28.50763"},{"label":"Juankoski","lat":"63.06475","lng":"28.32917"},{"label":"Juhannuskylä","lat":"61.50239","lng":"23.76935"},{"label":"Jurva","lat":"62.68333","lng":"21.98333"},{"label":"Juuka","lat":"63.23333","lng":"29.25"},{"label":"Juupajoki","lat":"61.79901","lng":"24.36939"},{"label":"Juva","lat":"61.9","lng":"27.85"},{"label":"Jyväskylä","lat":"62.24147","lng":"25.72088"},{"label":"Kaakinmaa","lat":"61.49435","lng":"23.74786"},{"label":"Kaakkuri","lat":"64.96038","lng":"25.53049"},{"label":"Kaarela","lat":"60.25174","lng":"24.88111"},{"label":"Kaarila","lat":"61.5028","lng":"23.65708"},{"label":"Kaarina","lat":"60.40724","lng":"22.36904"},{"label":"Kaartinkaupunki","lat":"60.16501","lng":"24.94692"},{"label":"Kaavi","lat":"62.98333","lng":"28.5"},{"label":"Kaijonharju","lat":"65.0599","lng":"25.48047"},{"label":"Kaitaa","lat":"60.14556","lng":"24.68705"},{"label":"Kaivoksela","lat":"60.26767","lng":"24.86871"},{"label":"Kajaani","lat":"64.22728","lng":"27.72846"},{"label":"Kalajärvi","lat":"60.30476","lng":"24.73718"},{"label":"Kalajoki","lat":"64.25","lng":"23.95"},{"label":"Kalasatama","lat":"60.18515","lng":"24.97934"},{"label":"Kaleva","lat":"61.49834","lng":"23.80543"},{"label":"Kalevanharju","lat":"61.49348","lng":"23.78477"},{"label":"Kalevanrinne","lat":"61.49334","lng":"23.81034"},{"label":"Kalkku","lat":"61.49609","lng":"23.57964"},{"label":"Kallahti","lat":"60.19289","lng":"25.13682"},{"label":"Kållby","lat":"63.62542","lng":"22.89594"},{"label":"Kallio","lat":"60.18427","lng":"24.95034"},{"label":"Kälviä","lat":"63.86067","lng":"23.45289"},{"label":"Kalvola","lat":"61.10081","lng":"24.12177"},{"label":"Kämmenniemi","lat":"61.62982","lng":"23.83724"},{"label":"Kamppi","lat":"60.1676","lng":"24.93038"},{"label":"Kangasala","lat":"61.46383","lng":"24.07602"},{"label":"Kangaslampi","lat":"62.29563","lng":"28.25289"},{"label":"Kangasniemi","lat":"61.99357","lng":"26.64785"},{"label":"Kankaanpää","lat":"61.8","lng":"22.41667"},{"label":"Kannelmäki","lat":"60.24181","lng":"24.88575"},{"label":"Kannonkoski","lat":"62.96667","lng":"25.25"},{"label":"Kannus","lat":"63.9","lng":"23.9"},{"label":"Käpylä","lat":"60.21287","lng":"24.94822"},{"label":"Karakallio","lat":"60.23254","lng":"24.76083"},{"label":"Karhula","lat":"60.52156","lng":"26.93125"},{"label":"Karhusuo","lat":"60.22767","lng":"24.62337"},{"label":"Karhuvuori","lat":"61.04443","lng":"28.24405"},{"label":"Karijoki","lat":"62.30851","lng":"21.70856"},{"label":"Karinaisten Kirkonkylä","lat":"60.67089","lng":"22.77345"},{"label":"Karis","lat":"60.07178","lng":"23.66163"},{"label":"Karjalohja","lat":"60.24015","lng":"23.71789"},{"label":"Karjasilta","lat":"64.99906","lng":"25.49051"},{"label":"Karkkila","lat":"60.53418","lng":"24.20977"},{"label":"Kärkölä","lat":"60.91667","lng":"25.25"},{"label":"Kärkölä","lat":"60.61292","lng":"23.94196"},{"label":"Kärsämäki","lat":"63.96667","lng":"25.76667"},{"label":"Karstula","lat":"62.86667","lng":"24.78333"},{"label":"Karttula","lat":"62.8963","lng":"26.97045"},{"label":"Karvia","lat":"62.2","lng":"22.65"},{"label":"Karvia","lat":"62.13333","lng":"22.56667"},{"label":"Kaskinen","lat":"62.38444","lng":"21.22331"},{"label":"Katajanokka","lat":"60.16587","lng":"24.97133"},{"label":"Kauhajoki","lat":"62.43333","lng":"22.18333"},{"label":"Kauhava","lat":"63.10299","lng":"23.07129"},{"label":"Kaukajärvi","lat":"61.46752","lng":"23.88493"},{"label":"Kauklahti","lat":"60.19274","lng":"24.60045"},{"label":"Kaukovainio","lat":"64.99206","lng":"25.518"},{"label":"Kauniainen","lat":"60.21209","lng":"24.72756"},{"label":"Kaupunginkallio","lat":"60.19847","lng":"24.64722"},{"label":"Kaustinen","lat":"63.54878","lng":"23.68845"},{"label":"Keimola","lat":"60.33833","lng":"24.8164"},{"label":"Keitele","lat":"63.18333","lng":"26.36667"},{"label":"Kello","lat":"65.1285","lng":"25.3567"},{"label":"Kellokoski","lat":"60.53271","lng":"25.10917"},{"label":"Kemi","lat":"65.73641","lng":"24.56371"},{"label":"Kemijärvi","lat":"66.71309","lng":"27.43056"},{"label":"Keminmaa","lat":"65.80158","lng":"24.54483"},{"label":"Kempele","lat":"64.91314","lng":"25.50339"},{"label":"Kerava","lat":"60.40338","lng":"25.105"},{"label":"Kerimäki","lat":"61.91069","lng":"29.28228"},{"label":"Kesälahti","lat":"61.89752","lng":"29.83494"},{"label":"Kestilä","lat":"64.35002","lng":"26.27921"},{"label":"Keuruu","lat":"62.26667","lng":"24.7"},{"label":"Kihniö","lat":"62.2","lng":"23.18333"},{"label":"Kiihtelysvaara","lat":"62.49525","lng":"30.25081"},{"label":"Kiikala","lat":"60.46667","lng":"23.56667"},{"label":"Kiikoinen","lat":"61.45385","lng":"22.57699"},{"label":"Kiiminki","lat":"65.13139","lng":"25.79744"},{"label":"Kilo","lat":"60.21746","lng":"24.78151"},{"label":"Kimito","lat":"60.16047","lng":"22.729"},{"label":"Kimpinen","lat":"61.06318","lng":"28.19997"},{"label":"Kinnula","lat":"63.38333","lng":"24.95"},{"label":"Kinnula","lat":"63.36667","lng":"24.96667"},{"label":"Kirkkonummi","lat":"60.12381","lng":"24.43853"},{"label":"Kisko","lat":"60.23333","lng":"23.48333"},{"label":"Kissanmaa","lat":"61.49976","lng":"23.81612"},{"label":"Kitee","lat":"62.1","lng":"30.15"},{"label":"Kittilä","lat":"67.66474","lng":"24.89356"},{"label":"Kiukainen","lat":"61.21667","lng":"22.08333"},{"label":"Kiuruvesi","lat":"63.65","lng":"26.61667"},{"label":"Kivenlahti","lat":"60.15372","lng":"24.63264"},{"label":"Kivijärvi","lat":"63.11984","lng":"25.07835"},{"label":"Kivikko","lat":"60.23483","lng":"25.06016"},{"label":"Kiviniemi","lat":"64.96795","lng":"25.50016"},{"label":"Kivisalmi","lat":"61.09058","lng":"28.14551"},{"label":"Kivistö","lat":"60.32572","lng":"24.83839"},{"label":"Klaukkala","lat":"60.38244","lng":"24.751"},{"label":"Koivistonkylä","lat":"61.47084","lng":"23.79141"},{"label":"Koivuhaka","lat":"60.29836","lng":"25.00379"},{"label":"Koivukylä","lat":"60.32236","lng":"25.05861"},{"label":"Kokemäki","lat":"61.25647","lng":"22.35643"},{"label":"Kokkola","lat":"63.83847","lng":"23.13066"},{"label":"Kolari","lat":"67.33047","lng":"23.77785"},{"label":"Konala","lat":"60.23713","lng":"24.84489"},{"label":"Konepaja","lat":"60.1938","lng":"24.94491"},{"label":"Konnevesi","lat":"62.61667","lng":"26.31667"},{"label":"Kontiolahti","lat":"62.76023","lng":"29.84711"},{"label":"Kontula","lat":"60.23764","lng":"25.08393"},{"label":"Koria","lat":"60.84614","lng":"26.60755"},{"label":"Korkinmäki","lat":"61.47239","lng":"23.82719"},{"label":"Korpilahti","lat":"62.01667","lng":"25.55"},{"label":"Korsholm","lat":"63.11418","lng":"21.68216"},{"label":"Korsnäs","lat":"62.78333","lng":"21.2"},{"label":"Korso","lat":"60.35107","lng":"25.07805"},{"label":"Kortesjärvi","lat":"63.3","lng":"23.16667"},{"label":"Korvenkylä","lat":"61.18113","lng":"28.70036"},{"label":"Korvensuora","lat":"65.03897","lng":"25.57686"},{"label":"Koskela","lat":"60.21846","lng":"24.96677"},{"label":"Koskela","lat":"65.04509","lng":"25.44528"},{"label":"Koski Tl","lat":"60.65","lng":"23.15"},{"label":"Kotka","lat":"60.4664","lng":"26.94582"},{"label":"Kotkavuori","lat":"60.1631","lng":"24.88414"},{"label":"Koukkuniemi","lat":"60.15261","lng":"24.76467"},{"label":"Kourula","lat":"61.04628","lng":"28.13069"},{"label":"Kouvola","lat":"60.86667","lng":"26.7"},{"label":"Köyliö","lat":"61.1191","lng":"22.30976"},{"label":"Kristinestad","lat":"62.27429","lng":"21.37596"},{"label":"Kronoby","lat":"63.72859","lng":"23.03387"},{"label":"Kruununhaka","lat":"60.17174","lng":"24.9566"},{"label":"Kruunuvuorenranta","lat":"60.16721","lng":"25.01891"},{"label":"Kuhmalahden Kirkonkylä","lat":"61.5046","lng":"24.56048"},{"label":"Kuhmo","lat":"64.13333","lng":"29.51667"},{"label":"Kuhmoinen","lat":"61.56667","lng":"25.18333"},{"label":"Kuivaniemi","lat":"65.57847","lng":"25.18814"},{"label":"Kuivasjärvi","lat":"65.06978","lng":"25.49695"},{"label":"Kullaa","lat":"61.46998","lng":"22.16145"},{"label":"Kulosaari","lat":"60.18572","lng":"25.00516"},{"label":"Kumpula","lat":"60.20942","lng":"24.96424"},{"label":"Kuninkaala","lat":"60.28481","lng":"25.04557"},{"label":"Kuninkaantammi","lat":"60.26091","lng":"24.8894"},{"label":"Kuopio","lat":"62.89238","lng":"27.67703"},{"label":"Kuortane","lat":"62.8","lng":"23.5"},{"label":"Kurikka","lat":"62.61667","lng":"22.41667"},{"label":"Kurkimäki","lat":"60.23325","lng":"25.06745"},{"label":"Kurttila","lat":"60.17806","lng":"24.60311"},{"label":"Kuru","lat":"61.87558","lng":"23.71948"},{"label":"Kustavi","lat":"60.54529","lng":"21.3588"},{"label":"Kuurinniitty","lat":"60.19778","lng":"24.70039"},{"label":"Kuusamo","lat":"65.96447","lng":"29.18878"},{"label":"Kuusimäki","lat":"61.05029","lng":"28.14033"},{"label":"Kuusjoki","lat":"60.51667","lng":"23.2"},{"label":"Kylmäkoski","lat":"61.154","lng":"23.68858"},{"label":"Kylpylä","lat":"61.05983","lng":"28.19081"},{"label":"Kynsilehto","lat":"65.03037","lng":"25.53919"},{"label":"Kyrö","lat":"60.7","lng":"22.75"},{"label":"Kyttälä","lat":"61.49841","lng":"23.76942"},{"label":"Kyyjärvi","lat":"63.03333","lng":"24.56667"},{"label":"Laajalahti","lat":"60.20076","lng":"24.80352"},{"label":"Laajasalo","lat":"60.17521","lng":"25.03086"},{"label":"Laakso","lat":"60.19219","lng":"24.91364"},{"label":"Laaksolahti","lat":"60.24164","lng":"24.75855"},{"label":"Laanila","lat":"65.02383","lng":"25.50785"},{"label":"Lahti","lat":"60.98267","lng":"25.66151"},{"label":"Laihia","lat":"62.97609","lng":"22.01143"},{"label":"Laihia","lat":"61.0864","lng":"28.32284"},{"label":"Laitila","lat":"60.87575","lng":"21.69765"},{"label":"Lammi","lat":"61.08333","lng":"25.01667"},{"label":"Lamminpää","lat":"61.51963","lng":"23.62618"},{"label":"Längelmäki","lat":"61.65","lng":"22.1"},{"label":"Länsi-Herttoniemi","lat":"60.20744","lng":"25.03981"},{"label":"Länsi-Pakila","lat":"60.24152","lng":"24.92695"},{"label":"Länsi-Pasila","lat":"60.19863","lng":"24.92309"},{"label":"Länsimäki","lat":"60.24633","lng":"25.11775"},{"label":"Länsiranta","lat":"60.43923","lng":"22.23581"},{"label":"Länsisatama","lat":"60.15525","lng":"24.91473"},{"label":"Lapinjärvi","lat":"60.62443","lng":"26.1972"},{"label":"Lapinkylä","lat":"60.22192","lng":"24.45485"},{"label":"Lapinlahti","lat":"63.36667","lng":"27.4"},{"label":"Lapinniemi","lat":"61.51252","lng":"23.77667"},{"label":"Lappajärvi","lat":"63.2","lng":"23.63333"},{"label":"Lappeenranta","lat":"61.05871","lng":"28.18871"},{"label":"Lappi","lat":"61.1","lng":"21.83333"},{"label":"Lapua","lat":"62.96927","lng":"23.0088"},{"label":"Larsmo","lat":"63.75388","lng":"22.74728"},{"label":"Lassila","lat":"60.23189","lng":"24.87734"},{"label":"Latokartano","lat":"60.22624","lng":"25.02692"},{"label":"Latokaski","lat":"60.17785","lng":"24.65813"},{"label":"Laukaa","lat":"62.41407","lng":"25.95194"},{"label":"Laurinlahti","lat":"60.14564","lng":"24.64307"},{"label":"Lauritsala","lat":"61.07191","lng":"28.25915"},{"label":"Lautiosaari","lat":"65.79912","lng":"24.57968"},{"label":"Lauttasaari","lat":"60.15896","lng":"24.86797"},{"label":"Lavia","lat":"61.59659","lng":"22.58726"},{"label":"Lehtisaari","lat":"60.17972","lng":"24.85167"},{"label":"Leinola","lat":"61.48617","lng":"23.90093"},{"label":"Leiri","lat":"61.05583","lng":"28.17787"},{"label":"Leivonmäki","lat":"61.91198","lng":"26.12796"},{"label":"Lemi","lat":"61.06244","lng":"27.80571"},{"label":"Lempäälä","lat":"61.31667","lng":"23.75"},{"label":"Lemu","lat":"60.56667","lng":"21.96667"},{"label":"Lentävänniemi","lat":"61.52801","lng":"23.70575"},{"label":"Leppäkorpi","lat":"60.36266","lng":"25.09346"},{"label":"Leppävaara","lat":"60.21283","lng":"24.81348"},{"label":"Leppävirta","lat":"62.49009","lng":"27.78262"},{"label":"Lestijärvi","lat":"63.53333","lng":"24.65"},{"label":"Leveri","lat":"65.00431","lng":"25.46467"},{"label":"Lidmalmen","lat":"60.26801","lng":"24.99878"},{"label":"Lieksa","lat":"63.31667","lng":"30.01667"},{"label":"Lieto","lat":"60.51032","lng":"22.46176"},{"label":"Liisankallio","lat":"61.4991","lng":"23.7923"},{"label":"Liljendal","lat":"60.57346","lng":"26.05257"},{"label":"Limingantulli","lat":"64.99598","lng":"25.46452"},{"label":"Liminka","lat":"64.80985","lng":"25.41545"},{"label":"Linjat","lat":"60.18331","lng":"24.9465"},{"label":"Linnainmaa","lat":"61.49502","lng":"23.88617"},{"label":"Linnanmaa","lat":"65.05559","lng":"25.46639"},{"label":"Linnoitus","lat":"61.06647","lng":"28.18225"},{"label":"Lintulampi","lat":"61.52696","lng":"23.6706"},{"label":"Lintuvaara","lat":"60.2344","lng":"24.81348"},{"label":"Liperi","lat":"62.53333","lng":"29.36667"},{"label":"Lippajärvi","lat":"60.23052","lng":"24.71623"},{"label":"Lohja","lat":"60.24859","lng":"24.06534"},{"label":"Lohtaja","lat":"64.02472","lng":"23.50482"},{"label":"Loimaa","lat":"60.84972","lng":"23.0561"},{"label":"Loppi","lat":"60.71667","lng":"24.45"},{"label":"Lovisa","lat":"60.45659","lng":"26.22505"},{"label":"Luhanka","lat":"61.79682","lng":"25.70457"},{"label":"Lukonmäki","lat":"61.46873","lng":"23.84583"},{"label":"Lumijoki","lat":"64.83744","lng":"25.18607"},{"label":"Luopioinen","lat":"61.36293","lng":"24.66781"},{"label":"Luumäki","lat":"60.92618","lng":"27.58135"},{"label":"Luvia","lat":"61.36375","lng":"21.62556"},{"label":"Maaninka","lat":"63.15523","lng":"27.29939"},{"label":"Maikkula","lat":"64.98357","lng":"25.5686"},{"label":"Malax","lat":"62.94225","lng":"21.57311"},{"label":"Malmin lentokenttä","lat":"60.25131","lng":"25.04402"},{"label":"Malminkartano","lat":"60.24739","lng":"24.86163"},{"label":"Mankkaa","lat":"60.19424","lng":"24.76996"},{"label":"Mäntsälä","lat":"60.63333","lng":"25.31667"},{"label":"Mänttä","lat":"62.03014","lng":"24.62791"},{"label":"Mäntyharju","lat":"61.41667","lng":"26.88333"},{"label":"Mäntylä","lat":"64.98228","lng":"25.49665"},{"label":"Marjaniemi","lat":"60.2018","lng":"25.08275"},{"label":"Martinlaakso","lat":"60.27409","lng":"24.85065"},{"label":"Martinniemi","lat":"65.21241","lng":"25.30941"},{"label":"Martti","lat":"60.44164","lng":"22.25444"},{"label":"Marttila","lat":"60.58333","lng":"22.9"},{"label":"Masku","lat":"60.57082","lng":"22.09883"},{"label":"Matari","lat":"60.3394","lng":"25.08865"},{"label":"Matinkylä","lat":"60.15885","lng":"24.74241"},{"label":"Maunula","lat":"60.22873","lng":"24.93081"},{"label":"Maununneva","lat":"60.25028","lng":"24.90595"},{"label":"Meilahti","lat":"60.18982","lng":"24.89717"},{"label":"Mellilä","lat":"60.76667","lng":"22.95"},{"label":"Mellunkylä","lat":"60.23355","lng":"25.09947"},{"label":"Mellunmäki","lat":"60.23751","lng":"25.11552"},{"label":"Meri-Rastila","lat":"60.19972","lng":"25.11857"},{"label":"Merijärvi","lat":"64.3","lng":"24.45"},{"label":"Merikarvia","lat":"61.85839","lng":"21.50035"},{"label":"Merimasku","lat":"60.48333","lng":"21.86667"},{"label":"Metsälä","lat":"60.22298","lng":"24.94034"},{"label":"Metsola","lat":"60.34848","lng":"25.09003"},{"label":"Miehikkälä","lat":"60.66667","lng":"27.7"},{"label":"Mietoinen","lat":"60.63333","lng":"21.93333"},{"label":"Mikkeli","lat":"61.68857","lng":"27.27227"},{"label":"Mikkola","lat":"60.34075","lng":"25.09981"},{"label":"Monninkylä","lat":"60.49533","lng":"25.53979"},{"label":"Mouhijärvi","lat":"61.5","lng":"23.01667"},{"label":"Muhos","lat":"64.80798","lng":"25.99314"},{"label":"Muhos","lat":"64.76667","lng":"26.1"},{"label":"Multia","lat":"62.41667","lng":"24.78333"},{"label":"Multisilta","lat":"61.43829","lng":"23.75143"},{"label":"Munkkiniemi","lat":"60.19861","lng":"24.87772"},{"label":"Munkkisaari","lat":"60.157","lng":"24.92792"},{"label":"Munkkivuori","lat":"60.2058","lng":"24.87597"},{"label":"Muonio","lat":"67.95546","lng":"23.68258"},{"label":"Muotiala","lat":"61.47732","lng":"23.81992"},{"label":"Muurala","lat":"60.2127","lng":"24.64251"},{"label":"Muurame","lat":"62.13333","lng":"25.66667"},{"label":"Muurla","lat":"60.35","lng":"23.28333"},{"label":"Myllymäki","lat":"60.9616","lng":"28.0304"},{"label":"Myllyoja","lat":"65.01908","lng":"25.55286"},{"label":"Myllypuro","lat":"60.22207","lng":"25.06741"},{"label":"Myllytulli","lat":"65.01578","lng":"25.48313"},{"label":"Mynämäki","lat":"60.67915","lng":"21.99274"},{"label":"Myrskylä","lat":"60.66965","lng":"25.8475"},{"label":"Myyrmäki","lat":"60.26711","lng":"24.84713"},{"label":"Naantali","lat":"60.46744","lng":"22.02428"},{"label":"Nagu","lat":"60.19375","lng":"21.90972"},{"label":"Nakkila","lat":"61.36667","lng":"22"},{"label":"Nalkala","lat":"61.4951","lng":"23.75802"},{"label":"Närpes","lat":"62.47283","lng":"21.33707"},{"label":"Nastola","lat":"60.94797","lng":"25.92882"},{"label":"Nekala","lat":"61.48417","lng":"23.79296"},{"label":"Nickby","lat":"60.38333","lng":"25.28333"},{"label":"Niemenmäki","lat":"60.204","lng":"24.88481"},{"label":"Niemenranta","lat":"61.5217","lng":"23.68926"},{"label":"Niemi","lat":"61.5272","lng":"23.68841"},{"label":"Niipperi","lat":"60.28647","lng":"24.73967"},{"label":"Niittykumpu","lat":"60.17093","lng":"24.76421"},{"label":"Nikinmäki","lat":"60.34071","lng":"25.13878"},{"label":"Nilsiä","lat":"63.20746","lng":"28.08222"},{"label":"Nivala","lat":"63.91667","lng":"24.96667"},{"label":"Nivavaara","lat":"66.53333","lng":"25.83333"},{"label":"Nokia","lat":"61.46667","lng":"23.5"},{"label":"Noormarkku","lat":"61.59274","lng":"21.86846"},{"label":"Nousiainen","lat":"60.60416","lng":"22.07926"},{"label":"Nöykkiö","lat":"60.16073","lng":"24.66808"},{"label":"Nuijamaa","lat":"60.96011","lng":"28.55104"},{"label":"Nurmes","lat":"63.54205","lng":"29.13965"},{"label":"Nurmijärven kirkonkylä","lat":"60.4596","lng":"24.80629"},{"label":"Nurmijärvi","lat":"60.46407","lng":"24.8073"},{"label":"Nykarleby","lat":"63.52277","lng":"22.53073"},{"label":"Oitti","lat":"60.78333","lng":"25.03333"},{"label":"Ojakkala","lat":"60.36881","lng":"24.38425"},{"label":"Olari","lat":"60.17239","lng":"24.72713"},{"label":"Olkahinen","lat":"61.52526","lng":"23.94325"},{"label":"Oravais","lat":"63.30135","lng":"22.37821"},{"label":"Orimattila","lat":"60.80487","lng":"25.72964"},{"label":"Oripää","lat":"60.85","lng":"22.68333"},{"label":"Orivesi","lat":"61.67766","lng":"24.3572"},{"label":"Osmonmäki","lat":"61.50557","lng":"23.77937"},{"label":"Otaniemi","lat":"60.18395","lng":"24.82786"},{"label":"Oulainen","lat":"64.26667","lng":"24.8"},{"label":"Oulu","lat":"65.01236","lng":"25.46816"},{"label":"Oulunkylä","lat":"60.22924","lng":"24.96403"},{"label":"Oulunsalo","lat":"64.93456","lng":"25.41121"},{"label":"Oulunsuu","lat":"65.0086","lng":"25.52759"},{"label":"Outokumpu","lat":"62.72685","lng":"29.01592"},{"label":"Padasjoki","lat":"61.35","lng":"25.28333"},{"label":"Paimio","lat":"60.45671","lng":"22.68694"},{"label":"Päiväkumpu","lat":"60.32727","lng":"25.10479"},{"label":"Pajamäki","lat":"60.21779","lng":"24.85872"},{"label":"Pakila","lat":"60.24327","lng":"24.94867"},{"label":"Pakkala","lat":"60.28613","lng":"24.95733"},{"label":"Pälkäne","lat":"61.33424","lng":"24.27197"},{"label":"Pallo","lat":"61.0651","lng":"28.16809"},{"label":"Paloheinä","lat":"60.25361","lng":"24.92832"},{"label":"Paltamo","lat":"64.41667","lng":"27.83333"},{"label":"Pappila","lat":"61.49609","lng":"23.86908"},{"label":"Pargas","lat":"60.30672","lng":"22.30097"},{"label":"Parikkala","lat":"61.55","lng":"29.5"},{"label":"Parkano","lat":"62.01667","lng":"23.01667"},{"label":"Parola","lat":"61.04624","lng":"24.35463"},{"label":"Pasila","lat":"60.19897","lng":"24.93218"},{"label":"Pateniemi","lat":"65.07936","lng":"25.40889"},{"label":"Patola","lat":"60.23265","lng":"24.95373"},{"label":"Pedersöre","lat":"63.65","lng":"22.68333"},{"label":"Pelkosenniemi","lat":"67.11083","lng":"27.51056"},{"label":"Pello","lat":"66.77364","lng":"23.96255"},{"label":"Peltola","lat":"65.01324","lng":"25.51437"},{"label":"Peltola","lat":"61.05471","lng":"28.19457"},{"label":"Peltolammi","lat":"61.45352","lng":"23.74771"},{"label":"Perho","lat":"63.21667","lng":"24.41667"},{"label":"Pernå","lat":"60.44869","lng":"26.03187"},{"label":"Perniö","lat":"60.2","lng":"23.13333"},{"label":"Pertteli","lat":"60.43333","lng":"23.26667"},{"label":"Pertunmaa","lat":"61.5","lng":"26.48333"},{"label":"Petäjävesi","lat":"62.25","lng":"25.2"},{"label":"Petsamo","lat":"61.50722","lng":"23.79656"},{"label":"Pieksämäki","lat":"62.3","lng":"27.13333"},{"label":"Pielavesi","lat":"63.23333","lng":"26.75"},{"label":"Pihlajamäki","lat":"60.23593","lng":"25.01132"},{"label":"Pihlajisto","lat":"60.23102","lng":"25.00134"},{"label":"Pihtipudas","lat":"63.38333","lng":"25.56667"},{"label":"Piikkiö","lat":"60.42481","lng":"22.51601"},{"label":"Piippola","lat":"64.16667","lng":"25.96667"},{"label":"Pikku-Huopalahti","lat":"60.20499","lng":"24.89545"},{"label":"Pirkkala","lat":"61.46125","lng":"23.63228"},{"label":"Pispala","lat":"61.50434","lng":"23.7083"},{"label":"Pitäjänmäen yritysalue","lat":"60.2216","lng":"24.87232"},{"label":"Pitäjänmäki","lat":"60.22287","lng":"24.86103"},{"label":"Pohja","lat":"60.09626","lng":"23.52757"},{"label":"Pohjois-Haaga","lat":"60.22694","lng":"24.89605"},{"label":"Pohjois-Hervanta","lat":"61.45347","lng":"23.84744"},{"label":"Pohjois-Kyttälä","lat":"61.50011","lng":"23.7686"},{"label":"Pohjois-Tapiola","lat":"60.18694","lng":"24.797"},{"label":"Pohtola","lat":"61.5373","lng":"23.67579"},{"label":"Pokkinen","lat":"65.01306","lng":"25.47253"},{"label":"Polvijärvi","lat":"62.85","lng":"29.36667"},{"label":"Pomarkku","lat":"61.69348","lng":"22.00862"},{"label":"Pori","lat":"61.48333","lng":"21.78333"},{"label":"Pornainen","lat":"60.47581","lng":"25.3749"},{"label":"Port Arthur","lat":"60.44736","lng":"22.24247"},{"label":"Porvoo","lat":"60.39233","lng":"25.66507"},{"label":"Posio","lat":"66.10856","lng":"28.17186"},{"label":"Pöytyä","lat":"60.76667","lng":"22.66667"},{"label":"Pudasjärvi","lat":"65.38333","lng":"26.91667"},{"label":"Puistola","lat":"60.27115","lng":"25.04703"},{"label":"Pukinmäki","lat":"60.2448","lng":"24.989"},{"label":"Pukkila","lat":"60.644","lng":"25.5821"},{"label":"Pulkkila","lat":"64.26667","lng":"25.86667"},{"label":"Punavuori","lat":"60.16137","lng":"24.93673"},{"label":"Punkaharju","lat":"61.75883","lng":"29.38843"},{"label":"Punkalaidun","lat":"61.11667","lng":"23.1"},{"label":"Puolanka","lat":"64.86667","lng":"27.66667"},{"label":"Puolivälinkangas","lat":"65.04162","lng":"25.48493"},{"label":"Puotila","lat":"60.21165","lng":"25.10829"},{"label":"Puotinharju","lat":"60.21283","lng":"25.0787"},{"label":"Puumala","lat":"61.52728","lng":"28.17495"},{"label":"Pyhäjärvi","lat":"67.0701","lng":"27.21763"},{"label":"Pyhäjärvi","lat":"63.68125","lng":"25.9812"},{"label":"Pyhäjoki","lat":"64.46667","lng":"24.23333"},{"label":"Pyhäntä","lat":"64.1","lng":"26.31667"},{"label":"Pyhäranta","lat":"60.95","lng":"21.45"},{"label":"Pyhäsalmi","lat":"63.68333","lng":"25.98333"},{"label":"Pyhäselkä","lat":"62.43333","lng":"29.96667"},{"label":"Pyhtää","lat":"60.49349","lng":"26.54346"},{"label":"Pylkönmäki","lat":"62.66667","lng":"24.8"},{"label":"Pyykösjärvi","lat":"65.04256","lng":"25.49583"},{"label":"Pyynikinrinne","lat":"61.49641","lng":"23.74145"},{"label":"Raahe","lat":"64.68333","lng":"24.48333"},{"label":"Rääkkylä","lat":"62.31667","lng":"29.61667"},{"label":"Rahola","lat":"61.49805","lng":"23.63863"},{"label":"Raisio","lat":"60.48592","lng":"22.16895"},{"label":"Rajakylä","lat":"60.24952","lng":"25.09586"},{"label":"Rajakylä","lat":"65.06553","lng":"25.42116"},{"label":"Raksila","lat":"65.00904","lng":"25.49326"},{"label":"Rantaperkiö","lat":"61.47033","lng":"23.75559"},{"label":"Rantasalmi","lat":"62.06667","lng":"28.3"},{"label":"Rantsila","lat":"64.50613","lng":"25.66449"},{"label":"Ranua","lat":"65.91667","lng":"26.53333"},{"label":"Rastila","lat":"60.2103","lng":"25.1182"},{"label":"Ratina","lat":"61.49319","lng":"23.7651"},{"label":"Rauma","lat":"61.12724","lng":"21.51127"},{"label":"Rautalampi","lat":"62.63333","lng":"26.83333"},{"label":"Rautavaara","lat":"63.48333","lng":"28.3"},{"label":"Rautjärvi","lat":"61.43459","lng":"29.37151"},{"label":"Reimarla","lat":"60.2279","lng":"24.85262"},{"label":"Reisjärvi","lat":"63.61667","lng":"24.9"},{"label":"Rekola","lat":"60.33086","lng":"25.0732"},{"label":"Renko","lat":"60.89563","lng":"24.28785"},{"label":"Replot","lat":"63.22882","lng":"21.41691"},{"label":"Riihimäki","lat":"60.73769","lng":"24.77726"},{"label":"Ristiina","lat":"61.50579","lng":"27.24643"},{"label":"Ristijärvi","lat":"64.5","lng":"28.21667"},{"label":"Ristimäki","lat":"61.50377","lng":"23.64187"},{"label":"Ristinarkku","lat":"61.48986","lng":"23.8496"},{"label":"Ristinummi","lat":"63.09192","lng":"21.72297"},{"label":"Roihuvuori","lat":"60.20174","lng":"25.06007"},{"label":"Rovaniemi","lat":"66.5","lng":"25.71667"},{"label":"Röykkä","lat":"60.48767","lng":"24.64937"},{"label":"Ruoholahti","lat":"60.1628","lng":"24.91592"},{"label":"Ruokolahti","lat":"61.28333","lng":"28.83333"},{"label":"Ruotsinpyhtää","lat":"60.5268","lng":"26.46203"},{"label":"Ruotula","lat":"61.50239","lng":"23.83698"},{"label":"Ruovesi","lat":"61.98575","lng":"24.05714"},{"label":"Ruskeasanta","lat":"60.31263","lng":"25.00857"},{"label":"Ruskeasuo","lat":"60.20093","lng":"24.90523"},{"label":"Rusko","lat":"60.53333","lng":"22.21667"},{"label":"Ruukki","lat":"64.66667","lng":"25.1"},{"label":"Rymättylä","lat":"60.37658","lng":"21.94184"},{"label":"Ryydynpohja","lat":"61.52703","lng":"23.6576"},{"label":"Saarenkylä","lat":"61.6494","lng":"29.75186"},{"label":"Saarenkylä","lat":"66.51923","lng":"25.7674"},{"label":"Saarijärvi","lat":"62.70486","lng":"25.25396"},{"label":"Sahalahti","lat":"61.4746","lng":"24.32652"},{"label":"Säkylä","lat":"61.03333","lng":"22.33333"},{"label":"Salla","lat":"66.83333","lng":"28.66667"},{"label":"Salo","lat":"60.38333","lng":"23.13333"},{"label":"Sammatti","lat":"60.31991","lng":"23.82085"},{"label":"Sammonlahti","lat":"61.0493","lng":"28.12135"},{"label":"Samppalinna","lat":"60.44492","lng":"22.27018"},{"label":"Sandsund","lat":"63.64759","lng":"22.72977"},{"label":"Santalahti","lat":"61.50717","lng":"23.71345"},{"label":"Särkisalo","lat":"60.11389","lng":"22.95"},{"label":"Sastamala","lat":"61.34942","lng":"22.90928"},{"label":"Saukkola","lat":"60.38333","lng":"23.98333"},{"label":"Saunalahti","lat":"60.16312","lng":"24.62012"},{"label":"Sauvo","lat":"60.34306","lng":"22.69642"},{"label":"Savitaipale","lat":"61.2","lng":"27.7"},{"label":"Savonlinna","lat":"61.8699","lng":"28.87999"},{"label":"Savonranta","lat":"62.18333","lng":"29.2"},{"label":"Savukoski","lat":"67.2925","lng":"28.15806"},{"label":"Säynätsalo","lat":"62.14025","lng":"25.76948"},{"label":"Seinäjoki","lat":"62.79446","lng":"22.82822"},{"label":"Sepänkylä","lat":"60.20443","lng":"24.73366"},{"label":"Sibbo","lat":"60.37752","lng":"25.26906"},{"label":"Sievi","lat":"63.9","lng":"24.5"},{"label":"Siikainen","lat":"61.87703","lng":"21.81945"},{"label":"Siikajoki","lat":"64.81455","lng":"24.75924"},{"label":"Siikajoki","lat":"64.66435","lng":"25.09939"},{"label":"Siilinjärvi","lat":"63.08333","lng":"27.66667"},{"label":"Siltamäki","lat":"60.27815","lng":"24.98335"},{"label":"Simo","lat":"65.66667","lng":"25.05"},{"label":"Simonkylä","lat":"60.30995","lng":"25.03012"},{"label":"Simpele","lat":"61.43333","lng":"29.36667"},{"label":"Siuntio","lat":"60.13862","lng":"24.22715"},{"label":"Skinnarila","lat":"61.0637","lng":"28.10057"},{"label":"Smedsby","lat":"63.11667","lng":"21.7"},{"label":"Sodankylä","lat":"67.41667","lng":"26.6"},{"label":"Soini","lat":"62.86667","lng":"24.21667"},{"label":"Somero","lat":"60.61667","lng":"23.53333"},{"label":"Sonkajärvi","lat":"63.66667","lng":"27.51667"},{"label":"Sörnäinen","lat":"60.18643","lng":"24.96506"},{"label":"Sotkamo","lat":"64.13333","lng":"28.41667"},{"label":"Soukka","lat":"60.14155","lng":"24.67134"},{"label":"Sulkava","lat":"61.78691","lng":"28.37299"},{"label":"Sumiainen","lat":"62.65736","lng":"26.04642"},{"label":"Suodenniemi","lat":"61.5581","lng":"22.78526"},{"label":"Suolahti","lat":"62.56421","lng":"25.85363"},{"label":"Suomusjärvi","lat":"60.35","lng":"23.65"},{"label":"Suomussalmi","lat":"64.88685","lng":"28.90778"},{"label":"Suonenjoki","lat":"62.61667","lng":"27.13333"},{"label":"Suurmetsä","lat":"60.26961","lng":"25.05395"},{"label":"Suutarila","lat":"60.27996","lng":"25.01759"},{"label":"Sysmä","lat":"61.5","lng":"25.68333"},{"label":"Taavetti","lat":"60.91667","lng":"27.56667"},{"label":"Taipalsaari","lat":"61.15","lng":"28.05"},{"label":"Taivalkoski","lat":"65.56667","lng":"28.25"},{"label":"Taivassalo","lat":"60.56085","lng":"21.61639"},{"label":"Taka-Töölö","lat":"60.18434","lng":"24.91948"},{"label":"Takahuhti","lat":"61.49721","lng":"23.85423"},{"label":"Talinranta","lat":"60.20737","lng":"24.85652"},{"label":"Talvikangas","lat":"65.042","lng":"25.59695"},{"label":"Tammela","lat":"60.81035","lng":"23.76823"},{"label":"Tammela","lat":"61.50232","lng":"23.77961"},{"label":"Tammela A","lat":"61.50388","lng":"23.77963"},{"label":"Tammela B","lat":"61.50034","lng":"23.77968"},{"label":"Tammerkoski","lat":"61.49914","lng":"23.75661"},{"label":"Tammisalo","lat":"60.19226","lng":"25.06671"},{"label":"Tammisto","lat":"60.27429","lng":"24.95888"},{"label":"Tampella","lat":"61.50366","lng":"23.76592"},{"label":"Tampere","lat":"61.49911","lng":"23.78712"},{"label":"Tapanila","lat":"60.26456","lng":"25.02157"},{"label":"Tapaninkylä","lat":"60.2638","lng":"24.99556"},{"label":"Tapaninvainio","lat":"60.25995","lng":"24.98242"},{"label":"Tapiola","lat":"60.17636","lng":"24.8085"},{"label":"Tapulikaupunki","lat":"60.27519","lng":"25.02163"},{"label":"Tarvasjoki","lat":"60.58333","lng":"22.73333"},{"label":"Tasanne","lat":"61.51845","lng":"23.92676"},{"label":"Taskila","lat":"65.05295","lng":"25.43086"},{"label":"Teeriniemi","lat":"63.09705","lng":"21.6959"},{"label":"Tervakoski","lat":"60.81412","lng":"24.62594"},{"label":"Tervo","lat":"62.95","lng":"26.75"},{"label":"Tervola","lat":"66.08333","lng":"24.8"},{"label":"Tesomajärvi","lat":"61.50664","lng":"23.61792"},{"label":"Teuva","lat":"62.4819","lng":"21.74156"},{"label":"Tikkurila","lat":"60.29349","lng":"25.03758"},{"label":"Tirilä","lat":"61.05766","lng":"28.2443"},{"label":"Tohloppi","lat":"61.51086","lng":"23.62805"},{"label":"Tohmajärvi","lat":"62.18333","lng":"30.38333"},{"label":"Toholampi","lat":"63.76667","lng":"24.25"},{"label":"Toijala","lat":"61.1678","lng":"23.83819"},{"label":"Toivakka","lat":"62.1","lng":"26.08333"},{"label":"Toppila","lat":"65.03843","lng":"25.44331"},{"label":"Tornio","lat":"65.84811","lng":"24.14662"},{"label":"Torpparinmäki","lat":"60.26109","lng":"24.95229"},{"label":"Toukola","lat":"60.20639","lng":"24.97124"},{"label":"Töysä","lat":"62.62803","lng":"23.81828"},{"label":"Tuira","lat":"65.02607","lng":"25.47064"},{"label":"Tulli","lat":"61.49704","lng":"23.7798"},{"label":"Tullisaari","lat":"60.17989","lng":"25.03552"},{"label":"Tuomarinkylä","lat":"60.25659","lng":"24.9672"},{"label":"Turenki","lat":"60.91667","lng":"24.63333"},{"label":"Turku","lat":"60.45148","lng":"22.26869"},{"label":"Turun satama","lat":"60.4352","lng":"22.2229"},{"label":"Tuulos","lat":"61.15","lng":"24.8"},{"label":"Tuupovaara","lat":"62.48372","lng":"30.62731"},{"label":"Tuusniemi","lat":"62.81667","lng":"28.5"},{"label":"Tuusula","lat":"60.40368","lng":"25.02638"},{"label":"Tykki","lat":"61.04888","lng":"28.18691"},{"label":"Tyrnävä","lat":"64.76469","lng":"25.6523"},{"label":"Ullanlinna","lat":"60.15753","lng":"24.94892"},{"label":"Ullava","lat":"63.6","lng":"24.08333"},{"label":"Ulvila","lat":"61.42844","lng":"21.87103"},{"label":"Uppby","lat":"60.1767","lng":"25.05358"},{"label":"Urheilupuisto","lat":"60.44267","lng":"22.26326"},{"label":"Urjala","lat":"61.08333","lng":"23.53333"},{"label":"Utajärvi","lat":"64.7625","lng":"26.41944"},{"label":"Utsjoki","lat":"69.90864","lng":"27.02843"},{"label":"Uurainen","lat":"62.5","lng":"25.45"},{"label":"Uus-Lavola","lat":"61.04258","lng":"28.102"},{"label":"Uusikaupunki","lat":"60.80043","lng":"21.40841"},{"label":"Uusikylä","lat":"61.49544","lng":"23.82888"},{"label":"Vaala","lat":"64.56667","lng":"26.83333"},{"label":"Vaara","lat":"65.01063","lng":"25.48248"},{"label":"Vaarala","lat":"60.26226","lng":"25.09303"},{"label":"Vaasa","lat":"63.096","lng":"21.61577"},{"label":"Vähäkyrö","lat":"63.05635","lng":"22.10584"},{"label":"Vahto","lat":"60.6","lng":"22.3"},{"label":"Välivainio","lat":"65.03354","lng":"25.47815"},{"label":"Valkeakoski","lat":"61.26421","lng":"24.03122"},{"label":"Vallila","lat":"60.19453","lng":"24.95712"},{"label":"Vallinoja","lat":"60.36554","lng":"25.07371"},{"label":"Valtimo","lat":"63.66667","lng":"28.8"},{"label":"Vammala","lat":"61.33333","lng":"22.9"},{"label":"Vampula","lat":"61.01667","lng":"22.7"},{"label":"Vanha munkkiniemi","lat":"60.19801","lng":"24.87604"},{"label":"Vanha Ruskeasuo","lat":"60.20247","lng":"24.90648"},{"label":"Vanha-Mankkaa","lat":"60.19112","lng":"24.77589"},{"label":"Vanha-Nuuksio-Nupuri","lat":"60.24084","lng":"24.59855"},{"label":"Vanhakartano","lat":"60.25936","lng":"24.73649"},{"label":"Vanhatulli","lat":"65.00806","lng":"25.4693"},{"label":"Vantaa","lat":"60.29414","lng":"25.04099"},{"label":"Vantaanlaakso","lat":"60.29002","lng":"24.87762"},{"label":"Vanttila","lat":"60.18653","lng":"24.62054"},{"label":"Vapaala","lat":"60.26285","lng":"24.82515"},{"label":"Varisto","lat":"60.26983","lng":"24.81751"},{"label":"Varkaus","lat":"62.31533","lng":"27.873"},{"label":"Varpaisjärvi","lat":"63.35932","lng":"27.75506"},{"label":"Vartioharju","lat":"60.224","lng":"25.11037"},{"label":"Vartiokylä","lat":"60.21799","lng":"25.09569"},{"label":"Vartiovuori","lat":"60.44668","lng":"22.27761"},{"label":"Värttö","lat":"65.01816","lng":"25.51738"},{"label":"Väståboland","lat":"60.29972","lng":"22.3004"},{"label":"Västanfjärd","lat":"60.05","lng":"22.68333"},{"label":"Vattuniemi","lat":"60.15031","lng":"24.88248"},{"label":"Vehmaa","lat":"60.68333","lng":"21.66667"},{"label":"Vehmainen","lat":"61.47674","lng":"23.91827"},{"label":"Vehmersalmi","lat":"62.76101","lng":"28.02853"},{"label":"Veikkari","lat":"60.60965","lng":"24.81241"},{"label":"Veisu","lat":"61.46995","lng":"23.80908"},{"label":"Velkua","lat":"60.46667","lng":"21.66667"},{"label":"Veräjämäki","lat":"60.22745","lng":"24.97484"},{"label":"Veromies","lat":"60.29842","lng":"24.96343"},{"label":"Vesala","lat":"60.23998","lng":"25.10307"},{"label":"Vesanto","lat":"62.93333","lng":"26.41667"},{"label":"Vesilahti","lat":"61.31667","lng":"23.61667"},{"label":"Veteli","lat":"63.47839","lng":"23.78285"},{"label":"VI kaupunginosa","lat":"60.45486","lng":"22.27043"},{"label":"Vieremä","lat":"63.75","lng":"27.01667"},{"label":"Viertola","lat":"60.29139","lng":"25.01009"},{"label":"Vierumäki","lat":"60.35918","lng":"25.03741"},{"label":"Vihanti","lat":"64.48472","lng":"24.99157"},{"label":"Viherlaakso","lat":"60.22877","lng":"24.74078"},{"label":"Vihti","lat":"60.41699","lng":"24.31965"},{"label":"VII kaupunginosa","lat":"60.45073","lng":"22.25917"},{"label":"Viiala","lat":"61.21023","lng":"23.76738"},{"label":"Viiala","lat":"61.47631","lng":"23.85641"},{"label":"Viikin Tiedepuisto","lat":"60.22498","lng":"25.01408"},{"label":"Viikinranta","lat":"60.21894","lng":"24.98728"},{"label":"Viikki","lat":"60.22183","lng":"25.02386"},{"label":"Viinikka","lat":"61.48793","lng":"23.78214"},{"label":"Viitasaari","lat":"63.06667","lng":"25.86667"},{"label":"Viljakkala","lat":"61.70601","lng":"23.26688"},{"label":"Villilä","lat":"61.4942","lng":"23.61563"},{"label":"Vilppula","lat":"62.02121","lng":"24.50483"},{"label":"Vimpeli","lat":"63.16187","lng":"23.81922"},{"label":"Vinkkilä","lat":"60.68333","lng":"21.71667"},{"label":"Virojoki","lat":"60.5794","lng":"27.70354"},{"label":"Virolahti","lat":"60.51667","lng":"27.68306"},{"label":"Virrat","lat":"62.24759","lng":"23.78004"},{"label":"Virtasalmi","lat":"62.12695","lng":"27.46276"},{"label":"Voisalmi","lat":"61.08179","lng":"28.15023"},{"label":"Vörå","lat":"63.13607","lng":"22.25223"},{"label":"Vuokatti","lat":"64.14466","lng":"28.28196"},{"label":"Vuolijoki","lat":"64.18538","lng":"26.99547"},{"label":"Vuores","lat":"61.431","lng":"23.81184"},{"label":"Vuosaari","lat":"60.20963","lng":"25.14195"},{"label":"Westend","lat":"60.16378","lng":"24.79842"},{"label":"Ylä-Malmi","lat":"60.25425","lng":"25.00858"},{"label":"Ylä-Pispala","lat":"61.50152","lng":"23.71763"},{"label":"Ylämaa","lat":"60.8","lng":"28"},{"label":"Yläne","lat":"60.88333","lng":"22.41667"},{"label":"Ylästö","lat":"60.28417","lng":"24.9139"},{"label":"Yli-Ii","lat":"65.37181","lng":"25.8458"},{"label":"Yli-maaria","lat":"60.55015","lng":"22.3089"},{"label":"Ylihärmä","lat":"63.15","lng":"22.78333"},{"label":"Ylikiiminki","lat":"65.08333","lng":"26.25"},{"label":"Ylitornio","lat":"66.30893","lng":"23.67734"},{"label":"Ylivieska","lat":"64.08333","lng":"24.55"},{"label":"Ylöjärvi","lat":"61.55632","lng":"23.59606"},{"label":"Ypäjä","lat":"60.8","lng":"23.28333"},{"label":"Ytteresse","lat":"63.62209","lng":"22.99456"}]