[{"label":"Ahau","lat":"-12.5","lng":"177.05"},{"label":"Ba","lat":"-17.5343","lng":"177.67407"},{"label":"Labasa","lat":"-16.4332","lng":"179.36451"},{"label":"Lautoka","lat":"-17.61686","lng":"177.45049"},{"label":"Levuka","lat":"-18.06667","lng":"179.31667"},{"label":"Nadi","lat":"-17.80309","lng":"177.41617"},{"label":"Nasinu","lat":"-18.07051","lng":"178.51313"},{"label":"Sigatoka","lat":"-18.14307","lng":"177.50691"},{"label":"Tubou","lat":"-18.23652","lng":"-178.81232"}]