[{"label":"Colonia","lat":"9.51638","lng":"138.12167"},{"label":"Eauripik","lat":"6.687","lng":"143.0375"},{"label":"Elato","lat":"7.502","lng":"146.166"},{"label":"Ettal","lat":"5.584","lng":"153.586"},{"label":"Fais","lat":"9.766","lng":"140.52"},{"label":"Fananu","lat":"8.55811","lng":"151.90922"},{"label":"Faraulep","lat":"8.588","lng":"144.508"},{"label":"Houk","lat":"6.6894","lng":"149.29908"},{"label":"Ifalik","lat":"7.25","lng":"144.4445"},{"label":"Kapingamarangi","lat":"1.07861","lng":"154.80752"},{"label":"Kolonia","lat":"6.964","lng":"158.2062"},{"label":"Kolonia Town","lat":"6.964","lng":"158.206"},{"label":"Kuttu","lat":"5.453","lng":"153.4575"},{"label":"Lamotrek","lat":"7.491","lng":"146.305"},{"label":"Lelu","lat":"5.33359","lng":"163.02248"},{"label":"Losap","lat":"6.894","lng":"152.74"},{"label":"Lukunor","lat":"5.507","lng":"153.8205"},{"label":"Madolenihm Municipality Government","lat":"6.83493","lng":"158.2987"},{"label":"Makur","lat":"8.985","lng":"150.1275"},{"label":"Malem","lat":"5.28599","lng":"163.02609"},{"label":"Moch","lat":"5.4918","lng":"153.54"},{"label":"Mokil","lat":"6.69281","lng":"159.76283"},{"label":"Murilo","lat":"8.69242","lng":"152.33934"},{"label":"Namoluk","lat":"5.924","lng":"153.152"},{"label":"Nema","lat":"6.98922","lng":"152.57377"},{"label":"Ngatik","lat":"5.78849","lng":"157.15954"},{"label":"Ngulu","lat":"8.45","lng":"137.484"},{"label":"Nomwin","lat":"8.43","lng":"151.748"},{"label":"Nukuoro","lat":"3.83619","lng":"154.97143"},{"label":"Oneop","lat":"5.5066","lng":"153.7105"},{"label":"Onou","lat":"8.799","lng":"150.2915"},{"label":"Onoun","lat":"8.575","lng":"149.687"},{"label":"Palikir - National Government Center","lat":"6.92477","lng":"158.16109"},{"label":"Piis","lat":"6.834","lng":"152.701"},{"label":"Pingelap","lat":"6.20589","lng":"160.70327"},{"label":"Pisaras","lat":"8.569","lng":"150.4195"},{"label":"Polowat","lat":"7.35661","lng":"149.19908"},{"label":"Pulap","lat":"7.6366","lng":"149.42878"},{"label":"Rumung","lat":"9.622","lng":"138.154"},{"label":"Ruo","lat":"8.609","lng":"152.2455"},{"label":"Satawal","lat":"7.382","lng":"147.0322"},{"label":"Satowan","lat":"5.334","lng":"153.738"},{"label":"Sorol","lat":"8.1435","lng":"140.394"},{"label":"Ta","lat":"5.2842","lng":"153.648"},{"label":"Tafunsak","lat":"5.3671","lng":"162.98532"},{"label":"Tamatam","lat":"7.53868","lng":"149.41428"},{"label":"Tofol","lat":"5.32479","lng":"163.00781"},{"label":"Tonoas Municipal Building","lat":"7.37597","lng":"151.88433"},{"label":"Unanu","lat":"8.75","lng":"150.341"},{"label":"Utwe","lat":"5.27486","lng":"162.97656"}]