[{"label":"Aasiaat","lat":"68.70869","lng":"-52.86366"},{"label":"Ilulissat","lat":"69.21981","lng":"-51.09861"},{"label":"Maniitsoq","lat":"65.41506","lng":"-52.89822"},{"label":"Nanortalik","lat":"60.14169","lng":"-45.24069"},{"label":"Narsaq","lat":"60.91298","lng":"-46.05055"},{"label":"Nuuk","lat":"64.18347","lng":"-51.72157"},{"label":"Paamiut","lat":"61.99402","lng":"-49.66776"},{"label":"Qaqortoq","lat":"60.71839","lng":"-46.03561"},{"label":"Qasigiannguit","lat":"68.81926","lng":"-51.19221"},{"label":"Sisimiut","lat":"66.93946","lng":"-53.6735"},{"label":"Tasiilaq","lat":"65.61451","lng":"-37.63676"},{"label":"Uummannaq","lat":"70.67442","lng":"-52.12545"}]