[{"label":"Acharávi","lat":"39.7936","lng":"19.81736"},{"label":"Acharnés","lat":"38.08333","lng":"23.73333"},{"label":"Adámas","lat":"36.72506","lng":"24.44685"},{"label":"Ádendro","lat":"40.67131","lng":"22.60466"},{"label":"Aegina","lat":"37.74667","lng":"23.4275"},{"label":"Afántou","lat":"36.29354","lng":"28.16225"},{"label":"Afidnés","lat":"38.20332","lng":"23.83982"},{"label":"Afrátion","lat":"38.45212","lng":"23.68775"},{"label":"Áfytos","lat":"40.09915","lng":"23.4367"},{"label":"Aghios Panteleímon","lat":"38.11643","lng":"23.98182"},{"label":"Agiá","lat":"39.71901","lng":"22.75869"},{"label":"Agía Foteiní","lat":"35.25459","lng":"24.63495"},{"label":"Agía Galíni","lat":"35.09707","lng":"24.68818"},{"label":"Agía Kyriakí","lat":"39.52264","lng":"20.88358"},{"label":"Agía Marína","lat":"37.1543","lng":"26.85162"},{"label":"Agía Marína","lat":"35.51778","lng":"23.92675"},{"label":"Agía Marína","lat":"37.82036","lng":"23.84424"},{"label":"Agía Paraskeví","lat":"39.24792","lng":"26.27178"},{"label":"Agía Paraskeví","lat":"38.01667","lng":"23.83333"},{"label":"Agía Paraskeví","lat":"40.4815","lng":"23.04863"},{"label":"Agía Triáda","lat":"39.46361","lng":"21.89848"},{"label":"Agía Triáda","lat":"38.35505","lng":"22.90881"},{"label":"Agía Triáda","lat":"40.50003","lng":"22.87351"},{"label":"Agía Varvára","lat":"37.98938","lng":"23.66011"},{"label":"Agía Varvára","lat":"35.13715","lng":"25.00131"},{"label":"Agiásos","lat":"39.08295","lng":"26.37218"},{"label":"Ágio Pnévma","lat":"41.10142","lng":"23.67992"},{"label":"Ágioi Anárgyroi","lat":"38.03013","lng":"23.72379"},{"label":"Ágioi Déka","lat":"35.06667","lng":"24.96667"},{"label":"Ágioi Theódoroi","lat":"37.92736","lng":"23.14221"},{"label":"Ágios Andréas","lat":"37.34519","lng":"22.76466"},{"label":"Ágios Athanásios","lat":"41.07463","lng":"24.24545"},{"label":"Ágios Athanásios","lat":"40.71598","lng":"22.72841"},{"label":"Agios Dimitrios","lat":"37.93333","lng":"23.73333"},{"label":"Agios Dimítrios Kropiás","lat":"37.80612","lng":"23.85793"},{"label":"Ágios Efstrátios","lat":"39.53889","lng":"24.99167"},{"label":"Ágios Geórgios","lat":"38.39343","lng":"22.93189"},{"label":"Ágios Geórgios","lat":"40.60215","lng":"22.1943"},{"label":"Agios Georgis","lat":"39.72363","lng":"19.69969"},{"label":"Agios Ioannis Rentis","lat":"37.96491","lng":"23.66511"},{"label":"Agios Kirykos","lat":"37.61472","lng":"26.29444"},{"label":"Ágios Loukás","lat":"40.71799","lng":"22.29545"},{"label":"Ágios Matthaíos","lat":"39.49506","lng":"19.87336"},{"label":"Ágios Nikólaos","lat":"35.19106","lng":"25.71524"},{"label":"Ágios Nikólaos","lat":"40.24926","lng":"23.69616"},{"label":"Ágios Pávlos","lat":"40.64075","lng":"22.96039"},{"label":"Ágios Pétros","lat":"40.86725","lng":"22.58298"},{"label":"Ágios Spyrídon","lat":"40.20778","lng":"22.44311"},{"label":"Ágios Stéfanos","lat":"38.14657","lng":"23.85608"},{"label":"Ágios Vasíleios","lat":"40.66424","lng":"23.11373"},{"label":"Agkathiá","lat":"40.55535","lng":"22.47083"},{"label":"Agnanteró","lat":"39.48586","lng":"21.84789"},{"label":"Agriá","lat":"39.34078","lng":"23.01258"},{"label":"Agrínio","lat":"38.62139","lng":"21.40778"},{"label":"Aianí","lat":"40.16381","lng":"21.81945"},{"label":"Aiánteio","lat":"37.92135","lng":"23.45877"},{"label":"Aidipsós","lat":"38.87924","lng":"23.04691"},{"label":"Aigáleo","lat":"37.98333","lng":"23.68333"},{"label":"Aigínio","lat":"40.50139","lng":"22.54"},{"label":"Aígio","lat":"38.24861","lng":"22.08194"},{"label":"Aitolikó","lat":"38.43704","lng":"21.35358"},{"label":"Aíyira","lat":"38.14846","lng":"22.35426"},{"label":"Akraifnía","lat":"38.45663","lng":"23.22093"},{"label":"Akráta","lat":"38.15469","lng":"22.3183"},{"label":"Akriní","lat":"40.43492","lng":"21.90609"},{"label":"Akrolímni","lat":"40.6802","lng":"22.2645"},{"label":"Aktaío","lat":"38.30444","lng":"21.7944"},{"label":"Alepoú","lat":"39.61594","lng":"19.89564"},{"label":"Alexándreia","lat":"40.62667","lng":"22.44417"},{"label":"Alexandroupoli","lat":"40.84995","lng":"25.87644"},{"label":"Alfeioúsa","lat":"37.64019","lng":"21.5375"},{"label":"Alíartos","lat":"38.36667","lng":"23.1"},{"label":"Álimos","lat":"37.91033","lng":"23.72361"},{"label":"Alistráti","lat":"41.06443","lng":"23.95751"},{"label":"Alivéri","lat":"38.41667","lng":"24.03333"},{"label":"Álli Meriá","lat":"39.37039","lng":"22.9835"},{"label":"Almyrós","lat":"39.18222","lng":"22.75944"},{"label":"Amaliáda","lat":"37.79842","lng":"21.35068"},{"label":"Amárynthos","lat":"38.393","lng":"23.88492"},{"label":"Ambelókipoi","lat":"37.75809","lng":"20.87248"},{"label":"Amfíkleia","lat":"38.63912","lng":"22.59171"},{"label":"Amfilochía","lat":"38.85944","lng":"21.16639"},{"label":"Ámfissa","lat":"38.52813","lng":"22.37713"},{"label":"Ammochóri","lat":"40.78203","lng":"21.48458"},{"label":"Amorgós","lat":"36.83175","lng":"25.89821"},{"label":"Ampelákia","lat":"37.95055","lng":"23.52803"},{"label":"Ampeleíes","lat":"40.83417","lng":"22.38767"},{"label":"Ampelókipoi","lat":"40.65304","lng":"22.92624"},{"label":"Ampelóna","lat":"39.74481","lng":"22.36575"},{"label":"Amygdaleónas","lat":"40.96346","lng":"24.36007"},{"label":"Amýntaio","lat":"40.68967","lng":"21.67974"},{"label":"Anáfi","lat":"36.35","lng":"25.76667"},{"label":"Anakasiá","lat":"39.38112","lng":"22.97484"},{"label":"Anaráchi","lat":"40.49234","lng":"21.57279"},{"label":"Anatolí","lat":"39.63531","lng":"20.86578"},{"label":"Anatolikó","lat":"40.66152","lng":"22.7119"},{"label":"Anávra","lat":"39.18996","lng":"22.09308"},{"label":"Anávyssos","lat":"37.73414","lng":"23.94389"},{"label":"Andravída","lat":"37.90588","lng":"21.26936"},{"label":"Andros","lat":"37.8367","lng":"24.9367"},{"label":"Anéza","lat":"39.08658","lng":"20.923"},{"label":"Angelochóri","lat":"40.67862","lng":"22.19933"},{"label":"Angelochóri","lat":"40.49717","lng":"22.8344"},{"label":"Angelókastro","lat":"38.56585","lng":"21.29631"},{"label":"Ano Arhanes","lat":"35.23333","lng":"25.16667"},{"label":"Áno Kalentíni","lat":"39.25","lng":"21.18528"},{"label":"Áno Kastrítsi","lat":"38.27228","lng":"21.836"},{"label":"Áno Kómi","lat":"40.2266","lng":"21.82827"},{"label":"Áno Lekhónia","lat":"39.32763","lng":"23.05395"},{"label":"Áno Liósia","lat":"38.08333","lng":"23.7"},{"label":"Áno Merá","lat":"37.44904","lng":"25.39095"},{"label":"Áno Sýros","lat":"37.44997","lng":"24.93562"},{"label":"Anógeia","lat":"35.29084","lng":"24.88412"},{"label":"Anoixi","lat":"38.13267","lng":"23.85874"},{"label":"Anthíli","lat":"38.85","lng":"22.47906"},{"label":"Anthiró","lat":"39.34722","lng":"21.45833"},{"label":"Anthoúsa","lat":"38.02544","lng":"23.87617"},{"label":"Antikyra","lat":"38.38333","lng":"22.63333"},{"label":"Antimácheia","lat":"36.80888","lng":"27.09764"},{"label":"Antíparos","lat":"37.0394","lng":"25.08258"},{"label":"Antirrio","lat":"38.33014","lng":"21.76413"},{"label":"Ápsalos","lat":"40.8924","lng":"22.05709"},{"label":"Aráchova","lat":"38.47958","lng":"22.5835"},{"label":"Áratos","lat":"41.08139","lng":"25.55186"},{"label":"Aravissós","lat":"40.84352","lng":"22.30178"},{"label":"Archaía Olympía","lat":"37.64788","lng":"21.6271"},{"label":"Archángelos","lat":"36.21492","lng":"28.11487"},{"label":"Archontochóri","lat":"38.70053","lng":"21.03896"},{"label":"Arfará","lat":"37.15619","lng":"22.04485"},{"label":"Argalastí","lat":"39.22627","lng":"23.21868"},{"label":"Argithéa","lat":"37.97506","lng":"23.88556"},{"label":"Árgos","lat":"37.63333","lng":"22.73333"},{"label":"Argos Orestiko","lat":"40.45354","lng":"21.25889"},{"label":"Argostólion","lat":"38.18109","lng":"20.48903"},{"label":"Argyropoúli","lat":"39.82567","lng":"22.30689"},{"label":"Argyroúpoli","lat":"37.90594","lng":"23.75035"},{"label":"Aria","lat":"37.57372","lng":"22.83539"},{"label":"Aridaía","lat":"40.97306","lng":"22.05639"},{"label":"Áris","lat":"37.0992","lng":"22.00443"},{"label":"Arísvi","lat":"41.07","lng":"25.59041"},{"label":"Arkalochóri","lat":"35.14634","lng":"25.26538"},{"label":"Arkhaía Kórinthos","lat":"37.90953","lng":"22.88353"},{"label":"Arkoúdi","lat":"37.84681","lng":"21.11022"},{"label":"Árma","lat":"38.35121","lng":"23.48599"},{"label":"Arnaía","lat":"40.48652","lng":"23.59537"},{"label":"Árnissa","lat":"40.79555","lng":"21.83577"},{"label":"Arrianá","lat":"41.08131","lng":"25.69494"},{"label":"Arsénio","lat":"40.71412","lng":"22.15923"},{"label":"Árta","lat":"39.16014","lng":"20.98561"},{"label":"Artémida","lat":"37.96727","lng":"23.99684"},{"label":"Artesianó","lat":"39.40194","lng":"21.89649"},{"label":"Asímion","lat":"35.04321","lng":"25.09277"},{"label":"Asíni","lat":"37.54431","lng":"22.86435"},{"label":"Askós","lat":"40.74946","lng":"23.38755"},{"label":"Asopía","lat":"38.29882","lng":"23.50189"},{"label":"Asopós","lat":"36.72986","lng":"22.85455"},{"label":"Asprángeloi","lat":"39.82328","lng":"20.72862"},{"label":"Asprópyrgos","lat":"38.06134","lng":"23.58971"},{"label":"Asproválta","lat":"40.73049","lng":"23.7118"},{"label":"Ássiros","lat":"40.82106","lng":"23.03137"},{"label":"Ássos","lat":"37.93955","lng":"22.82223"},{"label":"Astakós","lat":"38.53556","lng":"21.08135"},{"label":"Ástros","lat":"37.40395","lng":"22.72118"},{"label":"Astypálaia","lat":"36.55","lng":"26.35"},{"label":"Asvestochóri","lat":"40.64125","lng":"23.02528"},{"label":"Atalánti","lat":"38.65111","lng":"22.99917"},{"label":"Athens","lat":"37.98376","lng":"23.72784"},{"label":"Athíkia","lat":"37.81675","lng":"22.92939"},{"label":"Áthyra","lat":"40.82615","lng":"22.59279"},{"label":"Atsipópoulo","lat":"35.35253","lng":"24.43378"},{"label":"Ávato","lat":"40.96279","lng":"24.80441"},{"label":"Avlónas","lat":"38.25149","lng":"23.69554"},{"label":"Axioúpoli","lat":"40.98582","lng":"22.54165"},{"label":"Axós","lat":"40.80223","lng":"22.36158"},{"label":"Ayía Triás","lat":"37.63707","lng":"22.80504"},{"label":"Áyioi Apóstoloi","lat":"38.29169","lng":"23.91011"},{"label":"Áyios Adhrianós","lat":"37.59975","lng":"22.8456"},{"label":"Áyios Konstandínos","lat":"38.75612","lng":"22.85757"},{"label":"Áyios Konstandínos","lat":"38.63337","lng":"21.3995"},{"label":"Áyios Nikólaos","lat":"38.42051","lng":"23.64772"},{"label":"Áyios Thomás","lat":"38.27717","lng":"23.58906"},{"label":"Áyios Vasílios","lat":"37.79763","lng":"22.79727"},{"label":"Batsíon","lat":"37.86008","lng":"24.7849"},{"label":"Chaïdári","lat":"38.01135","lng":"23.66597"},{"label":"Chairóneia","lat":"38.49551","lng":"22.84424"},{"label":"Chalandrítsa","lat":"38.10843","lng":"21.78349"},{"label":"Chalástra","lat":"40.62643","lng":"22.73291"},{"label":"Chálki","lat":"39.56853","lng":"22.54017"},{"label":"Chálki","lat":"36.22243","lng":"27.61191"},{"label":"Chalkiádes","lat":"39.15981","lng":"20.93292"},{"label":"Chalkída","lat":"38.46354","lng":"23.60284"},{"label":"Chalkidóna","lat":"40.73184","lng":"22.59992"},{"label":"Chaniá","lat":"35.51124","lng":"24.02921"},{"label":"Charopó","lat":"41.26031","lng":"23.37279"},{"label":"Chávari","lat":"37.84842","lng":"21.38403"},{"label":"Chios","lat":"38.36875","lng":"26.13718"},{"label":"Chlói","lat":"40.53918","lng":"21.25923"},{"label":"Cholargós","lat":"38","lng":"23.8"},{"label":"Chóra","lat":"37.70374","lng":"26.90454"},{"label":"Chóra","lat":"37.05106","lng":"21.7169"},{"label":"Chóra Sfakíon","lat":"35.20176","lng":"24.13711"},{"label":"Choristí","lat":"41.13056","lng":"24.20843"},{"label":"Chortiátis","lat":"40.60954","lng":"23.10014"},{"label":"Chrysavgí","lat":"40.76478","lng":"23.08104"},{"label":"Chrysó","lat":"41.05806","lng":"23.65108"},{"label":"Chrysochórafa","lat":"41.18097","lng":"23.23551"},{"label":"Chrysochóri","lat":"40.93328","lng":"24.71088"},{"label":"Chrysoúpolis","lat":"40.98556","lng":"24.69389"},{"label":"Corfu","lat":"39.62441","lng":"19.92016"},{"label":"Darátsos","lat":"35.49955","lng":"23.97488"},{"label":"Delphi","lat":"38.47942","lng":"22.49357"},{"label":"Deskáti","lat":"39.92422","lng":"21.81031"},{"label":"Dhafní","lat":"37.95002","lng":"23.73437"},{"label":"Dhokímion","lat":"38.61352","lng":"21.38072"},{"label":"Dhráfi","lat":"38.02375","lng":"23.90788"},{"label":"Dhrosiá","lat":"38.48413","lng":"23.54774"},{"label":"Diavatá","lat":"40.68744","lng":"22.85799"},{"label":"Diavatós","lat":"40.54606","lng":"22.26686"},{"label":"Dídyma","lat":"37.4625","lng":"23.17183"},{"label":"Didymóteicho","lat":"41.349","lng":"26.49377"},{"label":"Dílesi","lat":"38.33762","lng":"23.67077"},{"label":"Dimitsána","lat":"37.59524","lng":"22.04025"},{"label":"Díon","lat":"40.17169","lng":"22.48463"},{"label":"Dióni","lat":"38.02328","lng":"23.93286"},{"label":"Diónysos","lat":"38.10458","lng":"23.87938"},{"label":"Dístomo","lat":"38.42892","lng":"22.66728"},{"label":"Domokós","lat":"39.12722","lng":"22.30028"},{"label":"Domvraína","lat":"38.253","lng":"22.98211"},{"label":"Dráma","lat":"41.15283","lng":"24.1473"},{"label":"Drapetsóna","lat":"37.94988","lng":"23.62309"},{"label":"Dravískos","lat":"40.92393","lng":"23.87119"},{"label":"Drépanon","lat":"37.53888","lng":"22.89323"},{"label":"Drosiá","lat":"38.11977","lng":"23.86428"},{"label":"Drymós","lat":"40.78099","lng":"22.95889"},{"label":"Echínos","lat":"41.27558","lng":"24.97237"},{"label":"Édessa","lat":"40.8026","lng":"22.04751"},{"label":"Efkarpía","lat":"40.68797","lng":"22.95348"},{"label":"Eirinoúpoli","lat":"40.67806","lng":"22.19278"},{"label":"Ekáli","lat":"38.11035","lng":"23.83505"},{"label":"Eksochí","lat":"39.68744","lng":"20.8224"},{"label":"Elaiochóri","lat":"40.8203","lng":"24.24373"},{"label":"Elassóna","lat":"39.89472","lng":"22.18861"},{"label":"Eláteia","lat":"38.6277","lng":"22.76492"},{"label":"Elefsína","lat":"38.04135","lng":"23.54295"},{"label":"Eleftherés","lat":"40.84666","lng":"24.25431"},{"label":"Elefthério - Kordelió","lat":"40.66391","lng":"22.89693"},{"label":"Eleftheroúpolis","lat":"40.91389","lng":"24.25139"},{"label":"Eleoúsa","lat":"39.70639","lng":"20.7925"},{"label":"Eleoúsa","lat":"39.15278","lng":"20.96214"},{"label":"Ellinikó","lat":"37.89013","lng":"23.74406"},{"label":"Eloúnda","lat":"35.265","lng":"25.72127"},{"label":"Émponas","lat":"36.22683","lng":"27.85645"},{"label":"Emporeío","lat":"36.35816","lng":"25.44615"},{"label":"Empório","lat":"40.48866","lng":"21.55768"},{"label":"Epanomí","lat":"40.42614","lng":"22.92782"},{"label":"Episkopí","lat":"40.68748","lng":"22.1364"},{"label":"Epitálio","lat":"37.62675","lng":"21.49528"},{"label":"Erátyra","lat":"40.34253","lng":"21.51333"},{"label":"Eresós","lat":"39.16973","lng":"25.93437"},{"label":"Erétria","lat":"38.40097","lng":"23.8022"},{"label":"Ermióni","lat":"37.38492","lng":"23.24686"},{"label":"Ermoúpolis","lat":"37.44466","lng":"24.9429"},{"label":"Erythrés","lat":"38.21741","lng":"23.32234"},{"label":"Évlalo","lat":"40.98333","lng":"24.8"},{"label":"Évosmos","lat":"40.67056","lng":"22.90833"},{"label":"Evropós","lat":"40.89703","lng":"22.55277"},{"label":"Evxinoúpolis","lat":"39.18414","lng":"22.73831"},{"label":"Examília","lat":"37.89736","lng":"22.92832"},{"label":"Exaplátanos","lat":"40.97643","lng":"22.12958"},{"label":"Exochi","lat":"40.63017","lng":"23.04271"},{"label":"Fálanna","lat":"39.71986","lng":"22.39733"},{"label":"Faliraki","lat":"36.33981","lng":"28.19942"},{"label":"Farkadóna","lat":"39.6","lng":"22.06667"},{"label":"Fáros","lat":"38.39959","lng":"23.62275"},{"label":"Fársala","lat":"39.29472","lng":"22.38472"},{"label":"Féres","lat":"40.89305","lng":"26.17234"},{"label":"Fíki","lat":"39.51602","lng":"21.65556"},{"label":"Filiátes","lat":"39.60111","lng":"20.31194"},{"label":"Filiatrá","lat":"37.15637","lng":"21.58532"},{"label":"Filippiáda","lat":"39.20472","lng":"20.88222"},{"label":"Fíliro","lat":"40.69151","lng":"23.0046"},{"label":"Fílla","lat":"38.44177","lng":"23.68306"},{"label":"Fillýra","lat":"41.11667","lng":"25.63333"},{"label":"Filótas","lat":"40.6252","lng":"21.70851"},{"label":"Filothéi","lat":"38.02524","lng":"23.78257"},{"label":"Filótion","lat":"37.05167","lng":"25.49829"},{"label":"Firá","lat":"36.42107","lng":"25.43087"},{"label":"Flórina","lat":"40.78197","lng":"21.40981"},{"label":"Folégandros","lat":"36.62794","lng":"24.92021"},{"label":"Fotolívos","lat":"41.06013","lng":"24.04724"},{"label":"Foúrnoi","lat":"37.5785","lng":"26.48069"},{"label":"Fry","lat":"35.41623","lng":"26.92328"},{"label":"Fteliá","lat":"41.08266","lng":"24.18968"},{"label":"Fylí","lat":"38.10235","lng":"23.66901"},{"label":"Fyteíes","lat":"38.69524","lng":"21.18467"},{"label":"Gáïos","lat":"39.19722","lng":"20.18556"},{"label":"Gaïtánion","lat":"37.79134","lng":"20.87407"},{"label":"Galatádes","lat":"40.7559","lng":"22.28062"},{"label":"Galatás","lat":"38.35742","lng":"21.56222"},{"label":"Galatás","lat":"37.49618","lng":"23.44886"},{"label":"Galatás","lat":"35.49864","lng":"23.96341"},{"label":"Galatiní","lat":"40.31966","lng":"21.55148"},{"label":"Galátista","lat":"40.4682","lng":"23.28015"},{"label":"Galátsi","lat":"38.01667","lng":"23.75"},{"label":"Galaxídhion","lat":"38.38067","lng":"22.38001"},{"label":"Gargaliánoi","lat":"37.06518","lng":"21.63809"},{"label":"Gastoúni","lat":"37.85","lng":"21.25"},{"label":"Gavaloú","lat":"38.52903","lng":"21.53226"},{"label":"Gázi","lat":"35.32531","lng":"25.06694"},{"label":"Gázoros","lat":"41.02557","lng":"23.77574"},{"label":"Géfyra","lat":"36.68715","lng":"23.03509"},{"label":"Géfyra","lat":"40.73253","lng":"22.69359"},{"label":"Genisséa","lat":"41.06165","lng":"24.96248"},{"label":"Georgioupolis","lat":"35.36225","lng":"24.26013"},{"label":"Gerakaroú","lat":"40.62666","lng":"23.21566"},{"label":"Gérakas","lat":"38.02277","lng":"23.8576"},{"label":"Geráki","lat":"36.99227","lng":"22.70663"},{"label":"Geráni","lat":"35.51721","lng":"23.87818"},{"label":"Gérgeri","lat":"35.13281","lng":"24.94963"},{"label":"Giannitsá","lat":"40.79194","lng":"22.4075"},{"label":"Giánnouli","lat":"39.66717","lng":"22.39597"},{"label":"Glyfáda","lat":"37.86289","lng":"23.75802"},{"label":"Gómfoi","lat":"39.46413","lng":"21.69342"},{"label":"Gónnoi","lat":"39.86153","lng":"22.47647"},{"label":"Gouménissa","lat":"40.94604","lng":"22.44974"},{"label":"Goúmero","lat":"37.76236","lng":"21.61853"},{"label":"Goúrnes","lat":"35.32626","lng":"25.2774"},{"label":"Gra Liyiá","lat":"35.01467","lng":"25.69127"},{"label":"Graikochóri","lat":"39.49789","lng":"20.27608"},{"label":"Grammatikó","lat":"38.20251","lng":"23.96504"},{"label":"Grammenítsa","lat":"39.18444","lng":"20.97933"},{"label":"Grevená","lat":"40.08452","lng":"21.42744"},{"label":"Grizáno","lat":"39.63192","lng":"22.05258"},{"label":"Gýtheio","lat":"36.755","lng":"22.56417"},{"label":"Ialysós","lat":"36.41352","lng":"28.15516"},{"label":"Íasmos","lat":"41.12747","lng":"25.18573"},{"label":"Ierápetra","lat":"35.01186","lng":"25.74234"},{"label":"Ierissós","lat":"40.39748","lng":"23.87505"},{"label":"Igoumenítsa","lat":"39.50342","lng":"20.26728"},{"label":"Iliokentima","lat":"40.94931","lng":"24.78859"},{"label":"Ílion","lat":"38.03333","lng":"23.7"},{"label":"Ilioúpoli","lat":"37.93149","lng":"23.76779"},{"label":"Ioánnina","lat":"39.66486","lng":"20.85189"},{"label":"Íos","lat":"36.72293","lng":"25.2817"},{"label":"Irákleia","lat":"41.18217","lng":"23.28243"},{"label":"Irákleio","lat":"38.05282","lng":"23.76523"},{"label":"Irákleion","lat":"35.32787","lng":"25.14341"},{"label":"Iráklion","lat":"40.7568","lng":"23.0356"},{"label":"Isthmía","lat":"37.91356","lng":"23.0046"},{"label":"Istiaía","lat":"38.9552","lng":"23.1521"},{"label":"Itéa","lat":"39.45669","lng":"22.16577"},{"label":"Itéa","lat":"38.43201","lng":"22.42443"},{"label":"Itháki","lat":"38.36421","lng":"20.71848"},{"label":"Kainoúryion","lat":"38.79283","lng":"22.7247"},{"label":"Kainoúryion","lat":"38.60453","lng":"21.48776"},{"label":"Kaisarianí","lat":"37.9634","lng":"23.76523"},{"label":"Kalá Déndra","lat":"41.09941","lng":"23.42396"},{"label":"Kalamariá","lat":"40.5825","lng":"22.95028"},{"label":"Kalamata","lat":"37.03913","lng":"22.11265"},{"label":"Kalamiá","lat":"39.16528","lng":"20.93206"},{"label":"Kálamos","lat":"38.28447","lng":"23.86308"},{"label":"Kalampáka","lat":"39.70444","lng":"21.62694"},{"label":"Kalampáki","lat":"41.05","lng":"24.18333"},{"label":"Kalávryta","lat":"38.03222","lng":"22.1125"},{"label":"Kalí","lat":"40.81931","lng":"22.17761"},{"label":"Kalí Vrýsi","lat":"41.14653","lng":"23.90667"},{"label":"Kallifóni","lat":"39.27712","lng":"21.96128"},{"label":"Kallífytos","lat":"41.1728","lng":"24.21527"},{"label":"Kallikomo","lat":"37.5833","lng":"21.5833"},{"label":"Kallithéa","lat":"37.95","lng":"23.7"},{"label":"Kallithéa","lat":"40.2739","lng":"22.57775"},{"label":"Kallithéa","lat":"40.07374","lng":"23.44637"},{"label":"Kallíthiro","lat":"39.28099","lng":"21.90491"},{"label":"Kalloní","lat":"39.23318","lng":"26.20724"},{"label":"Kalochóri","lat":"40.64189","lng":"22.85734"},{"label":"Kalós Agrós","lat":"41.10543","lng":"24.0857"},{"label":"Kalpáki","lat":"39.88778","lng":"20.62389"},{"label":"Kálymnos","lat":"36.9503","lng":"26.98388"},{"label":"Kalýves","lat":"35.45046","lng":"24.17507"},{"label":"Kalýves Polygýrou","lat":"40.28659","lng":"23.39033"},{"label":"Kalývia","lat":"40.75508","lng":"22.21753"},{"label":"Kalývia Thorikoú","lat":"37.83894","lng":"23.92505"},{"label":"Kamárai","lat":"38.29881","lng":"21.99892"},{"label":"Kamariótissa","lat":"40.47501","lng":"25.47456"},{"label":"Kamaterón","lat":"38.05586","lng":"23.70515"},{"label":"Kaména Voúrla","lat":"38.77844","lng":"22.78573"},{"label":"Kampánis","lat":"40.88951","lng":"22.91682"},{"label":"Kanaláki","lat":"39.23361","lng":"20.6"},{"label":"Kanáli","lat":"39.60556","lng":"19.8925"},{"label":"Kanália","lat":"39.49928","lng":"22.88589"},{"label":"Kandíla","lat":"38.70564","lng":"20.94749"},{"label":"Kapandríti","lat":"38.21579","lng":"23.87938"},{"label":"Kaparéllion","lat":"38.23697","lng":"23.21411"},{"label":"Karátoula","lat":"37.73564","lng":"21.53578"},{"label":"Kardámaina","lat":"36.78305","lng":"27.14289"},{"label":"Kardamás","lat":"37.76729","lng":"21.33946"},{"label":"Kardamítsia","lat":"39.67816","lng":"20.81956"},{"label":"Kardamýli","lat":"36.88778","lng":"22.23317"},{"label":"Kardía","lat":"40.46909","lng":"22.99378"},{"label":"Kardítsa","lat":"39.36485","lng":"21.92191"},{"label":"Karditsomagoúla","lat":"39.39061","lng":"21.9233"},{"label":"Karellás","lat":"37.93445","lng":"23.86484"},{"label":"Karítsa","lat":"40.18745","lng":"22.48171"},{"label":"Karpathos","lat":"35.50701","lng":"27.21322"},{"label":"Karpenísi","lat":"38.91218","lng":"21.79836"},{"label":"Karpochóri","lat":"39.33575","lng":"22.01129"},{"label":"Karyes","lat":"40.25715","lng":"24.24498"},{"label":"Karyés","lat":"37.29119","lng":"22.50066"},{"label":"Karyótissa","lat":"40.76915","lng":"22.31331"},{"label":"Kárystos","lat":"38.01333","lng":"24.41611"},{"label":"Kassándreia","lat":"40.04835","lng":"23.41362"},{"label":"Kastaniés","lat":"41.64551","lng":"26.47676"},{"label":"Kastélla","lat":"38.57048","lng":"23.63131"},{"label":"Kastélli","lat":"35.20902","lng":"25.33773"},{"label":"Kastoria","lat":"40.52165","lng":"21.26341"},{"label":"Kastráki","lat":"39.71692","lng":"21.61865"},{"label":"Kastrí","lat":"34.8346","lng":"24.08572"},{"label":"Katastárion","lat":"37.83012","lng":"20.75755"},{"label":"Kateríni","lat":"40.26956","lng":"22.50608"},{"label":"Káto Achaḯa","lat":"38.15","lng":"21.55"},{"label":"Káto Asítai","lat":"35.20271","lng":"24.99827"},{"label":"Káto Dhiminió","lat":"38.0249","lng":"22.73294"},{"label":"Káto Glykóvrysi","lat":"36.82791","lng":"22.77732"},{"label":"Káto Goúves","lat":"35.32934","lng":"25.31353"},{"label":"Káto Kamíla","lat":"41.02119","lng":"23.48336"},{"label":"Káto Lekhónia","lat":"39.33091","lng":"23.03957"},{"label":"Káto Lipochóri","lat":"40.75754","lng":"22.17962"},{"label":"Káto Mazaráki","lat":"38.07035","lng":"21.65097"},{"label":"Káto Miliá","lat":"40.25403","lng":"22.34342"},{"label":"Káto Nevrokópi","lat":"41.35","lng":"23.86667"},{"label":"Káto Scholári","lat":"40.42906","lng":"23.02978"},{"label":"Káto Soúlion","lat":"38.16803","lng":"24.01628"},{"label":"Káto Tithoréa","lat":"38.60751","lng":"22.71348"},{"label":"Katochí","lat":"38.41237","lng":"21.25258"},{"label":"Katoúna","lat":"38.78547","lng":"21.11417"},{"label":"Katsikás","lat":"39.62281","lng":"20.88758"},{"label":"Kavála","lat":"40.93959","lng":"24.40687"},{"label":"Kavallári","lat":"40.71539","lng":"23.04588"},{"label":"Kavásila","lat":"37.87581","lng":"21.26422"},{"label":"Kavýli","lat":"41.56225","lng":"26.5147"},{"label":"Kéa","lat":"37.63333","lng":"24.35"},{"label":"Kéfalos","lat":"36.74507","lng":"26.95961"},{"label":"Kentrí","lat":"35.03258","lng":"25.7528"},{"label":"Keramotí","lat":"40.85591","lng":"24.70595"},{"label":"Kerasochóri","lat":"39.00556","lng":"21.63778"},{"label":"Keratéa","lat":"37.80585","lng":"23.9774"},{"label":"Keratsíni","lat":"37.9625","lng":"23.61972"},{"label":"Khalándrion","lat":"38.02369","lng":"23.80068"},{"label":"Khalkoútsion","lat":"38.33263","lng":"23.73188"},{"label":"Khiliomódhi","lat":"37.81016","lng":"22.86972"},{"label":"Kiáto","lat":"38.01321","lng":"22.74839"},{"label":"Kifisiá","lat":"38.07438","lng":"23.81106"},{"label":"Kilkís","lat":"40.99302","lng":"22.87433"},{"label":"Kimméria","lat":"41.14788","lng":"24.93869"},{"label":"Kímolos","lat":"36.79368","lng":"24.57577"},{"label":"Kinéta","lat":"37.96843","lng":"23.21351"},{"label":"Kipséli","lat":"38.00288","lng":"23.73755"},{"label":"Kírra","lat":"38.42944","lng":"22.44443"},{"label":"Kíssamos","lat":"35.49459","lng":"23.65375"},{"label":"Kítros","lat":"40.37399","lng":"22.57862"},{"label":"Kítsi","lat":"37.85181","lng":"23.84068"},{"label":"Kleidí","lat":"40.56632","lng":"22.59033"},{"label":"Kleítos","lat":"40.4314","lng":"21.85806"},{"label":"Koíla","lat":"40.33055","lng":"21.79102"},{"label":"Koilás","lat":"37.4123","lng":"23.12553"},{"label":"Koímisi","lat":"41.21282","lng":"23.30035"},{"label":"Kokkári","lat":"37.77908","lng":"26.89179"},{"label":"Kokkíni Cháni","lat":"35.32827","lng":"25.2581"},{"label":"Kokkinóchoma","lat":"40.9269","lng":"24.30805"},{"label":"Kokkónion","lat":"37.97061","lng":"22.78018"},{"label":"Kolchikón","lat":"40.75662","lng":"23.13377"},{"label":"Kolindrós","lat":"40.47888","lng":"22.48319"},{"label":"Kolympári","lat":"35.54115","lng":"23.77995"},{"label":"Komniná","lat":"40.59057","lng":"21.77671"},{"label":"Komotiní","lat":"41.11917","lng":"25.40535"},{"label":"Kompóti","lat":"39.10255","lng":"21.08389"},{"label":"Kónitsa","lat":"40.04861","lng":"20.75667"},{"label":"Kontariótissa","lat":"40.22754","lng":"22.461"},{"label":"Kontokáli","lat":"39.64436","lng":"19.85194"},{"label":"Kopanáki","lat":"37.28913","lng":"21.81854"},{"label":"Kopanós","lat":"40.63382","lng":"22.12893"},{"label":"Korinós","lat":"40.31659","lng":"22.58817"},{"label":"Kórinthos","lat":"37.94007","lng":"22.9513"},{"label":"Koróni","lat":"36.79526","lng":"21.95794"},{"label":"Koropí","lat":"37.89886","lng":"23.87181"},{"label":"Korydallós","lat":"37.98468","lng":"23.64711"},{"label":"Koryfí","lat":"40.60286","lng":"22.50681"},{"label":"Kos","lat":"36.89295","lng":"27.28768"},{"label":"Kostakioí","lat":"39.13672","lng":"20.95761"},{"label":"Koufália","lat":"40.77778","lng":"22.57194"},{"label":"Kouloúra","lat":"40.54652","lng":"22.31795"},{"label":"Koutselió","lat":"39.58808","lng":"20.91197"},{"label":"Koutsopódi","lat":"37.68426","lng":"22.71355"},{"label":"Kouvarás","lat":"37.82711","lng":"23.96715"},{"label":"Kozáni","lat":"40.30069","lng":"21.78896"},{"label":"Kraniá Elassónas","lat":"39.95094","lng":"21.97078"},{"label":"Kranídi","lat":"37.37974","lng":"23.15969"},{"label":"Kremastí","lat":"36.40981","lng":"28.1192"},{"label":"Kréstena","lat":"37.59193","lng":"21.62034"},{"label":"Kríkellos","lat":"38.94532","lng":"21.1791"},{"label":"Krinídes","lat":"41.01396","lng":"24.29647"},{"label":"Krithiá","lat":"40.84184","lng":"22.98292"},{"label":"Kritsá","lat":"35.15821","lng":"25.64459"},{"label":"Krokeés","lat":"36.88297","lng":"22.54683"},{"label":"Krókos","lat":"40.26349","lng":"21.8176"},{"label":"Krousón","lat":"35.23062","lng":"24.98291"},{"label":"Krýa Vrýsi","lat":"40.68738","lng":"22.30516"},{"label":"Kryonéri","lat":"38.13712","lng":"23.83055"},{"label":"Kyllíni","lat":"37.93542","lng":"21.14503"},{"label":"Kými","lat":"38.63477","lng":"24.10287"},{"label":"Kýmina","lat":"40.61354","lng":"22.69278"},{"label":"Kynopiástes","lat":"39.56785","lng":"19.88362"},{"label":"Kyparissía","lat":"37.25111","lng":"21.67361"},{"label":"Kyprínos","lat":"41.57542","lng":"26.22905"},{"label":"Kypséli","lat":"37.76021","lng":"23.45448"},{"label":"Kyrás Vrýsi","lat":"37.91295","lng":"22.98651"},{"label":"Kýria","lat":"41.099","lng":"24.28915"},{"label":"Kyriáki","lat":"38.35365","lng":"22.78841"},{"label":"Kýthira","lat":"36.14955","lng":"22.98979"},{"label":"Kýthnos","lat":"37.41237","lng":"24.43068"},{"label":"Lagkadás","lat":"40.75","lng":"23.06667"},{"label":"Lagós","lat":"41.45102","lng":"26.46067"},{"label":"Lagyná","lat":"40.72351","lng":"23.0042"},{"label":"Laimós","lat":"40.83628","lng":"21.14061"},{"label":"Lakkí","lat":"37.13344","lng":"26.85237"},{"label":"Lákkoma","lat":"40.39139","lng":"23.05578"},{"label":"Lálas","lat":"37.70936","lng":"21.72117"},{"label":"Lamía","lat":"38.9","lng":"22.43333"},{"label":"Langádhia","lat":"37.68186","lng":"22.03002"},{"label":"Lápas","lat":"38.09755","lng":"21.41861"},{"label":"Lárdos","lat":"36.09419","lng":"28.01565"},{"label":"Lárisa","lat":"39.63689","lng":"22.41761"},{"label":"Lávara","lat":"41.26957","lng":"26.38522"},{"label":"Lávrio","lat":"37.71445","lng":"24.05647"},{"label":"Lechainá","lat":"37.93333","lng":"21.26667"},{"label":"Léchovo","lat":"40.58442","lng":"21.49218"},{"label":"Lefkáda","lat":"38.83036","lng":"20.70442"},{"label":"Lefkímmi","lat":"39.42336","lng":"20.07094"},{"label":"Lefkónas","lat":"41.10029","lng":"23.49658"},{"label":"Leipsoí","lat":"37.28333","lng":"26.76667"},{"label":"Lékhaio","lat":"37.93279","lng":"22.85002"},{"label":"Leondárion","lat":"37.987","lng":"23.85518"},{"label":"Leonídio","lat":"37.16679","lng":"22.85773"},{"label":"Lepenoú","lat":"38.70839","lng":"21.2897"},{"label":"Leptokaryá","lat":"40.06032","lng":"22.5612"},{"label":"Levídion","lat":"37.68269","lng":"22.29586"},{"label":"Lianokládhion","lat":"38.91655","lng":"22.30336"},{"label":"Lianovérgi","lat":"40.63526","lng":"22.5082"},{"label":"Lidoríki","lat":"38.52389","lng":"22.19972"},{"label":"Ligourión","lat":"37.61233","lng":"23.03773"},{"label":"Limenária","lat":"40.62741","lng":"24.5765"},{"label":"Limín Khersonísou","lat":"35.32297","lng":"25.39275"},{"label":"Limín Mesoyaías","lat":"37.89108","lng":"24.00307"},{"label":"Límni","lat":"38.76667","lng":"23.31667"},{"label":"Limnokhórion","lat":"38.14115","lng":"21.48047"},{"label":"Lithakiá","lat":"37.71935","lng":"20.83013"},{"label":"Lití","lat":"40.74533","lng":"22.97982"},{"label":"Litóchoro","lat":"40.10056","lng":"22.49778"},{"label":"Livadeiá","lat":"38.43616","lng":"22.87665"},{"label":"Livaderó","lat":"40.03455","lng":"21.94279"},{"label":"Livádi","lat":"40.12625","lng":"22.15753"},{"label":"Livanátes","lat":"38.711","lng":"23.0503"},{"label":"Lixoúri","lat":"38.20133","lng":"20.43706"},{"label":"Lófos","lat":"40.24395","lng":"22.38033"},{"label":"Loukísia","lat":"38.47946","lng":"23.44796"},{"label":"Loúros","lat":"39.166","lng":"20.75608"},{"label":"Loutrá","lat":"39.05695","lng":"26.54476"},{"label":"Loutrá Aidhipsoú","lat":"38.85695","lng":"23.04739"},{"label":"Loutrá Oraías Elénis","lat":"37.86466","lng":"22.99614"},{"label":"Loutráki","lat":"37.9783","lng":"22.97781"},{"label":"Loutráki","lat":"40.97116","lng":"21.94659"},{"label":"Loutrós","lat":"40.58873","lng":"22.39976"},{"label":"Lýkeio","lat":"41.06413","lng":"25.6857"},{"label":"Lykóvrysi","lat":"38.06933","lng":"23.78223"},{"label":"Magoúla","lat":"38.41178","lng":"23.82128"},{"label":"Magoúla","lat":"38.07989","lng":"23.52108"},{"label":"Magoúla","lat":"37.08007","lng":"22.40469"},{"label":"Magoúla","lat":"39.45395","lng":"21.80351"},{"label":"Makrakómi","lat":"38.9415","lng":"22.11535"},{"label":"Makrísia","lat":"37.60957","lng":"21.60509"},{"label":"Makrochóri","lat":"40.55125","lng":"22.24955"},{"label":"Makrychóri","lat":"39.8","lng":"22.48333"},{"label":"Makrychóri","lat":"39.43978","lng":"21.96582"},{"label":"Makrýgialos","lat":"40.41551","lng":"22.60392"},{"label":"Malakónta","lat":"38.4","lng":"23.76667"},{"label":"Malesína","lat":"38.62225","lng":"23.2337"},{"label":"Mália","lat":"35.28367","lng":"25.46262"},{"label":"Mándalo","lat":"40.85677","lng":"22.21264"},{"label":"Mándra","lat":"38.06667","lng":"23.5"},{"label":"Mandráki","lat":"36.61139","lng":"27.13333"},{"label":"Maniákoi","lat":"40.50064","lng":"21.24446"},{"label":"Manoláda","lat":"38.04708","lng":"21.34814"},{"label":"Mantamádos","lat":"39.31003","lng":"26.33629"},{"label":"Mantoúdi","lat":"38.79808","lng":"23.47967"},{"label":"Marathókampos","lat":"37.72674","lng":"26.68964"},{"label":"Marathónas","lat":"38.15317","lng":"23.96278"},{"label":"Marína","lat":"40.692","lng":"22.10099"},{"label":"Markópoulo","lat":"37.88333","lng":"23.93333"},{"label":"Markópoulo Oropoú","lat":"38.2898","lng":"23.82475"},{"label":"Marmárion","lat":"38.04839","lng":"24.32039"},{"label":"Maroúsi","lat":"38.05","lng":"23.8"},{"label":"Martínon","lat":"38.56817","lng":"23.21458"},{"label":"Mataránga","lat":"38.52359","lng":"21.47325"},{"label":"Mavrochóri","lat":"40.51224","lng":"21.32038"},{"label":"Mavrommáti","lat":"39.42386","lng":"21.69379"},{"label":"Mavrothálassa","lat":"40.89427","lng":"23.75048"},{"label":"Mavrovoúni","lat":"40.78243","lng":"22.15629"},{"label":"Megála Kalývia","lat":"39.49693","lng":"21.78802"},{"label":"Megáli Khóra","lat":"38.64629","lng":"21.37309"},{"label":"Megáli Panagía","lat":"40.44505","lng":"23.67999"},{"label":"Megálo Chorió","lat":"36.45505","lng":"27.34563"},{"label":"Megálo Chorió","lat":"37.4582","lng":"26.97272"},{"label":"Megalochóri","lat":"39.55982","lng":"21.84195"},{"label":"Megalochóri","lat":"37.71051","lng":"23.34659"},{"label":"Megalópoli","lat":"37.40111","lng":"22.14222"},{"label":"Mégara","lat":"37.99471","lng":"23.34324"},{"label":"Megísti","lat":"36.14889","lng":"29.59361"},{"label":"Meligalás","lat":"37.21667","lng":"21.96667"},{"label":"Melíki","lat":"40.51685","lng":"22.39599"},{"label":"Melíssi","lat":"40.77406","lng":"22.35304"},{"label":"Melíssia","lat":"38.05","lng":"23.83333"},{"label":"Melissochóri","lat":"40.76796","lng":"22.92858"},{"label":"Melíti","lat":"40.83434","lng":"21.58426"},{"label":"Meneméni","lat":"40.65829","lng":"22.89712"},{"label":"Menídi","lat":"39.04213","lng":"21.11875"},{"label":"Mesariá","lat":"36.39893","lng":"25.44807"},{"label":"Mesiméri","lat":"40.41344","lng":"23.0075"},{"label":"Mesolóngi","lat":"38.37138","lng":"21.43151"},{"label":"Mesopotamía","lat":"40.50252","lng":"21.1611"},{"label":"Messíni","lat":"37.05111","lng":"22.00778"},{"label":"Metamórfosi","lat":"38.06576","lng":"23.76356"},{"label":"Methóni","lat":"36.81973","lng":"21.70486"},{"label":"Metsovo","lat":"39.76944","lng":"21.18222"},{"label":"Mikró Monastíri","lat":"40.7043","lng":"22.54112"},{"label":"Mikrópolis","lat":"41.19351","lng":"23.8157"},{"label":"Mílos","lat":"36.74536","lng":"24.4265"},{"label":"Mindilóglion","lat":"38.18387","lng":"21.70133"},{"label":"Míthymna","lat":"39.36781","lng":"26.17639"},{"label":"Mitrópoli","lat":"39.33933","lng":"21.83751"},{"label":"Mitroúsi","lat":"41.07041","lng":"23.46064"},{"label":"Moíres","lat":"35.05143","lng":"24.8733"},{"label":"Mokhós","lat":"35.26342","lng":"25.42305"},{"label":"Moláoi","lat":"36.80757","lng":"22.85132"},{"label":"Mólos","lat":"38.80998","lng":"22.64544"},{"label":"Monastiráki","lat":"38.85053","lng":"20.94458"},{"label":"Morfovoúni","lat":"39.3525","lng":"21.75"},{"label":"Mória","lat":"39.13248","lng":"26.51698"},{"label":"Moskháton","lat":"37.94789","lng":"23.6788"},{"label":"Mosynopolis, Maximianopolis, Μαξιμιανούπολις","lat":"41.12863","lng":"25.32546"},{"label":"Moúlki","lat":"37.99319","lng":"22.72531"},{"label":"Mourniés","lat":"35.48228","lng":"24.01253"},{"label":"Mouzaki","lat":"37.73565","lng":"20.82291"},{"label":"Mouzáki","lat":"39.42972","lng":"21.66361"},{"label":"Mouzourás","lat":"35.53885","lng":"24.15554"},{"label":"Mýki","lat":"41.24384","lng":"24.92084"},{"label":"Mykonos","lat":"37.44529","lng":"25.32872"},{"label":"Mýrina","lat":"39.87483","lng":"25.06359"},{"label":"Myrsíni","lat":"37.92117","lng":"21.237"},{"label":"Mytikas","lat":"38.44373","lng":"23.65365"},{"label":"Mytilene","lat":"39.10772","lng":"26.55529"},{"label":"Mytilinioí","lat":"37.72716","lng":"26.90747"},{"label":"Náfpaktos","lat":"38.39167","lng":"21.8275"},{"label":"Náfplio","lat":"37.56863","lng":"22.80691"},{"label":"Náousa","lat":"37.12181","lng":"25.24014"},{"label":"Náousa","lat":"40.62944","lng":"22.06806"},{"label":"Náxos","lat":"37.10556","lng":"25.37639"},{"label":"Néa Alikarnassós","lat":"35.33893","lng":"25.15972"},{"label":"Néa Anatolí","lat":"35.0092","lng":"25.6617"},{"label":"Néa Anchiálos","lat":"39.28015","lng":"22.81819"},{"label":"Néa Apollonía","lat":"40.62558","lng":"23.44074"},{"label":"Néa Artáki","lat":"38.52027","lng":"23.63296"},{"label":"Néa Chalkidóna","lat":"38.0271","lng":"23.73051"},{"label":"Néa Éfesos","lat":"40.22923","lng":"22.49811"},{"label":"Néa Erythraía","lat":"38.0927","lng":"23.82223"},{"label":"Néa Filadélfeia","lat":"38.03491","lng":"23.73811"},{"label":"Néa Flogitá","lat":"40.26108","lng":"23.22107"},{"label":"Néa Fókaia","lat":"40.13333","lng":"23.39754"},{"label":"Néa Ionía","lat":"38.0357","lng":"23.75733"},{"label":"Néa Ionía","lat":"39.37904","lng":"22.92752"},{"label":"Néa Iraklítsa","lat":"40.86442","lng":"24.3165"},{"label":"Néa Kallikráteia","lat":"40.31312","lng":"23.06343"},{"label":"Néa Karváli","lat":"40.96148","lng":"24.51132"},{"label":"Néa Karyá","lat":"40.90621","lng":"24.70726"},{"label":"Néa Kerasiá","lat":"40.47539","lng":"22.86891"},{"label":"Néa Kíos","lat":"37.59023","lng":"22.74342"},{"label":"Néa Lámpsakos","lat":"38.43729","lng":"23.62824"},{"label":"Nea Lava","lat":"40.19048","lng":"22.0132"},{"label":"Néa Mádytos","lat":"40.62275","lng":"23.56102"},{"label":"Néa Magnisía","lat":"40.68785","lng":"22.84582"},{"label":"Néa Mákri","lat":"38.08733","lng":"23.97642"},{"label":"Néa Málgara","lat":"40.60985","lng":"22.68196"},{"label":"Néa Manoláda","lat":"38.05378","lng":"21.38189"},{"label":"Néa Mesimvría","lat":"40.75158","lng":"22.76904"},{"label":"Néa Michanióna","lat":"40.46371","lng":"22.8617"},{"label":"Néa Moudhaniá","lat":"40.2439","lng":"23.28484"},{"label":"Néa Palátia","lat":"38.31942","lng":"23.79649"},{"label":"Néa Pélla","lat":"40.76516","lng":"22.49173"},{"label":"Néa Pentéli","lat":"38.06059","lng":"23.85926"},{"label":"Néa Péramos","lat":"38.00647","lng":"23.42348"},{"label":"Néa Péramos","lat":"40.83854","lng":"24.3013"},{"label":"Néa Plágia","lat":"40.26537","lng":"23.20376"},{"label":"Néa Poteídaia","lat":"40.19409","lng":"23.32832"},{"label":"Néa Potídhaia","lat":"40.19428","lng":"23.32874"},{"label":"Néa Raidestós","lat":"40.52447","lng":"23.05375"},{"label":"Néa Róda","lat":"40.38119","lng":"23.92374"},{"label":"Néa Sánta","lat":"40.84084","lng":"22.92163"},{"label":"Néa Seléfkeia","lat":"39.52461","lng":"20.25519"},{"label":"Néa Smýrni","lat":"37.94504","lng":"23.71416"},{"label":"Néa Stíra","lat":"38.17935","lng":"24.20842"},{"label":"Néa Tírins","lat":"37.60793","lng":"22.81996"},{"label":"Néa Tríglia","lat":"40.30575","lng":"23.2066"},{"label":"Néa Vrasná","lat":"40.70592","lng":"23.6985"},{"label":"Néa Výssa","lat":"41.58449","lng":"26.54318"},{"label":"Néa Zíchni","lat":"41.03204","lng":"23.8287"},{"label":"Neapoli","lat":"40.6532","lng":"22.94156"},{"label":"Neápoli","lat":"35.25627","lng":"25.60415"},{"label":"Neápolis","lat":"38.67144","lng":"21.36274"},{"label":"Neméa","lat":"37.82068","lng":"22.66102"},{"label":"Néo Agionéri","lat":"40.80826","lng":"22.70733"},{"label":"Néo Petrítsi","lat":"41.27459","lng":"23.29381"},{"label":"Néo Psychikó","lat":"38.00624","lng":"23.78373"},{"label":"Néo Rýsi","lat":"40.49605","lng":"22.98794"},{"label":"Néo Soúli","lat":"41.09397","lng":"23.64376"},{"label":"Neochóri","lat":"39.07025","lng":"21.01892"},{"label":"Neochóri","lat":"37.90794","lng":"21.20392"},{"label":"Neochóri","lat":"41.51131","lng":"26.4574"},{"label":"Neochóri","lat":"41.05231","lng":"23.57997"},{"label":"Neochórion","lat":"38.40847","lng":"21.27511"},{"label":"Neochorópoulo","lat":"39.62553","lng":"20.83558"},{"label":"Neochoroúda","lat":"40.73817","lng":"22.87557"},{"label":"Néoi Epivátes","lat":"40.49863","lng":"22.91192"},{"label":"Néon Karlovásion","lat":"37.79209","lng":"26.7049"},{"label":"Néon Monastírion","lat":"39.23988","lng":"22.27465"},{"label":"Néos Marmarás","lat":"40.0961","lng":"23.78323"},{"label":"Néos Mylótopos","lat":"40.81872","lng":"22.35489"},{"label":"Néos Oropós","lat":"39.15064","lng":"20.73636"},{"label":"Néos Skopós","lat":"41.0239","lng":"23.60927"},{"label":"Neos Voutzás","lat":"38.04312","lng":"23.97749"},{"label":"Nerokoúros","lat":"35.47587","lng":"24.03995"},{"label":"Nestório","lat":"40.41278","lng":"21.06222"},{"label":"Nigríta","lat":"40.90528","lng":"23.49944"},{"label":"Níkaia","lat":"39.56667","lng":"22.46667"},{"label":"Níkaia","lat":"37.96667","lng":"23.65"},{"label":"Nikísiani","lat":"40.94739","lng":"24.14311"},{"label":"Níkiti","lat":"40.22204","lng":"23.66837"},{"label":"Nisí","lat":"40.6361","lng":"22.38884"},{"label":"Oía","lat":"36.4626","lng":"25.37637"},{"label":"Oichalía","lat":"39.60827","lng":"21.97996"},{"label":"Oinófyta","lat":"38.31163","lng":"23.64"},{"label":"Oinoússes","lat":"38.51458","lng":"26.22241"},{"label":"Ólynthos","lat":"40.29147","lng":"23.34205"},{"label":"Omvriakí","lat":"39.10118","lng":"22.27106"},{"label":"Oraiókastro","lat":"40.73083","lng":"22.91722"},{"label":"Orchomenós","lat":"38.4929","lng":"22.97962"},{"label":"Oreoí","lat":"38.95034","lng":"23.09191"},{"label":"Orestiáda","lat":"41.50306","lng":"26.52972"},{"label":"Ormýlia","lat":"40.29451","lng":"23.54332"},{"label":"Ornós","lat":"37.42391","lng":"25.32248"},{"label":"Oropós","lat":"38.30326","lng":"23.75549"},{"label":"Ouranoupolis","lat":"40.33333","lng":"23.98333"},{"label":"Ovriá","lat":"38.18866","lng":"21.72903"},{"label":"Oxílithos","lat":"38.57988","lng":"24.11184"},{"label":"Páchni","lat":"41.30506","lng":"24.89438"},{"label":"Paianía","lat":"37.95527","lng":"23.85443"},{"label":"Palaiá Epídavros","lat":"37.63847","lng":"23.15609"},{"label":"Palaiá Fókaia","lat":"37.71998","lng":"23.94792"},{"label":"Palaífyto","lat":"40.78283","lng":"22.27388"},{"label":"Palaió Fáliro","lat":"37.92812","lng":"23.70105"},{"label":"Palaió Tsiflíki","lat":"40.90495","lng":"24.35083"},{"label":"Palaióchora","lat":"35.23128","lng":"23.68185"},{"label":"Palaiochóri","lat":"40.94338","lng":"24.17747"},{"label":"Palaiochóri","lat":"40.49186","lng":"23.64928"},{"label":"Palaiókipos","lat":"39.05563","lng":"26.45053"},{"label":"Palaiokómi","lat":"40.87068","lng":"23.90121"},{"label":"Palaiomonástiro","lat":"39.46269","lng":"21.65793"},{"label":"Palaiópyrgos","lat":"39.60845","lng":"21.8172"},{"label":"Pálairos","lat":"38.783","lng":"20.88183"},{"label":"Palamás","lat":"39.46667","lng":"22.08333"},{"label":"Palekastro","lat":"35.19793","lng":"26.25429"},{"label":"Pallíni","lat":"38.00514","lng":"23.88302"},{"label":"Pámfila","lat":"39.15697","lng":"26.5217"},{"label":"Panaitólion","lat":"38.58316","lng":"21.44729"},{"label":"Panórama","lat":"40.58779","lng":"23.0315"},{"label":"Pánormos","lat":"35.41815","lng":"24.69091"},{"label":"Pánormos","lat":"36.97156","lng":"26.93727"},{"label":"Papágou","lat":"37.98642","lng":"23.79347"},{"label":"Pappadátes","lat":"39.31444","lng":"20.79314"},{"label":"Pappadhátai","lat":"38.52816","lng":"21.45016"},{"label":"Pappádos","lat":"39.03905","lng":"26.45598"},{"label":"Paralía","lat":"38.19833","lng":"21.70263"},{"label":"Paralía","lat":"40.2671","lng":"22.59615"},{"label":"Paralía Avlídhos","lat":"38.38002","lng":"23.62842"},{"label":"Paralía Ofryníou","lat":"40.76663","lng":"23.90039"},{"label":"Paralía Vérgas","lat":"37.00708","lng":"22.15676"},{"label":"Paramythiá","lat":"39.47111","lng":"20.51111"},{"label":"Paranésti","lat":"41.26667","lng":"24.5"},{"label":"Parapótamos","lat":"39.54858","lng":"20.32436"},{"label":"Paravóla","lat":"38.61472","lng":"21.52046"},{"label":"Párga","lat":"39.28572","lng":"20.40044"},{"label":"Páros","lat":"37.08333","lng":"25.15"},{"label":"Pásion","lat":"38.01294","lng":"22.72814"},{"label":"Patitírion","lat":"39.14657","lng":"23.86494"},{"label":"Pátmos","lat":"37.30895","lng":"26.54723"},{"label":"Pátra","lat":"38.24444","lng":"21.73444"},{"label":"Patrída","lat":"40.56071","lng":"22.18545"},{"label":"Pediní","lat":"39.59994","lng":"20.84261"},{"label":"Péfka","lat":"40.65806","lng":"22.99378"},{"label":"Péfki","lat":"38.06019","lng":"23.79264"},{"label":"Pefkochóri","lat":"39.98784","lng":"23.61219"},{"label":"Pelasgía","lat":"38.94813","lng":"22.8398"},{"label":"Pélla","lat":"40.76169","lng":"22.52637"},{"label":"Pelópi","lat":"37.67444","lng":"21.59344"},{"label":"Pentálofos","lat":"40.74296","lng":"22.85256"},{"label":"Pentaplátano","lat":"40.81902","lng":"22.41903"},{"label":"Pentéli","lat":"38.05","lng":"23.86667"},{"label":"Péplos","lat":"40.95755","lng":"26.26577"},{"label":"Perachóra","lat":"38.03021","lng":"22.94902"},{"label":"Peraía","lat":"40.49874","lng":"22.92617"},{"label":"Perama","lat":"39.58289","lng":"19.9122"},{"label":"Pérama","lat":"39.69331","lng":"20.84656"},{"label":"Pérama","lat":"37.96775","lng":"23.5721"},{"label":"Pérama","lat":"35.3703","lng":"24.70345"},{"label":"Pérdika","lat":"39.36967","lng":"20.30419"},{"label":"Perístasi","lat":"40.27443","lng":"22.54164"},{"label":"Peristéri","lat":"38.01539","lng":"23.69187"},{"label":"Perivolákion","lat":"40.74418","lng":"23.03571"},{"label":"Perivóli","lat":"39.41936","lng":"20.01469"},{"label":"Perivólia","lat":"35.48491","lng":"23.99421"},{"label":"Periyiáli","lat":"37.94041","lng":"22.83946"},{"label":"Péta","lat":"39.16667","lng":"21.03472"},{"label":"Peteinós","lat":"41.10056","lng":"24.89847"},{"label":"Pétra","lat":"39.32682","lng":"26.17648"},{"label":"Petrochóri","lat":"41.08742","lng":"24.84092"},{"label":"Petroúpolis","lat":"38.04187","lng":"23.68494"},{"label":"Petroússa","lat":"41.1947","lng":"24.01731"},{"label":"Pigí","lat":"39.51061","lng":"21.70103"},{"label":"Pikérmi","lat":"38.00161","lng":"23.94075"},{"label":"Piraeus","lat":"37.94203","lng":"23.64619"},{"label":"Pithári","lat":"35.51672","lng":"24.08653"},{"label":"Plagiári","lat":"40.47276","lng":"22.9579"},{"label":"Pláka Dílesi","lat":"38.3495","lng":"23.65056"},{"label":"Platanórevma","lat":"40.20083","lng":"22.02488"},{"label":"Plátanos","lat":"37.66731","lng":"21.61108"},{"label":"Platariá","lat":"39.45044","lng":"20.27781"},{"label":"Platý","lat":"40.64241","lng":"22.53458"},{"label":"Platýkampos","lat":"39.61667","lng":"22.53333"},{"label":"Plomári","lat":"38.97527","lng":"26.37137"},{"label":"Políchni","lat":"40.66671","lng":"22.94881"},{"label":"Polichnítos","lat":"39.07911","lng":"26.18215"},{"label":"Politiká","lat":"38.59673","lng":"23.54457"},{"label":"Polydéndri","lat":"38.216","lng":"23.86806"},{"label":"Polýgyros","lat":"40.37704","lng":"23.44135"},{"label":"Polykárpi","lat":"40.92598","lng":"22.01634"},{"label":"Polýkastro","lat":"40.99444","lng":"22.56909"},{"label":"Pontisméno","lat":"41.20885","lng":"23.28325"},{"label":"Póros","lat":"38.15369","lng":"20.7712"},{"label":"Póros","lat":"37.49944","lng":"23.45361"},{"label":"Portariá","lat":"39.3895","lng":"22.99948"},{"label":"Portariá","lat":"40.28405","lng":"23.29549"},{"label":"Pórto Chéli","lat":"37.32786","lng":"23.14384"},{"label":"Potamiá","lat":"40.71633","lng":"24.72859"},{"label":"Potamós","lat":"39.6242","lng":"19.87826"},{"label":"Prámanta","lat":"39.52306","lng":"21.10139"},{"label":"Préveza","lat":"38.95617","lng":"20.7505"},{"label":"Prínos","lat":"40.7409","lng":"24.57787"},{"label":"Proástio","lat":"39.48682","lng":"21.90288"},{"label":"Próchoma","lat":"40.79826","lng":"22.66659"},{"label":"Profítis Ilías","lat":"35.20555","lng":"25.09985"},{"label":"Profítis Ilías","lat":"40.81373","lng":"22.16166"},{"label":"Prokópi","lat":"38.73402","lng":"23.4906"},{"label":"Prómachoi","lat":"41.02517","lng":"22.00437"},{"label":"Prosotsáni","lat":"41.18333","lng":"23.96667"},{"label":"Próti","lat":"40.94411","lng":"24.00118"},{"label":"Provatás","lat":"41.06825","lng":"23.3903"},{"label":"Psachná","lat":"38.57852","lng":"23.64326"},{"label":"Psará","lat":"38.54097","lng":"25.56287"},{"label":"Psychikó","lat":"38.01324","lng":"23.77223"},{"label":"Pteleós","lat":"39.05261","lng":"22.95271"},{"label":"Ptolemaḯda","lat":"40.51472","lng":"21.67861"},{"label":"Pylaía","lat":"40.59918","lng":"22.98613"},{"label":"Pylí","lat":"36.84472","lng":"27.15932"},{"label":"Pýli","lat":"39.45806","lng":"21.61889"},{"label":"Pýlos","lat":"36.91298","lng":"21.6965"},{"label":"Pyrgetós","lat":"39.91869","lng":"22.59339"},{"label":"Pyrgetós","lat":"39.55276","lng":"21.74846"},{"label":"Pýrgos","lat":"37.67513","lng":"21.44102"},{"label":"Pýrgos","lat":"35.00611","lng":"25.15191"},{"label":"Pythagóreio","lat":"37.69102","lng":"26.94341"},{"label":"Rafína","lat":"38.01812","lng":"24.00599"},{"label":"Rethymno","lat":"35.36555","lng":"24.48232"},{"label":"Río","lat":"38.29558","lng":"21.78504"},{"label":"Ritíni","lat":"40.28835","lng":"22.28361"},{"label":"Rizári","lat":"40.78373","lng":"22.088"},{"label":"Rízia","lat":"41.6249","lng":"26.42771"},{"label":"Rizó","lat":"40.73331","lng":"22.13674"},{"label":"Rízoma","lat":"39.66432","lng":"21.73541"},{"label":"Rizómata","lat":"40.35061","lng":"22.21079"},{"label":"Rizómylos","lat":"39.42763","lng":"22.74717"},{"label":"Rodhítsa","lat":"38.88829","lng":"22.4641"},{"label":"Rododáfni","lat":"38.26976","lng":"22.04875"},{"label":"Rodolívos","lat":"40.92055","lng":"23.97489"},{"label":"Rodópoli","lat":"38.11669","lng":"23.87572"},{"label":"Ródos","lat":"36.43556","lng":"28.22199"},{"label":"Rodotópi","lat":"39.70822","lng":"20.72656"},{"label":"Roviés","lat":"38.80971","lng":"23.23073"},{"label":"Royítika","lat":"38.18268","lng":"21.68414"},{"label":"Salamína","lat":"37.96427","lng":"23.49649"},{"label":"Sámi","lat":"38.25081","lng":"20.64686"},{"label":"Samos","lat":"37.75427","lng":"26.97699"},{"label":"Samothráki","lat":"40.47333","lng":"25.52222"},{"label":"Sápes","lat":"41.02861","lng":"25.69306"},{"label":"Sardínia","lat":"38.89003","lng":"21.20619"},{"label":"Saronída","lat":"37.74809","lng":"23.91059"},{"label":"Sárti","lat":"40.09369","lng":"23.97859"},{"label":"Savália","lat":"37.82158","lng":"21.29425"},{"label":"Schimatári","lat":"38.35","lng":"23.58333"},{"label":"Schísma Eloúndas","lat":"35.25757","lng":"25.72796"},{"label":"Sélero","lat":"41.13382","lng":"24.99408"},{"label":"Selínia","lat":"37.9332","lng":"23.53147"},{"label":"Sérifos","lat":"37.15397","lng":"24.50614"},{"label":"Sérres","lat":"41.08499","lng":"23.54757"},{"label":"Sérvia","lat":"40.17972","lng":"21.99444"},{"label":"Sevastianá","lat":"40.76874","lng":"22.12346"},{"label":"Sfendámi","lat":"40.41307","lng":"22.54677"},{"label":"Siátista","lat":"40.26194","lng":"21.54417"},{"label":"Sidirókastro","lat":"41.23499","lng":"23.38899"},{"label":"Síkinos","lat":"36.7","lng":"25.11667"},{"label":"Sikyón","lat":"37.9823","lng":"22.72462"},{"label":"Símantra","lat":"40.34563","lng":"23.31026"},{"label":"Síndos","lat":"40.67045","lng":"22.80545"},{"label":"Sísion","lat":"35.3077","lng":"25.52021"},{"label":"Sitagroí","lat":"41.11067","lng":"24.02755"},{"label":"Sitia","lat":"35.20783","lng":"26.10467"},{"label":"Skála","lat":"37.32218","lng":"26.543"},{"label":"Skála","lat":"36.85","lng":"22.66667"},{"label":"Skála Oropoú","lat":"38.31964","lng":"23.78763"},{"label":"Skalánion","lat":"35.28262","lng":"25.18684"},{"label":"Skarmagkás","lat":"38.01133","lng":"23.60303"},{"label":"Skiáthos","lat":"39.16227","lng":"23.49089"},{"label":"Skópelos","lat":"39.12144","lng":"23.72686"},{"label":"Skópelos","lat":"39.02922","lng":"26.44836"},{"label":"Skotoússa","lat":"41.12844","lng":"23.38174"},{"label":"Skoútari","lat":"41.01871","lng":"23.51971"},{"label":"Skýdra","lat":"40.76722","lng":"22.15194"},{"label":"Skýros","lat":"38.90417","lng":"24.56306"},{"label":"Smínthi","lat":"41.23064","lng":"24.88"},{"label":"Sochós","lat":"40.81788","lng":"23.35546"},{"label":"Sofádes","lat":"39.33333","lng":"22.1"},{"label":"Sofikón","lat":"37.79412","lng":"23.05204"},{"label":"Sosándra","lat":"40.99894","lng":"22.03254"},{"label":"Soúda","lat":"35.48717","lng":"24.07344"},{"label":"Souflí","lat":"41.19194","lng":"26.29944"},{"label":"Sourotí","lat":"40.47274","lng":"23.09197"},{"label":"Soúrpi","lat":"39.10319","lng":"22.89789"},{"label":"Sparta","lat":"37.07446","lng":"22.43009"},{"label":"Spáta","lat":"37.96163","lng":"23.91514"},{"label":"Spercheiáda","lat":"38.90656","lng":"22.12792"},{"label":"Sperchógeia","lat":"37.07405","lng":"22.06248"},{"label":"Spétses","lat":"37.26191","lng":"23.15943"},{"label":"Stalís","lat":"35.29257","lng":"25.43292"},{"label":"Stamáta","lat":"38.12546","lng":"23.88038"},{"label":"Stános","lat":"38.80453","lng":"21.17461"},{"label":"Stathmós Mourión","lat":"41.26378","lng":"22.83855"},{"label":"Stavráki","lat":"39.65614","lng":"20.81806"},{"label":"Stavrós","lat":"38.89641","lng":"22.37082"},{"label":"Stavrós","lat":"40.66498","lng":"23.70015"},{"label":"Stavrós","lat":"40.58939","lng":"22.30861"},{"label":"Stavroúpoli","lat":"40.66944","lng":"22.93806"},{"label":"Stefanovíkeio","lat":"39.46354","lng":"22.74198"},{"label":"Steíri","lat":"38.40831","lng":"22.71162"},{"label":"Stratónion","lat":"40.51406","lng":"23.82471"},{"label":"Strymonikó","lat":"41.04144","lng":"23.31487"},{"label":"Stylída","lat":"38.91667","lng":"22.61667"},{"label":"Stýpsi","lat":"39.31121","lng":"26.22056"},{"label":"Svorónos","lat":"40.26805","lng":"22.46366"},{"label":"Sykiá","lat":"36.76398","lng":"22.94302"},{"label":"Sykiá","lat":"40.03874","lng":"23.94046"},{"label":"Sykiés","lat":"40.64944","lng":"22.95083"},{"label":"Sykoúrio","lat":"39.75947","lng":"22.58"},{"label":"Sylivainiótika","lat":"38.16139","lng":"22.33156"},{"label":"Sými","lat":"36.61547","lng":"27.83619"},{"label":"Synoikismós Chavaríou","lat":"37.85575","lng":"21.38789"},{"label":"Tagarádes","lat":"40.48893","lng":"23.02229"},{"label":"Távros","lat":"37.97064","lng":"23.69043"},{"label":"Taxiárches","lat":"39.57565","lng":"21.89245"},{"label":"Témeni","lat":"38.23707","lng":"22.12533"},{"label":"Terpní","lat":"40.91643","lng":"23.48137"},{"label":"Terpsithéa","lat":"39.61898","lng":"22.35087"},{"label":"Thásos","lat":"40.77806","lng":"24.70944"},{"label":"Thérmi","lat":"40.54712","lng":"23.01967"},{"label":"Thérmo","lat":"38.57358","lng":"21.66628"},{"label":"Thespiés","lat":"38.303","lng":"23.15016"},{"label":"Thesprotikó","lat":"39.25114","lng":"20.78528"},{"label":"Thessaloníki","lat":"40.64361","lng":"22.93086"},{"label":"Thívai","lat":"38.325","lng":"23.31889"},{"label":"Thouría","lat":"37.08356","lng":"22.04891"},{"label":"Thrakomakedónes","lat":"38.12964","lng":"23.75751"},{"label":"Thrapsanón","lat":"35.18798","lng":"25.28091"},{"label":"Thymianá","lat":"38.31439","lng":"26.13259"},{"label":"Tílisos","lat":"35.29607","lng":"25.01587"},{"label":"Tínos","lat":"37.53753","lng":"25.16343"},{"label":"Tolón","lat":"37.52021","lng":"22.8586"},{"label":"Traganón","lat":"37.89789","lng":"21.31245"},{"label":"Triandaíika","lat":"38.6553","lng":"21.38315"},{"label":"Triandría","lat":"40.615","lng":"22.9762"},{"label":"Tríkala","lat":"39.55493","lng":"21.76837"},{"label":"Tríkala","lat":"40.59814","lng":"22.55733"},{"label":"Tríkeri","lat":"39.10114","lng":"23.07669"},{"label":"Trílofos","lat":"40.46898","lng":"22.9718"},{"label":"Trípoli","lat":"37.50889","lng":"22.37944"},{"label":"Tsarítsani","lat":"39.88117","lng":"22.22758"},{"label":"Tsiflikópoulo","lat":"39.65624","lng":"20.83882"},{"label":"Tsikalariá","lat":"35.47623","lng":"24.06274"},{"label":"Tsotíli","lat":"40.26147","lng":"21.32533"},{"label":"Tycheró","lat":"41.02878","lng":"26.29455"},{"label":"Tympáki","lat":"35.07286","lng":"24.76851"},{"label":"Týrnavos","lat":"39.73778","lng":"22.28917"},{"label":"Vágia","lat":"38.31748","lng":"23.17752"},{"label":"Valsamáta","lat":"38.176","lng":"20.58392"},{"label":"Valteró","lat":"41.17927","lng":"23.32022"},{"label":"Vamvakófyto","lat":"41.17916","lng":"23.39602"},{"label":"Vamvakoú","lat":"39.33708","lng":"22.41983"},{"label":"Vanáton","lat":"37.79446","lng":"20.85188"},{"label":"Várda","lat":"38.03058","lng":"21.36506"},{"label":"Vareiá","lat":"39.07941","lng":"26.57777"},{"label":"Vári","lat":"37.8332","lng":"23.80311"},{"label":"Vári","lat":"37.39859","lng":"24.94904"},{"label":"Varnávas","lat":"38.22358","lng":"23.92307"},{"label":"Vartholomió","lat":"37.86219","lng":"21.20575"},{"label":"Varvásaina","lat":"37.67106","lng":"21.49886"},{"label":"Varybóbi","lat":"38.12723","lng":"23.78729"},{"label":"Vasiliká","lat":"40.47966","lng":"23.13695"},{"label":"Vasilikí","lat":"39.63984","lng":"21.70448"},{"label":"Vasilikón","lat":"38.42586","lng":"23.67189"},{"label":"Vassilies","lat":"35.27064","lng":"25.13783"},{"label":"Vathí","lat":"38.4049","lng":"23.60332"},{"label":"Vathý","lat":"37.7642","lng":"23.48011"},{"label":"Vathý","lat":"37.74692","lng":"26.98316"},{"label":"Vathýlakkos","lat":"40.76942","lng":"22.7088"},{"label":"Velestíno","lat":"39.38181","lng":"22.74616"},{"label":"Vélo","lat":"37.9761","lng":"22.75985"},{"label":"Velventós","lat":"40.25532","lng":"22.07543"},{"label":"Verdikoússa","lat":"39.78175","lng":"21.97728"},{"label":"Vergína","lat":"40.48654","lng":"22.31735"},{"label":"Véroia","lat":"40.52437","lng":"22.20242"},{"label":"Vília","lat":"38.16716","lng":"23.33659"},{"label":"Violí Charáki","lat":"35.35864","lng":"24.43857"},{"label":"Virós","lat":"39.5834","lng":"19.8827"},{"label":"Vlachiótis","lat":"36.86094","lng":"22.70831"},{"label":"Vlachópoulo","lat":"37.03186","lng":"21.79158"},{"label":"Vlycháda","lat":"38.02734","lng":"23.43663"},{"label":"Vokhaïkó","lat":"37.94843","lng":"22.79203"},{"label":"Vólakas","lat":"41.31661","lng":"24.00215"},{"label":"Volos","lat":"39.36923","lng":"22.94769"},{"label":"Vónitsa","lat":"38.91639","lng":"20.88639"},{"label":"Voúla","lat":"37.84221","lng":"23.77651"},{"label":"Voulgaréli","lat":"39.37194","lng":"21.18333"},{"label":"Vouliagméni","lat":"37.81423","lng":"23.77892"},{"label":"Vounoplagiá","lat":"39.69161","lng":"20.78597"},{"label":"Vrachnaíika","lat":"38.16253","lng":"21.66693"},{"label":"Vrakháti","lat":"37.95895","lng":"22.80573"},{"label":"Vraná","lat":"38.12497","lng":"23.95198"},{"label":"Vrilissia","lat":"38.03381","lng":"23.82962"},{"label":"Vrontádos","lat":"38.40876","lng":"26.12948"},{"label":"Vrontoú","lat":"40.19356","lng":"22.43203"},{"label":"Vrýses","lat":"35.37585","lng":"24.20109"},{"label":"Výronas","lat":"37.96105","lng":"23.753"},{"label":"Xánthi","lat":"41.13488","lng":"24.888"},{"label":"Xilópolis","lat":"40.92669","lng":"23.17854"},{"label":"Xinó Neró","lat":"40.69028","lng":"21.62324"},{"label":"Xinos","lat":"37.05724","lng":"22.0055"},{"label":"Xiropótamos","lat":"41.19206","lng":"24.10385"},{"label":"Xylaganí","lat":"40.97437","lng":"25.42022"},{"label":"Xylókastro","lat":"38.07762","lng":"22.63166"},{"label":"Ýdra","lat":"37.34976","lng":"23.4656"},{"label":"Yimnón","lat":"38.44048","lng":"23.884"},{"label":"Ymittos","lat":"37.95342","lng":"23.74897"},{"label":"Zacháro","lat":"37.48333","lng":"21.65"},{"label":"Zagkliveri","lat":"40.57146","lng":"23.28878"},{"label":"Zagorá","lat":"39.45","lng":"23.1"},{"label":"Zakynthos","lat":"37.78022","lng":"20.89555"},{"label":"Zárkos","lat":"39.6086","lng":"22.12336"},{"label":"Zarós","lat":"35.1303","lng":"24.90412"},{"label":"Zefyri","lat":"38.06647","lng":"23.71701"},{"label":"Zevgolateió","lat":"37.93333","lng":"22.8"},{"label":"Zipári","lat":"36.87696","lng":"27.20532"},{"label":"Zográfos","lat":"37.97574","lng":"23.76911"},{"label":"Zygós","lat":"41.0132","lng":"24.38132"}]