[{"label":"Abano Terme","lat":"45.35753","lng":"11.78725"},{"label":"Abbadia Cerreto","lat":"45.31217","lng":"9.59416"},{"label":"Abbadia Lariana","lat":"45.89947","lng":"9.33518"},{"label":"Abbadia San Salvatore","lat":"42.8812","lng":"11.6722"},{"label":"Abbasanta","lat":"40.12812","lng":"8.8176"},{"label":"Abbateggio","lat":"42.22421","lng":"14.01001"},{"label":"Abbazia","lat":"45.748","lng":"9.84205"},{"label":"Abbazia Pisani","lat":"45.6127","lng":"11.85429"},{"label":"Abbiategrasso","lat":"45.39821","lng":"8.91678"},{"label":"Abetone","lat":"44.14595","lng":"10.66407"},{"label":"Abriola","lat":"40.50748","lng":"15.8131"},{"label":"Acate","lat":"37.02318","lng":"14.49302"},{"label":"Accadia","lat":"41.15768","lng":"15.331"},{"label":"Acceglio","lat":"44.47463","lng":"6.99092"},{"label":"Accettura","lat":"40.49102","lng":"16.15798"},{"label":"Acciano","lat":"42.17677","lng":"13.71783"},{"label":"Acconia","lat":"38.83585","lng":"16.2653"},{"label":"Accumoli","lat":"42.69476","lng":"13.24761"},{"label":"Acerenza","lat":"40.79386","lng":"15.93808"},{"label":"Acerno","lat":"40.73771","lng":"15.05695"},{"label":"Acerra","lat":"40.94477","lng":"14.3714"},{"label":"Aci Bonaccorsi","lat":"37.5964","lng":"15.10724"},{"label":"Aci Castello","lat":"37.55564","lng":"15.14535"},{"label":"Aci Catena","lat":"37.60614","lng":"15.14165"},{"label":"Aci Sant'Antonio","lat":"37.60499","lng":"15.12294"},{"label":"Aci Trezza","lat":"37.56385","lng":"15.16136"},{"label":"Acilia-Castel Fusano-Ostia Antica","lat":"41.76337","lng":"12.33078"},{"label":"Acireale","lat":"37.60886","lng":"15.16577"},{"label":"Acitrezza","lat":"37.5596","lng":"15.1599"},{"label":"Acquafondata","lat":"41.54282","lng":"13.95281"},{"label":"Acquaformosa","lat":"39.72278","lng":"16.09096"},{"label":"Acquafredda","lat":"45.30697","lng":"10.41343"},{"label":"Acqualagna","lat":"43.62606","lng":"12.67596"},{"label":"Acquanegra Cremonese","lat":"45.16864","lng":"9.89074"},{"label":"Acquanegra sul Chiese","lat":"45.16404","lng":"10.43323"},{"label":"Acquapendente","lat":"42.74259","lng":"11.86827"},{"label":"Acquappesa","lat":"39.49573","lng":"15.95419"},{"label":"Acquarica del Capo","lat":"39.90979","lng":"18.2468"},{"label":"Acquaro","lat":"38.55729","lng":"16.18781"},{"label":"Acquasanta Terme","lat":"42.77084","lng":"13.41418"},{"label":"Acquasparta","lat":"42.68915","lng":"12.54275"},{"label":"Acquaviva","lat":"43.11566","lng":"11.86249"},{"label":"Acquaviva Collecroce","lat":"41.86624","lng":"14.74733"},{"label":"Acquaviva d'Isernia","lat":"41.67132","lng":"14.1477"},{"label":"Acquaviva delle Fonti","lat":"40.89704","lng":"16.8433"},{"label":"Acquaviva Picena","lat":"42.94037","lng":"13.82227"},{"label":"Acquaviva Platani","lat":"37.57174","lng":"13.70156"},{"label":"Acquedolci","lat":"38.05708","lng":"14.5855"},{"label":"Acqui Terme","lat":"44.67552","lng":"8.46934"},{"label":"Acri","lat":"39.49624","lng":"16.38635"},{"label":"Acuto","lat":"41.79107","lng":"13.17446"},{"label":"Adelfia","lat":"41.0033","lng":"16.87208"},{"label":"Adrano","lat":"37.66358","lng":"14.83283"},{"label":"Adrara San Martino","lat":"45.70228","lng":"9.94896"},{"label":"Adrara San Rocco","lat":"45.71578","lng":"9.95906"},{"label":"Adria","lat":"45.05445","lng":"12.05599"},{"label":"Adro","lat":"45.62059","lng":"9.96159"},{"label":"Affi","lat":"45.55297","lng":"10.7864"},{"label":"Affile","lat":"41.88435","lng":"13.09853"},{"label":"Afragola","lat":"40.92298","lng":"14.30935"},{"label":"Africo Nuovo","lat":"38.05067","lng":"16.1332"},{"label":"Africo Vecchio","lat":"38.06667","lng":"15.98333"},{"label":"Agazzano","lat":"44.94726","lng":"9.51875"},{"label":"Agerola","lat":"40.63771","lng":"14.53884"},{"label":"Aggius","lat":"40.92995","lng":"9.06517"},{"label":"Agira","lat":"37.6558","lng":"14.51972"},{"label":"Agliana","lat":"43.90246","lng":"11.00531"},{"label":"Agliandroni-Paternella","lat":"38.1328","lng":"13.06884"},{"label":"Agliano","lat":"44.79164","lng":"8.25124"},{"label":"Agliano Terme","lat":"44.79025","lng":"8.25044"},{"label":"Agliè","lat":"45.368","lng":"7.768"},{"label":"Aglientu","lat":"41.07906","lng":"9.11267"},{"label":"Agna","lat":"45.17051","lng":"11.95625"},{"label":"Agnadello","lat":"45.44516","lng":"9.55408"},{"label":"Agnana Calabra","lat":"38.30206","lng":"16.22718"},{"label":"Agnone","lat":"41.81043","lng":"14.37524"},{"label":"Agnosine","lat":"45.64969","lng":"10.35267"},{"label":"Agordo","lat":"46.28201","lng":"12.03608"},{"label":"Agosta","lat":"41.98133","lng":"13.03499"},{"label":"Agra","lat":"46.03668","lng":"8.76833"},{"label":"Agrate","lat":"45.6754","lng":"8.56065"},{"label":"Agrate Brianza","lat":"45.57431","lng":"9.34793"},{"label":"Agrate Conturbia","lat":"45.67547","lng":"8.55973"},{"label":"Agrigento","lat":"37.31065","lng":"13.57661"},{"label":"Agropoli","lat":"40.34923","lng":"14.99067"},{"label":"Agugliano","lat":"43.54368","lng":"13.38574"},{"label":"Agugliaro","lat":"45.3251","lng":"11.58496"},{"label":"Aicurzio","lat":"45.63998","lng":"9.41495"},{"label":"Aidomaggiore","lat":"40.17147","lng":"8.85679"},{"label":"Aidone","lat":"37.41468","lng":"14.44542"},{"label":"Aielli","lat":"42.08146","lng":"13.59113"},{"label":"Aiello Calabro","lat":"39.11785","lng":"16.16539"},{"label":"Aiello del Friuli","lat":"45.87276","lng":"13.36038"},{"label":"Aiello del Sabato","lat":"40.88847","lng":"14.82123"},{"label":"Aieta","lat":"39.9278","lng":"15.82348"},{"label":"Ailano","lat":"41.39001","lng":"14.20536"},{"label":"Ailoche","lat":"45.69812","lng":"8.22133"},{"label":"Airali","lat":"44.8167","lng":"7.25157"},{"label":"Airasca","lat":"44.91719","lng":"7.48322"},{"label":"Airola","lat":"41.05871","lng":"14.55924"},{"label":"Airole","lat":"43.87092","lng":"7.55414"},{"label":"Airuno","lat":"45.75352","lng":"9.42765"},{"label":"Aisone","lat":"44.31392","lng":"7.21963"},{"label":"Ala","lat":"45.76072","lng":"11.00458"},{"label":"Alà dei Sardi","lat":"40.65007","lng":"9.32783"},{"label":"Ala di Stura","lat":"45.31492","lng":"7.30345"},{"label":"Alagna","lat":"45.16917","lng":"8.88947"},{"label":"Alagna Valsesia","lat":"45.85182","lng":"7.93752"},{"label":"Alanno","lat":"42.29552","lng":"13.97084"},{"label":"Alano di Piave","lat":"45.90681","lng":"11.9084"},{"label":"Alassio","lat":"44.00393","lng":"8.16713"},{"label":"Alatri","lat":"41.73187","lng":"13.3412"},{"label":"Alba","lat":"44.6999","lng":"8.0347"},{"label":"Alba Adriatica","lat":"42.83176","lng":"13.9259"},{"label":"Albagiara","lat":"39.78724","lng":"8.86184"},{"label":"Albairate","lat":"45.41957","lng":"8.93744"},{"label":"Albanella","lat":"40.47943","lng":"15.11454"},{"label":"Albano di Lucania","lat":"40.58614","lng":"16.03712"},{"label":"Albano Laziale","lat":"41.72748","lng":"12.659"},{"label":"Albano Sant'Alessandro","lat":"45.68762","lng":"9.76651"},{"label":"Albano Vercellese","lat":"45.42616","lng":"8.38093"},{"label":"Albaredo","lat":"46.10293","lng":"9.59046"},{"label":"Albaredo","lat":"45.66725","lng":"12.01095"},{"label":"Albaredo d'Adige","lat":"45.31859","lng":"11.27843"},{"label":"Albareto","lat":"44.44692","lng":"9.70228"},{"label":"Albareto","lat":"44.68964","lng":"10.96713"},{"label":"Albaretto della Torre","lat":"44.59624","lng":"8.06464"},{"label":"Albavilla","lat":"45.80038","lng":"9.18504"},{"label":"Albenga","lat":"44.04997","lng":"8.21829"},{"label":"Albera Ligure","lat":"44.70159","lng":"9.0672"},{"label":"Alberi","lat":"44.74837","lng":"10.33045"},{"label":"Alberobello","lat":"40.78448","lng":"17.23618"},{"label":"Alberona","lat":"41.43225","lng":"15.12304"},{"label":"Albese Con Cassano","lat":"45.79488","lng":"9.16364"},{"label":"Albettone","lat":"45.35811","lng":"11.5843"},{"label":"Albi","lat":"39.02456","lng":"16.59721"},{"label":"Albiano","lat":"46.14451","lng":"11.19459"},{"label":"Albiano d'Ivrea","lat":"45.43424","lng":"7.94789"},{"label":"Albiano Magra","lat":"44.17574","lng":"9.91619"},{"label":"Albiate","lat":"45.65537","lng":"9.25035"},{"label":"Albidona","lat":"39.92332","lng":"16.47237"},{"label":"Albignano","lat":"45.50054","lng":"9.49299"},{"label":"Albignasego","lat":"45.34705","lng":"11.86781"},{"label":"Albinea","lat":"44.62859","lng":"10.61024"},{"label":"Albinia","lat":"42.50278","lng":"11.21027"},{"label":"Albino","lat":"45.76444","lng":"9.79904"},{"label":"Albiolo","lat":"45.80558","lng":"8.93924"},{"label":"Albisola Marina","lat":"44.33079","lng":"8.5096"},{"label":"Albisola Superiore","lat":"44.33889","lng":"8.51046"},{"label":"Albizzate","lat":"45.72698","lng":"8.80312"},{"label":"Albonese","lat":"45.29285","lng":"8.70615"},{"label":"Albosaggia","lat":"46.14749","lng":"9.85405"},{"label":"Albuccione","lat":"41.95245","lng":"12.69873"},{"label":"Albugnano","lat":"45.07755","lng":"7.97113"},{"label":"Albuzzano","lat":"45.18719","lng":"9.27383"},{"label":"Alcamo","lat":"37.9779","lng":"12.96473"},{"label":"Alcara Li Fusi","lat":"38.02143","lng":"14.70142"},{"label":"Aldeno","lat":"45.97758","lng":"11.09276"},{"label":"Aldino","lat":"46.36581","lng":"11.35508"},{"label":"Ales","lat":"39.7683","lng":"8.8152"},{"label":"Alessandria","lat":"44.90924","lng":"8.61007"},{"label":"Alessandria del Carretto","lat":"39.95874","lng":"16.37963"},{"label":"Alessandria della Rocca","lat":"37.56767","lng":"13.45343"},{"label":"Alessano","lat":"39.89381","lng":"18.33221"},{"label":"Alezio","lat":"40.06226","lng":"18.05712"},{"label":"Alfano","lat":"40.17687","lng":"15.4245"},{"label":"Alfedena","lat":"41.73545","lng":"14.035"},{"label":"Alfianello","lat":"45.26698","lng":"10.14817"},{"label":"Alfiano Natta","lat":"45.0486","lng":"8.2073"},{"label":"Alfonsine","lat":"44.50768","lng":"12.03743"},{"label":"Alghero","lat":"40.55969","lng":"8.31953"},{"label":"Algua","lat":"45.82584","lng":"9.72225"},{"label":"Alì","lat":"38.02678","lng":"15.4191"},{"label":"Alì Terme","lat":"38.00506","lng":"15.42269"},{"label":"Alia","lat":"37.77867","lng":"13.71391"},{"label":"Aliano","lat":"40.31359","lng":"16.22984"},{"label":"Alice Bel Colle","lat":"44.72605","lng":"8.45074"},{"label":"Alice Castello","lat":"45.3686","lng":"8.0732"},{"label":"Alice Superiore","lat":"45.46066","lng":"7.77922"},{"label":"Alife","lat":"41.32612","lng":"14.33403"},{"label":"Alimena","lat":"37.6931","lng":"14.11369"},{"label":"Aliminusa","lat":"37.86395","lng":"13.78126"},{"label":"Allai","lat":"39.95701","lng":"8.86354"},{"label":"Alleghe","lat":"46.40718","lng":"12.02336"},{"label":"Allein","lat":"45.80723","lng":"7.27262"},{"label":"Allerona","lat":"42.81174","lng":"11.97451"},{"label":"Alliste","lat":"39.94803","lng":"18.08971"},{"label":"Allumiere","lat":"42.15751","lng":"11.90361"},{"label":"Almè","lat":"45.73883","lng":"9.61558"},{"label":"Almenno San Bartolomeo","lat":"45.73912","lng":"9.58082"},{"label":"Almenno San Salvatore","lat":"45.74971","lng":"9.59699"},{"label":"Almese-Rivera","lat":"45.11915","lng":"7.40111"},{"label":"Alonte","lat":"45.36589","lng":"11.4271"},{"label":"Alpette","lat":"45.40917","lng":"7.57795"},{"label":"Alpignano","lat":"45.09346","lng":"7.52392"},{"label":"Alpo","lat":"45.37687","lng":"10.91979"},{"label":"Alseno","lat":"44.89759","lng":"9.96405"},{"label":"Alserio","lat":"45.77888","lng":"9.20014"},{"label":"Altamura","lat":"40.82664","lng":"16.54952"},{"label":"Altare","lat":"44.33566","lng":"8.33411"},{"label":"Altavilla Irpina","lat":"41.00619","lng":"14.78093"},{"label":"Altavilla Milicia","lat":"38.038","lng":"13.54947"},{"label":"Altavilla Monferrato","lat":"44.99355","lng":"8.37594"},{"label":"Altavilla Silentina","lat":"40.53012","lng":"15.13153"},{"label":"Altavilla Vicentina","lat":"45.51329","lng":"11.46877"},{"label":"Altedo","lat":"44.67057","lng":"11.49019"},{"label":"Altidona","lat":"43.10787","lng":"13.79617"},{"label":"Altilia","lat":"39.13049","lng":"16.25269"},{"label":"Altino","lat":"42.09954","lng":"14.33267"},{"label":"Altissimo","lat":"45.61429","lng":"11.25189"},{"label":"Altivole","lat":"45.7537","lng":"11.9562"},{"label":"Alto","lat":"44.10863","lng":"8.00215"},{"label":"Altofonte","lat":"38.04298","lng":"13.29434"},{"label":"Altomonte","lat":"39.699","lng":"16.12999"},{"label":"Altopascio","lat":"43.81618","lng":"10.67668"},{"label":"Alviano","lat":"42.59084","lng":"12.29775"},{"label":"Alvignano","lat":"41.24427","lng":"14.33671"},{"label":"Alvito","lat":"41.69002","lng":"13.74795"},{"label":"Alzano Lombardo","lat":"45.73681","lng":"9.72638"},{"label":"Alzano Scrivia","lat":"45.01806","lng":"8.88065"},{"label":"Alzate Brianza","lat":"45.76978","lng":"9.18204"},{"label":"Amalfi","lat":"40.6349","lng":"14.60238"},{"label":"Amandola","lat":"42.97826","lng":"13.35453"},{"label":"Amantea","lat":"39.12658","lng":"16.07512"},{"label":"Amaro","lat":"46.37367","lng":"13.09368"},{"label":"Amaroni","lat":"38.79424","lng":"16.44809"},{"label":"Amaseno","lat":"41.46705","lng":"13.33457"},{"label":"Amato","lat":"38.38333","lng":"16.13333"},{"label":"Amato","lat":"38.94179","lng":"16.4622"},{"label":"Amato","lat":"38.37355","lng":"15.96097"},{"label":"Amatrice","lat":"42.62664","lng":"13.29509"},{"label":"Ambivere","lat":"45.71958","lng":"9.55015"},{"label":"Amblar","lat":"46.39541","lng":"11.14677"},{"label":"Ambra","lat":"43.41465","lng":"11.60291"},{"label":"Ameglia","lat":"44.07089","lng":"9.966"},{"label":"Amelia","lat":"42.55177","lng":"12.42076"},{"label":"Amendolara","lat":"39.95162","lng":"16.58293"},{"label":"Ameno","lat":"45.78897","lng":"8.44"},{"label":"Amica","lat":"39.60085","lng":"16.66694"},{"label":"Amodio-Massariola","lat":"40.88872","lng":"14.09091"},{"label":"Amorosi","lat":"41.20273","lng":"14.46598"},{"label":"Ampezzo","lat":"46.41459","lng":"12.79634"},{"label":"Anacapri","lat":"40.5517","lng":"14.21225"},{"label":"Anagni","lat":"41.7435","lng":"13.15542"},{"label":"Ancarano","lat":"42.83767","lng":"13.74662"},{"label":"Anchione","lat":"43.82612","lng":"10.75844"},{"label":"Ancona","lat":"43.5942","lng":"13.50337"},{"label":"Andali","lat":"39.01281","lng":"16.76926"},{"label":"Andalo","lat":"46.16649","lng":"11.00432"},{"label":"Andalo Valtellino","lat":"46.13599","lng":"9.47384"},{"label":"Andezeno","lat":"45.03376","lng":"7.86607"},{"label":"Andora","lat":"43.95514","lng":"8.14121"},{"label":"Andorno Cacciorna","lat":"45.61054","lng":"8.05589"},{"label":"Andrano","lat":"39.98546","lng":"18.38232"},{"label":"Andrate","lat":"45.52633","lng":"7.88145"},{"label":"Andreis","lat":"46.20146","lng":"12.61448"},{"label":"Andreotta","lat":"39.3075","lng":"16.2177"},{"label":"Andretta-Mattinella","lat":"40.93742","lng":"15.32485"},{"label":"Andria","lat":"41.23117","lng":"16.29797"},{"label":"Andriano","lat":"46.51762","lng":"11.23137"},{"label":"Anduins","lat":"46.23311","lng":"12.95829"},{"label":"Anela","lat":"40.44176","lng":"9.05743"},{"label":"Anfo","lat":"45.76575","lng":"10.49382"},{"label":"Angera","lat":"45.77555","lng":"8.57861"},{"label":"Anghiari","lat":"43.54104","lng":"12.05832"},{"label":"Angiari","lat":"45.22318","lng":"11.2768"},{"label":"Angolo Terme","lat":"45.89168","lng":"10.14963"},{"label":"Angri","lat":"40.73815","lng":"14.5707"},{"label":"Angrogna","lat":"44.84354","lng":"7.22422"},{"label":"Anguillara Sabazia","lat":"42.0792","lng":"12.28368"},{"label":"Anguillara Veneta","lat":"45.14249","lng":"11.88461"},{"label":"Anitrella-Chiaiamari","lat":"41.63825","lng":"13.54835"},{"label":"Annicco","lat":"45.24344","lng":"9.87905"},{"label":"Annone di Brianza","lat":"45.80216","lng":"9.33119"},{"label":"Annone Veneto","lat":"45.78965","lng":"12.68646"},{"label":"Annunziata","lat":"41.121","lng":"14.36518"},{"label":"Anoia Inferiore","lat":"38.43618","lng":"16.0794"},{"label":"Anoia Superiore","lat":"38.43144","lng":"16.0974"},{"label":"Antagnod","lat":"45.81484","lng":"7.68931"},{"label":"Antegnate","lat":"45.48648","lng":"9.79146"},{"label":"Antella","lat":"43.72774","lng":"11.32233"},{"label":"Anterivo","lat":"46.2781","lng":"11.36665"},{"label":"Antessano","lat":"40.73293","lng":"14.77744"},{"label":"Antey-Saint-Andrè","lat":"45.80603","lng":"7.58666"},{"label":"Anticoli Corrado","lat":"42.00801","lng":"12.99049"},{"label":"Antignano","lat":"44.84535","lng":"8.13494"},{"label":"Antillo","lat":"37.97937","lng":"15.24029"},{"label":"Antonimina","lat":"38.27298","lng":"16.14824"},{"label":"Antrodoco","lat":"42.41498","lng":"13.07673"},{"label":"Antrona Schieranco","lat":"46.06038","lng":"8.11461"},{"label":"Antronapiana","lat":"46.06091","lng":"8.11519"},{"label":"Anversa degli Abruzzi","lat":"41.99478","lng":"13.80379"},{"label":"Anzano del Parco","lat":"45.77006","lng":"9.19752"},{"label":"Anzano di Puglia","lat":"41.12162","lng":"15.28688"},{"label":"Anzi","lat":"40.51662","lng":"15.92457"},{"label":"Anzio","lat":"41.45263","lng":"12.62157"},{"label":"Anzola d'Ossola","lat":"45.98897","lng":"8.34531"},{"label":"Anzola dell'Emilia","lat":"44.54197","lng":"11.20548"},{"label":"Aosta","lat":"45.73764","lng":"7.31722"},{"label":"Apecchio","lat":"43.55914","lng":"12.42163"},{"label":"Apice Vecchio","lat":"41.12012","lng":"14.93104"},{"label":"Apiro","lat":"43.3929","lng":"13.13045"},{"label":"Apollosa","lat":"41.09156","lng":"14.69625"},{"label":"Appiano Gentile","lat":"45.73499","lng":"8.98103"},{"label":"Appignano","lat":"43.36276","lng":"13.34768"},{"label":"Appignano del Tronto","lat":"42.89805","lng":"13.6622"},{"label":"Aprica","lat":"46.1522","lng":"10.14884"},{"label":"Apricale","lat":"43.88033","lng":"7.65993"},{"label":"Apricena","lat":"41.78629","lng":"15.44394"},{"label":"Aprigliano","lat":"39.24228","lng":"16.34046"},{"label":"Aprilia","lat":"41.59452","lng":"12.65419"},{"label":"Aquara","lat":"40.44391","lng":"15.25386"},{"label":"Aquila di Arroscia","lat":"44.08593","lng":"8.00525"},{"label":"Aquileia","lat":"45.7683","lng":"13.36779"},{"label":"Aquilonia","lat":"40.98688","lng":"15.4751"},{"label":"Aquino","lat":"41.49388","lng":"13.7052"},{"label":"Ara Nova","lat":"41.933","lng":"12.2398"},{"label":"Aradeo","lat":"40.12921","lng":"18.12951"},{"label":"Aragona","lat":"37.39904","lng":"13.61974"},{"label":"Aramengo","lat":"45.10085","lng":"8.00003"},{"label":"Arba","lat":"46.14611","lng":"12.79009"},{"label":"Arbatax","lat":"39.93444","lng":"9.70556"},{"label":"Arbia","lat":"43.29342","lng":"11.40978"},{"label":"Arbizzano-Santa Maria","lat":"45.49489","lng":"10.93831"},{"label":"Arborea","lat":"39.77276","lng":"8.58129"},{"label":"Arborio","lat":"45.49586","lng":"8.38755"},{"label":"Arbus","lat":"39.52616","lng":"8.5997"},{"label":"Arcade","lat":"45.78428","lng":"12.21972"},{"label":"Arcavacata","lat":"39.35846","lng":"16.20844"},{"label":"Arce","lat":"41.57787","lng":"13.58571"},{"label":"Arcella","lat":"45.42178","lng":"11.88755"},{"label":"Arcene","lat":"45.57717","lng":"9.61461"},{"label":"Arceto","lat":"44.61762","lng":"10.72461"},{"label":"Arcevia","lat":"43.50177","lng":"12.945"},{"label":"Archi","lat":"42.09135","lng":"14.3827"},{"label":"Arci-Empolitana","lat":"41.94766","lng":"12.82502"},{"label":"Arcidosso","lat":"42.87162","lng":"11.53599"},{"label":"Arcinazzo Romano","lat":"41.87972","lng":"13.11439"},{"label":"Arcisate","lat":"45.85578","lng":"8.86823"},{"label":"Arco","lat":"45.91772","lng":"10.88672"},{"label":"Arcola","lat":"44.11778","lng":"9.91175"},{"label":"Arcole","lat":"45.36125","lng":"11.2875"},{"label":"Arconate","lat":"45.54134","lng":"8.84891"},{"label":"Arcore","lat":"45.62675","lng":"9.32454"},{"label":"Arcugnano-Torri","lat":"45.49579","lng":"11.5477"},{"label":"Ardara","lat":"40.6214","lng":"8.80987"},{"label":"Ardauli","lat":"40.08436","lng":"8.91228"},{"label":"Ardea","lat":"41.60742","lng":"12.54158"},{"label":"Ardenno","lat":"46.16714","lng":"9.64729"},{"label":"Ardesio","lat":"45.93613","lng":"9.9295"},{"label":"Ardole San Marino","lat":"45.15633","lng":"10.10546"},{"label":"Ardore","lat":"38.19173","lng":"16.16734"},{"label":"Ardore Marina","lat":"38.16667","lng":"16.2"},{"label":"Area Produttiva","lat":"41.68211","lng":"12.50697"},{"label":"Arena","lat":"38.56235","lng":"16.2106"},{"label":"Arena Po","lat":"45.09427","lng":"9.36312"},{"label":"Arenella","lat":"40.85734","lng":"14.2228"},{"label":"Arenzano","lat":"44.40521","lng":"8.68315"},{"label":"Arese","lat":"45.55048","lng":"9.07741"},{"label":"Arezzo","lat":"43.46276","lng":"11.88068"},{"label":"Argegno","lat":"45.94218","lng":"9.12635"},{"label":"Argelato","lat":"44.64009","lng":"11.34359"},{"label":"Argenta","lat":"44.61397","lng":"11.83547"},{"label":"Argine","lat":"44.77494","lng":"10.63432"},{"label":"Arguello","lat":"44.58274","lng":"8.11084"},{"label":"Argusto","lat":"38.68051","lng":"16.43627"},{"label":"Ari","lat":"42.28967","lng":"14.25856"},{"label":"Ariano","lat":"44.94604","lng":"12.12448"},{"label":"Ariano","lat":"40.65668","lng":"15.02481"},{"label":"Ariano Irpino-Martiri","lat":"41.16024","lng":"15.10625"},{"label":"Ariccia","lat":"41.72063","lng":"12.6723"},{"label":"Arielli","lat":"42.26003","lng":"14.31004"},{"label":"Arienzo","lat":"41.02734","lng":"14.4977"},{"label":"Arignano","lat":"45.03966","lng":"7.90189"},{"label":"Arino","lat":"45.43854","lng":"12.05443"},{"label":"Ariola","lat":"40.62795","lng":"15.43453"},{"label":"Aritzo","lat":"39.95903","lng":"9.19265"},{"label":"Arizzano","lat":"45.95738","lng":"8.58292"},{"label":"Arlate","lat":"45.72363","lng":"9.44242"},{"label":"Arlena di Castro","lat":"42.46559","lng":"11.8209"},{"label":"Arlesega","lat":"45.46126","lng":"11.71942"},{"label":"Arluno","lat":"45.50344","lng":"8.94222"},{"label":"Armeno","lat":"45.82078","lng":"8.44557"},{"label":"Armento","lat":"40.3066","lng":"16.0655"},{"label":"Armetta","lat":"41.8128","lng":"12.68782"},{"label":"Armo","lat":"44.08773","lng":"7.91545"},{"label":"Armungia","lat":"39.52154","lng":"9.38066"},{"label":"Arnad","lat":"45.64726","lng":"7.71701"},{"label":"Arnara","lat":"41.58452","lng":"13.3884"},{"label":"Arnasco","lat":"44.07823","lng":"8.10745"},{"label":"Arnesano","lat":"40.33679","lng":"18.09145"},{"label":"Arola","lat":"45.80867","lng":"8.35808"},{"label":"Arola-Preazzano","lat":"40.63333","lng":"14.43333"},{"label":"Arona","lat":"45.7589","lng":"8.55715"},{"label":"Arosio","lat":"45.71933","lng":"9.20816"},{"label":"Arpaia","lat":"41.03678","lng":"14.55175"},{"label":"Arpaise","lat":"41.02977","lng":"14.74387"},{"label":"Arpino","lat":"41.64705","lng":"13.61155"},{"label":"Arpino","lat":"40.88882","lng":"14.32015"},{"label":"Arquà Petrarca","lat":"45.26911","lng":"11.72045"},{"label":"Arquà Polesine","lat":"45.01008","lng":"11.73981"},{"label":"Arquata del Tronto","lat":"42.7717","lng":"13.29389"},{"label":"Arquata Scrivia","lat":"44.6883","lng":"8.88682"},{"label":"Arre","lat":"45.21748","lng":"11.92858"},{"label":"Arrone","lat":"42.58266","lng":"12.76714"},{"label":"Arsago Seprio","lat":"45.68764","lng":"8.73509"},{"label":"Arsiè","lat":"45.98211","lng":"11.75794"},{"label":"Arsiero","lat":"45.80422","lng":"11.35582"},{"label":"Arsita","lat":"42.50266","lng":"13.78516"},{"label":"Arsoli","lat":"42.04158","lng":"13.01606"},{"label":"Arta Terme","lat":"46.48021","lng":"13.0204"},{"label":"Artegna","lat":"46.23929","lng":"13.15399"},{"label":"Artena","lat":"41.74126","lng":"12.90667"},{"label":"Artogne","lat":"45.85437","lng":"10.16646"},{"label":"Arvier","lat":"45.70205","lng":"7.16267"},{"label":"Arzachena","lat":"41.0762","lng":"9.39055"},{"label":"Arzago d'Adda","lat":"45.48137","lng":"9.56415"},{"label":"Arzana","lat":"39.91742","lng":"9.52766"},{"label":"Arzano","lat":"40.90959","lng":"14.26519"},{"label":"Arzene","lat":"45.99965","lng":"12.85034"},{"label":"Arzergrande","lat":"45.27278","lng":"12.0484"},{"label":"Arzignano","lat":"45.52027","lng":"11.33446"},{"label":"Ascea","lat":"40.14082","lng":"15.18583"},{"label":"Asciano","lat":"43.23232","lng":"11.56655"},{"label":"Asciano","lat":"43.75159","lng":"10.46506"},{"label":"Ascoli Piceno","lat":"42.85351","lng":"13.57395"},{"label":"Ascoli Satriano","lat":"41.20365","lng":"15.56646"},{"label":"Ascrea","lat":"42.19763","lng":"12.99457"},{"label":"Asiago","lat":"45.87588","lng":"11.51223"},{"label":"Asigliano Veneto","lat":"45.30469","lng":"11.4464"},{"label":"Asigliano Vercellese","lat":"45.26146","lng":"8.40853"},{"label":"Asola","lat":"45.22018","lng":"10.41214"},{"label":"Asolo","lat":"45.78854","lng":"11.91701"},{"label":"Asparetto","lat":"45.21991","lng":"11.18263"},{"label":"Assago","lat":"45.40887","lng":"9.12565"},{"label":"Assemini","lat":"39.29123","lng":"8.99879"},{"label":"Assisi","lat":"43.06671","lng":"12.62109"},{"label":"Asso","lat":"45.86061","lng":"9.2673"},{"label":"Assolo","lat":"39.80915","lng":"8.91932"},{"label":"Assoro","lat":"37.6221","lng":"14.4181"},{"label":"Asti","lat":"44.90162","lng":"8.20751"},{"label":"Asuni","lat":"39.87101","lng":"8.94603"},{"label":"Ateleta","lat":"41.85435","lng":"14.19806"},{"label":"Atella","lat":"40.87855","lng":"15.65226"},{"label":"Atena Lucana","lat":"40.45464","lng":"15.55633"},{"label":"Atessa","lat":"42.07018","lng":"14.45049"},{"label":"Atina","lat":"41.62004","lng":"13.79905"},{"label":"Atina Inferiore","lat":"41.62705","lng":"13.79258"},{"label":"Atrani","lat":"40.63617","lng":"14.60933"},{"label":"Atri","lat":"42.57642","lng":"13.98899"},{"label":"Atripalda","lat":"40.91867","lng":"14.82721"},{"label":"Attigliano","lat":"42.51505","lng":"12.29455"},{"label":"Attimis","lat":"46.19022","lng":"13.31127"},{"label":"Atzara","lat":"39.99249","lng":"9.07616"},{"label":"Auditore","lat":"43.82124","lng":"12.57165"},{"label":"Augusta","lat":"37.24065","lng":"15.22121"},{"label":"Auletta","lat":"40.56116","lng":"15.42313"},{"label":"Aulla","lat":"44.20632","lng":"9.97853"},{"label":"Aurano","lat":"46.00038","lng":"8.58822"},{"label":"Aurelia","lat":"42.1391","lng":"11.78713"},{"label":"Aurigo","lat":"43.98281","lng":"7.92342"},{"label":"Aurisina","lat":"45.74968","lng":"13.67345"},{"label":"Aurisina Cave","lat":"45.75398","lng":"13.65931"},{"label":"Aurogna","lat":"46.17147","lng":"9.35536"},{"label":"Auronzo","lat":"46.5592","lng":"12.42456"},{"label":"Ausonia","lat":"41.35808","lng":"13.74983"},{"label":"Austis","lat":"40.07122","lng":"9.08878"},{"label":"Avane","lat":"43.79049","lng":"10.40982"},{"label":"Avegno","lat":"44.38285","lng":"9.15797"},{"label":"Avelengo","lat":"46.64557","lng":"11.22419"},{"label":"Avella","lat":"40.95995","lng":"14.60087"},{"label":"Avellino","lat":"40.91494","lng":"14.79103"},{"label":"Averara","lat":"45.98847","lng":"9.6316"},{"label":"Aversa","lat":"40.97259","lng":"14.20745"},{"label":"Avetrana","lat":"40.3507","lng":"17.7326"},{"label":"Avezzano","lat":"42.02896","lng":"13.42641"},{"label":"Aviano","lat":"46.07056","lng":"12.59472"},{"label":"Aviano-Castello","lat":"46.06759","lng":"12.58324"},{"label":"Aviatico","lat":"45.79758","lng":"9.77145"},{"label":"Avigliana","lat":"45.07978","lng":"7.39647"},{"label":"Avigliano","lat":"40.73291","lng":"15.72004"},{"label":"Avigliano Umbro","lat":"42.65303","lng":"12.42571"},{"label":"Avio","lat":"45.73396","lng":"10.93938"},{"label":"Avise","lat":"45.70886","lng":"7.1399"},{"label":"Avola","lat":"36.9084","lng":"15.13937"},{"label":"Avolasca","lat":"44.80315","lng":"8.96545"},{"label":"Avvocata","lat":"40.85432","lng":"14.24325"},{"label":"Ayas","lat":"45.81506","lng":"7.68911"},{"label":"Aymavilles","lat":"45.7013","lng":"7.24683"},{"label":"Azeglio","lat":"45.42283","lng":"7.99222"},{"label":"Azzanello","lat":"45.31312","lng":"9.91973"},{"label":"Azzano","lat":"45.98096","lng":"9.20284"},{"label":"Azzano d'Asti","lat":"44.87345","lng":"8.26684"},{"label":"Azzano Decimo","lat":"45.90937","lng":"12.6642"},{"label":"Azzano Mella","lat":"45.45458","lng":"10.11717"},{"label":"Azzano San Paolo","lat":"45.65798","lng":"9.67305"},{"label":"Azzate","lat":"45.77803","lng":"8.79414"},{"label":"Azzio","lat":"45.88468","lng":"8.70853"},{"label":"Azzone","lat":"45.97903","lng":"10.11284"},{"label":"Baceno","lat":"46.26062","lng":"8.31874"},{"label":"Bacoli","lat":"40.79672","lng":"14.07349"},{"label":"Bacu Abis","lat":"39.24301","lng":"8.46491"},{"label":"Badalasco","lat":"45.54217","lng":"9.55494"},{"label":"Badalucco","lat":"43.91683","lng":"7.84584"},{"label":"Badesi","lat":"40.9646","lng":"8.88235"},{"label":"Badia","lat":"46.60816","lng":"11.8963"},{"label":"Badia al Pino","lat":"43.40424","lng":"11.77228"},{"label":"Badia Calavena","lat":"45.56463","lng":"11.15197"},{"label":"Badia Pavese","lat":"45.12087","lng":"9.46866"},{"label":"Badia Polesine","lat":"45.09508","lng":"11.49443"},{"label":"Badia Tedalda","lat":"43.70887","lng":"12.18425"},{"label":"Badile","lat":"45.35061","lng":"9.12705"},{"label":"Badoere","lat":"45.6342","lng":"12.08518"},{"label":"Badolato","lat":"38.56868","lng":"16.52461"},{"label":"Badolato Marina","lat":"38.57613","lng":"16.56527"},{"label":"Bagaladi","lat":"38.0256","lng":"15.82152"},{"label":"Baganzola","lat":"44.85513","lng":"10.30706"},{"label":"Baggiovara","lat":"44.60416","lng":"10.86256"},{"label":"Bagheria","lat":"38.07892","lng":"13.51237"},{"label":"Bagnacavallo","lat":"44.41402","lng":"11.97813"},{"label":"Bagnara Calabra","lat":"38.28778","lng":"15.80591"},{"label":"Bagnara di Romagna","lat":"44.3893","lng":"11.82726"},{"label":"Bagnaria","lat":"44.82726","lng":"9.12256"},{"label":"Bagnaria Arsa","lat":"45.88383","lng":"13.28562"},{"label":"Bagnarola","lat":"45.8669","lng":"12.85886"},{"label":"Bagnarola","lat":"44.16232","lng":"12.3428"},{"label":"Bagnasco","lat":"44.30412","lng":"8.04522"},{"label":"Bagnatica","lat":"45.66088","lng":"9.78106"},{"label":"Bagni di Lucca","lat":"44.00513","lng":"10.5531"},{"label":"Bagni di Tivoli","lat":"41.95","lng":"12.71667"},{"label":"Bagno","lat":"44.65545","lng":"10.75881"},{"label":"Bagno a Ripoli","lat":"43.75115","lng":"11.32252"},{"label":"Bagno Roselle","lat":"42.81114","lng":"11.13859"},{"label":"Bagnoli","lat":"40.81322","lng":"14.16807"},{"label":"Bagnoli del Trigno","lat":"41.70217","lng":"14.45861"},{"label":"Bagnoli di Sopra","lat":"45.18667","lng":"11.88433"},{"label":"Bagnoli Irpino","lat":"40.83103","lng":"15.07173"},{"label":"Bagnolo","lat":"45.27238","lng":"10.89081"},{"label":"Bagnolo Cremasco","lat":"45.36117","lng":"9.61296"},{"label":"Bagnolo del Salento","lat":"40.14908","lng":"18.35208"},{"label":"Bagnolo di Po","lat":"45.01548","lng":"11.50091"},{"label":"Bagnolo in Piano","lat":"44.76437","lng":"10.67358"},{"label":"Bagnolo Mella","lat":"45.42765","lng":"10.18638"},{"label":"Bagnolo Piemonte","lat":"44.76034","lng":"7.31392"},{"label":"Bagnolo San Vito","lat":"45.08892","lng":"10.87747"},{"label":"Bagnone","lat":"44.31494","lng":"9.99507"},{"label":"Bagnoregio","lat":"42.62845","lng":"12.08969"},{"label":"Bagolino","lat":"45.82519","lng":"10.46183"},{"label":"Baia","lat":"41.30366","lng":"14.25016"},{"label":"Baiano","lat":"40.95142","lng":"14.6165"},{"label":"Bairo","lat":"45.38606","lng":"7.75532"},{"label":"Baiso","lat":"44.49668","lng":"10.60083"},{"label":"Bajardo","lat":"43.90402","lng":"7.72534"},{"label":"Balangero","lat":"45.26988","lng":"7.51884"},{"label":"Baldichieri d'Asti","lat":"44.90595","lng":"8.09163"},{"label":"Baldissero Canavese","lat":"45.41026","lng":"7.74422"},{"label":"Baldissero d'Alba","lat":"44.76184","lng":"7.90863"},{"label":"Baldissero Torinese","lat":"45.06837","lng":"7.81274"},{"label":"Balestrate","lat":"38.05125","lng":"13.00724"},{"label":"Balestrino","lat":"44.12426","lng":"8.17064"},{"label":"Ballabio","lat":"45.89629","lng":"9.42294"},{"label":"Ballao","lat":"39.54919","lng":"9.36178"},{"label":"Ballò","lat":"45.45581","lng":"12.07124"},{"label":"Balme","lat":"45.30192","lng":"7.21937"},{"label":"Balmuccia","lat":"45.81878","lng":"8.1408"},{"label":"Balocco","lat":"45.45589","lng":"8.28068"},{"label":"Balsorano","lat":"41.80982","lng":"13.5598"},{"label":"Balsorano Nuovo","lat":"41.80881","lng":"13.56069"},{"label":"Balvano","lat":"40.64953","lng":"15.51345"},{"label":"Balzo","lat":"42.84199","lng":"13.33234"},{"label":"Balzola","lat":"45.18358","lng":"8.40277"},{"label":"Banari","lat":"40.57056","lng":"8.70052"},{"label":"Bancali","lat":"40.73549","lng":"8.46328"},{"label":"Banchette","lat":"45.45356","lng":"7.85632"},{"label":"Bandito","lat":"44.72282","lng":"7.82403"},{"label":"Bannio","lat":"45.98397","lng":"8.14611"},{"label":"Banzano","lat":"40.84338","lng":"14.80182"},{"label":"Banzi","lat":"40.86063","lng":"16.00976"},{"label":"Baone","lat":"45.24174","lng":"11.68463"},{"label":"Baradili","lat":"39.72189","lng":"8.89731"},{"label":"Baraggia","lat":"45.85516","lng":"8.90885"},{"label":"Baragiano","lat":"40.68001","lng":"15.59398"},{"label":"Baranello","lat":"41.52722","lng":"14.558"},{"label":"Barano d'Ischia","lat":"40.71472","lng":"13.92522"},{"label":"Baranzate","lat":"45.52717","lng":"9.11724"},{"label":"Barasso","lat":"45.84048","lng":"8.75683"},{"label":"Baratili San Pietro","lat":"39.9922","lng":"8.55586"},{"label":"Baratte","lat":"45.1116","lng":"7.23643"},{"label":"Barba","lat":"43.88291","lng":"10.97608"},{"label":"Barbania","lat":"45.29143","lng":"7.6345"},{"label":"Barbara","lat":"43.58036","lng":"13.02736"},{"label":"Barbarano Romano","lat":"42.24908","lng":"12.06774"},{"label":"Barbarano Vicentino","lat":"45.40912","lng":"11.54342"},{"label":"Barbarasco","lat":"44.2415","lng":"9.94571"},{"label":"Barbaresco","lat":"44.72324","lng":"8.08194"},{"label":"Barbariga","lat":"45.40508","lng":"10.05437"},{"label":"Barbata","lat":"45.47498","lng":"9.77736"},{"label":"Barberi","lat":"42.44072","lng":"14.04268"},{"label":"Barberino di Mugello","lat":"43.9993","lng":"11.23676"},{"label":"Barberino Val d'Elsa","lat":"43.53987","lng":"11.17178"},{"label":"Barbianello","lat":"45.07571","lng":"9.20602"},{"label":"Barbiano","lat":"44.3895","lng":"11.8865"},{"label":"Barbiano","lat":"46.60412","lng":"11.5212"},{"label":"Barbiano - Barbian","lat":"46.60332","lng":"11.52138"},{"label":"Barbisano","lat":"45.88224","lng":"12.18632"},{"label":"Barbona","lat":"45.10339","lng":"11.70486"},{"label":"Barcellona Pozzo di Gotto","lat":"38.14772","lng":"15.21469"},{"label":"Barchi","lat":"43.6728","lng":"12.92823"},{"label":"Barcis","lat":"46.19071","lng":"12.56068"},{"label":"Barco","lat":"44.68833","lng":"10.49582"},{"label":"Bard","lat":"45.60936","lng":"7.74491"},{"label":"Bardello","lat":"45.83597","lng":"8.69683"},{"label":"Bardi","lat":"44.63138","lng":"9.72907"},{"label":"Bardineto","lat":"44.18972","lng":"8.13529"},{"label":"Bardolino","lat":"45.54114","lng":"10.73298"},{"label":"Bardonecchia","lat":"45.07462","lng":"6.69888"},{"label":"Bareggio","lat":"45.47927","lng":"8.99789"},{"label":"Barengo","lat":"45.57597","lng":"8.51403"},{"label":"Baressa","lat":"39.71308","lng":"8.87459"},{"label":"Barete","lat":"42.45009","lng":"13.28061"},{"label":"Barga","lat":"44.0731","lng":"10.47789"},{"label":"Bargagli","lat":"44.4475","lng":"9.09372"},{"label":"Bargano","lat":"45.24031","lng":"9.44689"},{"label":"Barge","lat":"44.72786","lng":"7.32283"},{"label":"Barghe","lat":"45.67833","lng":"10.40775"},{"label":"Bari","lat":"41.12066","lng":"16.86982"},{"label":"Bari Sardo","lat":"39.84135","lng":"9.64606"},{"label":"Bariano","lat":"45.51258","lng":"9.70366"},{"label":"Baricella","lat":"44.6482","lng":"11.538"},{"label":"Barile","lat":"40.94327","lng":"15.67167"},{"label":"Barisciano","lat":"42.32465","lng":"13.59036"},{"label":"Barlassina","lat":"45.65558","lng":"9.12878"},{"label":"Barletta","lat":"41.31429","lng":"16.28165"},{"label":"Barni","lat":"45.91111","lng":"9.26592"},{"label":"Barolo","lat":"44.61094","lng":"7.94284"},{"label":"Barone","lat":"38.85225","lng":"16.63927"},{"label":"Barone Canavese","lat":"45.32576","lng":"7.87342"},{"label":"Baronissi","lat":"40.74817","lng":"14.7738"},{"label":"Barquedo","lat":"45.74283","lng":"8.4963"},{"label":"Barra","lat":"40.84255","lng":"14.31849"},{"label":"Barrafranca","lat":"37.3785","lng":"14.2027"},{"label":"Barrali","lat":"39.47532","lng":"9.10204"},{"label":"Barrea","lat":"41.75543","lng":"13.99095"},{"label":"Baruchella","lat":"45.06601","lng":"11.45208"},{"label":"Barumini","lat":"39.70215","lng":"9.00338"},{"label":"Barzago","lat":"45.75548","lng":"9.31424"},{"label":"Barzana","lat":"45.7334","lng":"9.56842"},{"label":"Barzanò","lat":"45.73257","lng":"9.3136"},{"label":"Barzio","lat":"45.94349","lng":"9.46694"},{"label":"Basaldella","lat":"46.02527","lng":"13.21718"},{"label":"Basaluzzo","lat":"44.76885","lng":"8.70485"},{"label":"Bascapè","lat":"45.30598","lng":"9.31397"},{"label":"Baschi","lat":"42.67324","lng":"12.21762"},{"label":"Basciano","lat":"42.59639","lng":"13.73561"},{"label":"Baselga di Pinè","lat":"46.1325","lng":"11.24648"},{"label":"Baselice","lat":"41.39296","lng":"14.97363"},{"label":"Basiano","lat":"45.58248","lng":"9.46325"},{"label":"Basicò","lat":"38.06077","lng":"15.06263"},{"label":"Basiglio","lat":"45.35917","lng":"9.15855"},{"label":"Basiliano","lat":"46.01417","lng":"13.07"},{"label":"Basiliano-Vissandone","lat":"46.02278","lng":"13.09306"},{"label":"Basilicagoiano","lat":"44.70545","lng":"10.40457"},{"label":"Basilicanova","lat":"44.69804","lng":"10.35231"},{"label":"Bassano Bresciano","lat":"45.32827","lng":"10.12869"},{"label":"Bassano del Grappa","lat":"45.76656","lng":"11.72739"},{"label":"Bassano in Teverina","lat":"42.46444","lng":"12.30752"},{"label":"Bassano Romano","lat":"42.22228","lng":"12.18785"},{"label":"Bassiano","lat":"41.55154","lng":"13.02732"},{"label":"Bassignana","lat":"45.0011","lng":"8.73291"},{"label":"Basson","lat":"45.4511","lng":"10.89449"},{"label":"Bastardo","lat":"42.87144","lng":"12.55943"},{"label":"Bastia","lat":"45.38609","lng":"11.65196"},{"label":"Bastia Mondovì","lat":"44.44194","lng":"7.89444"},{"label":"Bastia umbra","lat":"43.06425","lng":"12.54612"},{"label":"Bastida de' Dossi","lat":"45.03976","lng":"8.92155"},{"label":"Bastida Pancarana","lat":"45.08606","lng":"9.08515"},{"label":"Bastiglia","lat":"44.72697","lng":"10.9986"},{"label":"Battaglia Terme","lat":"45.28531","lng":"11.78375"},{"label":"Battaglione-Bagnara","lat":"45.11638","lng":"10.06726"},{"label":"Battifolle-Ruscello-Poggiola","lat":"43.45","lng":"11.8"},{"label":"Battifollo","lat":"44.31983","lng":"8.01094"},{"label":"Battipaglia","lat":"40.60861","lng":"14.98209"},{"label":"Battuda","lat":"45.27466","lng":"9.07805"},{"label":"Baucina","lat":"37.92521","lng":"13.53636"},{"label":"Bauladu","lat":"40.02055","lng":"8.67192"},{"label":"Baunei","lat":"40.03132","lng":"9.66374"},{"label":"Baveno","lat":"45.90818","lng":"8.50033"},{"label":"Bazzano","lat":"44.50176","lng":"11.08675"},{"label":"Beccacivetta","lat":"45.3571","lng":"10.95748"},{"label":"Bedero","lat":"45.97776","lng":"8.71852"},{"label":"Bedero Valcuvia","lat":"45.91088","lng":"8.79553"},{"label":"Bedizzole","lat":"45.51038","lng":"10.42327"},{"label":"Bedonia","lat":"44.504","lng":"9.63489"},{"label":"Bedulita","lat":"45.79138","lng":"9.55165"},{"label":"Bee","lat":"45.96328","lng":"8.57542"},{"label":"Begliano","lat":"45.81984","lng":"13.46586"},{"label":"Beinasco","lat":"45.02472","lng":"7.58564"},{"label":"Beinette","lat":"44.36394","lng":"7.64464"},{"label":"Belcastro","lat":"39.01799","lng":"16.78641"},{"label":"Belfiore","lat":"45.38189","lng":"11.21085"},{"label":"Belforte","lat":"43.71676","lng":"12.37575"},{"label":"Belforte","lat":"45.08097","lng":"10.56156"},{"label":"Belforte del Chienti","lat":"43.16426","lng":"13.24323"},{"label":"Belforte Monferrato","lat":"44.62505","lng":"8.66125"},{"label":"Belgioioso","lat":"45.15933","lng":"9.31347"},{"label":"Belgirate","lat":"45.84123","lng":"8.57064"},{"label":"Bella","lat":"40.76059","lng":"15.54101"},{"label":"Bella Farnia","lat":"41.3678","lng":"12.97602"},{"label":"Bellagio","lat":"45.98772","lng":"9.26182"},{"label":"Bellano","lat":"46.04426","lng":"9.30734"},{"label":"Bellante","lat":"42.74421","lng":"13.80234"},{"label":"Bellante Stazione","lat":"42.7065","lng":"13.83953"},{"label":"Bellaria-Igea Marina","lat":"44.14255","lng":"12.47154"},{"label":"Bellavista","lat":"43.44197","lng":"11.16051"},{"label":"Bellegra","lat":"41.88166","lng":"13.02861"},{"label":"Bellinzago Lombardo","lat":"45.54207","lng":"9.44595"},{"label":"Bellinzago Novarese","lat":"45.56877","lng":"8.64323"},{"label":"Bellizzi","lat":"40.61981","lng":"14.94685"},{"label":"Bellocchi","lat":"43.79564","lng":"13.00565"},{"label":"Bellona","lat":"41.16052","lng":"14.23313"},{"label":"Bellosguardo","lat":"40.42222","lng":"15.31219"},{"label":"Belluno","lat":"46.14262","lng":"12.2156"},{"label":"Bellusco","lat":"45.61958","lng":"9.41905"},{"label":"Belmonte Calabro","lat":"39.16398","lng":"16.08215"},{"label":"Belmonte Castello","lat":"41.57742","lng":"13.81581"},{"label":"Belmonte del Sannio","lat":"41.82352","lng":"14.42333"},{"label":"Belmonte in Sabina","lat":"42.31482","lng":"12.89178"},{"label":"Belmonte Mezzagno","lat":"38.04653","lng":"13.39207"},{"label":"Belmonte Piceno","lat":"43.09175","lng":"13.53938"},{"label":"Belpasso","lat":"37.59192","lng":"14.97985"},{"label":"Belsito","lat":"39.17685","lng":"16.28745"},{"label":"Beltiglio-San Giovanni","lat":"41.06239","lng":"14.75273"},{"label":"Belvedere","lat":"37.08839","lng":"15.21314"},{"label":"Belvedere","lat":"45.69001","lng":"11.7718"},{"label":"Belvedere Langhe","lat":"44.49361","lng":"7.97387"},{"label":"Belvedere Marittimo","lat":"39.6193","lng":"15.8622"},{"label":"Belvedere Ostrense","lat":"43.57896","lng":"13.16724"},{"label":"Belvedere Spinello","lat":"39.20674","lng":"16.89233"},{"label":"Belvedere-Piano Tavola","lat":"37.52955","lng":"14.98786"},{"label":"Belveglio","lat":"44.83012","lng":"8.32864"},{"label":"Belverde","lat":"43.3482","lng":"11.30763"},{"label":"Belvì","lat":"39.96181","lng":"9.18419"},{"label":"Bema","lat":"46.10819","lng":"9.56414"},{"label":"Bene Lario","lat":"46.02898","lng":"9.18414"},{"label":"Bene Vagienna","lat":"44.54268","lng":"7.82726"},{"label":"Benestare","lat":"38.18487","lng":"16.139"},{"label":"Benetutti","lat":"40.45689","lng":"9.16754"},{"label":"Benevello","lat":"44.62981","lng":"8.10507"},{"label":"Benevento","lat":"41.1307","lng":"14.77816"},{"label":"Benna","lat":"45.51528","lng":"8.12409"},{"label":"Bentivoglio","lat":"44.6369","lng":"11.41737"},{"label":"Berbenno","lat":"45.81478","lng":"9.57105"},{"label":"Berbenno di Valtellina","lat":"46.16641","lng":"9.74734"},{"label":"Berceto","lat":"44.50899","lng":"9.99104"},{"label":"Berchidda","lat":"40.78476","lng":"9.1651"},{"label":"Beregazzo","lat":"45.77019","lng":"8.95869"},{"label":"Beregazzo con Figliaro","lat":"45.78068","lng":"8.94414"},{"label":"Bereguardo","lat":"45.25706","lng":"9.02735"},{"label":"Bergamasco","lat":"44.82725","lng":"8.45474"},{"label":"Bergamo","lat":"45.69601","lng":"9.66721"},{"label":"Bergantino","lat":"45.06145","lng":"11.25237"},{"label":"Bergeggi","lat":"44.24833","lng":"8.44402"},{"label":"Bergolo","lat":"44.54784","lng":"8.18314"},{"label":"Berlingo","lat":"45.50281","lng":"10.03436"},{"label":"Bernalda","lat":"40.41261","lng":"16.68919"},{"label":"Bernareggio","lat":"45.64778","lng":"9.40505"},{"label":"Bernate Ticino","lat":"45.47873","lng":"8.81834"},{"label":"Bernezzo","lat":"44.38533","lng":"7.43633"},{"label":"Berra","lat":"44.97656","lng":"11.97727"},{"label":"Berriat","lat":"45.70729","lng":"7.67617"},{"label":"Bersezio","lat":"44.38031","lng":"6.96885"},{"label":"Bersone","lat":"45.9444","lng":"10.63317"},{"label":"Bertinoro","lat":"44.14874","lng":"12.1365"},{"label":"Bertiolo","lat":"45.94463","lng":"13.05606"},{"label":"Bertipaglia","lat":"45.31594","lng":"11.88547"},{"label":"Bertonico","lat":"45.23307","lng":"9.66806"},{"label":"Berzano di San Pietro","lat":"45.09418","lng":"7.95352"},{"label":"Berzano di Tortona","lat":"44.87666","lng":"8.95108"},{"label":"Berzantina","lat":"44.15786","lng":"10.98083"},{"label":"Berzo","lat":"46.09287","lng":"10.33303"},{"label":"Berzo Inferiore","lat":"45.93027","lng":"10.27696"},{"label":"Berzo San Fermo","lat":"45.71938","lng":"9.90316"},{"label":"Besana in Brianza","lat":"45.70235","lng":"9.2947"},{"label":"Besano","lat":"45.88949","lng":"8.89068"},{"label":"Besate","lat":"45.31296","lng":"8.96964"},{"label":"Besenello","lat":"45.94356","lng":"11.10908"},{"label":"Besenzone","lat":"44.98689","lng":"9.95604"},{"label":"Besnate","lat":"45.69858","lng":"8.76734"},{"label":"Besozzo","lat":"45.84889","lng":"8.66517"},{"label":"Bessude","lat":"40.55449","lng":"8.72753"},{"label":"Bettola","lat":"44.77826","lng":"9.60857"},{"label":"Bettola","lat":"45.33173","lng":"9.0208"},{"label":"Bettola-Zeloforomagno","lat":"45.4308","lng":"9.3087"},{"label":"Bettolle","lat":"43.20676","lng":"11.80365"},{"label":"Bettona","lat":"43.01124","lng":"12.48698"},{"label":"Beura","lat":"46.07964","lng":"8.29826"},{"label":"Bevagna","lat":"42.93748","lng":"12.61488"},{"label":"Beverino","lat":"44.19766","lng":"9.78537"},{"label":"Bevilacqua","lat":"45.23249","lng":"11.39496"},{"label":"Biancade","lat":"45.64867","lng":"12.35753"},{"label":"Biancavilla","lat":"37.64442","lng":"14.86685"},{"label":"Bianchi","lat":"39.10058","lng":"16.41018"},{"label":"Bianco","lat":"38.0917","lng":"16.15159"},{"label":"Biandrate","lat":"45.45271","lng":"8.46402"},{"label":"Biandronno","lat":"45.81281","lng":"8.70882"},{"label":"Bianzano","lat":"45.77309","lng":"9.91816"},{"label":"Bianzè","lat":"45.30751","lng":"8.12202"},{"label":"Bianzone","lat":"46.18665","lng":"10.10934"},{"label":"Biassono","lat":"45.62864","lng":"9.27124"},{"label":"Bibano","lat":"45.90751","lng":"12.43266"},{"label":"Bibbiano","lat":"44.66292","lng":"10.47391"},{"label":"Bibbiena","lat":"43.69876","lng":"11.81474"},{"label":"Bibbona","lat":"43.26822","lng":"10.5951"},{"label":"Bibiana","lat":"44.79894","lng":"7.28822"},{"label":"Bibione","lat":"45.63565","lng":"13.03616"},{"label":"Biccari","lat":"41.39736","lng":"15.19644"},{"label":"Bicinicco","lat":"45.93211","lng":"13.253"},{"label":"Bidonì","lat":"40.11305","lng":"8.93643"},{"label":"Biella","lat":"45.56304","lng":"8.05796"},{"label":"Bienno","lat":"45.93526","lng":"10.29232"},{"label":"Bieno","lat":"46.08151","lng":"11.55609"},{"label":"Bientina","lat":"43.70826","lng":"10.62116"},{"label":"Bigolino","lat":"45.86669","lng":"12.01693"},{"label":"Binago","lat":"45.78218","lng":"8.92234"},{"label":"Binasco","lat":"45.33102","lng":"9.0944"},{"label":"Binetto","lat":"41.02343","lng":"16.70988"},{"label":"Bioglio-Portula-Andrè","lat":"45.61516","lng":"8.13602"},{"label":"Bionaz","lat":"45.87356","lng":"7.4231"},{"label":"Bione","lat":"45.67279","lng":"10.33887"},{"label":"Birori","lat":"40.26593","lng":"8.8157"},{"label":"Bisaccia","lat":"41.00923","lng":"15.37699"},{"label":"Bisaccia Nuova","lat":"41.0096","lng":"15.35546"},{"label":"Bisacquino","lat":"37.70352","lng":"13.26051"},{"label":"Bisceglie","lat":"41.24264","lng":"16.50104"},{"label":"Bisegna","lat":"41.92113","lng":"13.7576"},{"label":"Bisenti","lat":"42.52883","lng":"13.7995"},{"label":"bishopric of Perugia","lat":"43.11258","lng":"12.38904"},{"label":"Bisignano","lat":"39.50727","lng":"16.28106"},{"label":"Bistagno","lat":"44.66059","lng":"8.37163"},{"label":"Bisuschio","lat":"45.87148","lng":"8.86843"},{"label":"Bitetto","lat":"41.04146","lng":"16.74806"},{"label":"Bitonto","lat":"41.11006","lng":"16.69086"},{"label":"Bitritto","lat":"41.04336","lng":"16.82682"},{"label":"Bitti","lat":"40.47956","lng":"9.38403"},{"label":"Bivio di Capanelle","lat":"42.11962","lng":"12.59395"},{"label":"Bivio Mortola","lat":"41.39557","lng":"13.89663"},{"label":"Bivio San Polo","lat":"41.97418","lng":"12.82993"},{"label":"Bivio Santa Cecilia","lat":"40.52224","lng":"15.00018"},{"label":"Bivona","lat":"37.61797","lng":"13.43895"},{"label":"Bivongi","lat":"38.48328","lng":"16.45251"},{"label":"Bizzarone","lat":"45.83428","lng":"8.94274"},{"label":"Bleggio Superiore","lat":"46.0248","lng":"10.83837"},{"label":"Blello","lat":"45.83778","lng":"9.57105"},{"label":"Blera","lat":"42.27293","lng":"12.03016"},{"label":"Blessagno","lat":"45.95908","lng":"9.09754"},{"label":"Blevio","lat":"45.84218","lng":"9.10514"},{"label":"Blufi","lat":"37.75205","lng":"14.07296"},{"label":"Boara Pisani","lat":"45.10809","lng":"11.78271"},{"label":"Bobbio","lat":"44.76832","lng":"9.38415"},{"label":"Bobbio Pellice","lat":"44.80854","lng":"7.11691"},{"label":"Boca","lat":"45.67897","lng":"8.40873"},{"label":"Bocchigliero","lat":"39.4193","lng":"16.75057"},{"label":"Boccioleto","lat":"45.83047","lng":"8.11282"},{"label":"Bocco","lat":"44.35111","lng":"9.30333"},{"label":"Bocenago","lat":"46.11858","lng":"10.75884"},{"label":"Bodio","lat":"45.78989","lng":"8.75146"},{"label":"Bodio Lomnago","lat":"45.78867","lng":"8.75083"},{"label":"Boffalora d'Adda","lat":"45.35851","lng":"9.49628"},{"label":"Boffalora Sopra Ticino","lat":"45.46735","lng":"8.83095"},{"label":"Bogliasco","lat":"44.3807","lng":"9.06926"},{"label":"Bogogno","lat":"45.66307","lng":"8.53473"},{"label":"Boissano","lat":"44.13583","lng":"8.22155"},{"label":"Bojano","lat":"41.4853","lng":"14.47075"},{"label":"Bojon-Lova","lat":"45.33981","lng":"12.08282"},{"label":"Bolano","lat":"44.1877","lng":"9.89488"},{"label":"Bolbeno","lat":"46.0326","lng":"10.73787"},{"label":"Bolgare","lat":"45.63242","lng":"9.81412"},{"label":"Bolladello-Peveranza","lat":"45.68649","lng":"8.84517"},{"label":"Bollate","lat":"45.54647","lng":"9.12054"},{"label":"Bollengo","lat":"45.47162","lng":"7.94133"},{"label":"Bologna","lat":"44.49381","lng":"11.33875"},{"label":"Bolognano","lat":"42.21814","lng":"13.96011"},{"label":"Bolognano-Vignole","lat":"45.91196","lng":"10.90497"},{"label":"Bolognetta","lat":"37.9712","lng":"13.45627"},{"label":"Bolognola","lat":"42.99319","lng":"13.2268"},{"label":"Bolotana","lat":"40.3244","lng":"8.96109"},{"label":"Bolsena","lat":"42.64326","lng":"11.98514"},{"label":"Boltiere","lat":"45.60088","lng":"9.57845"},{"label":"Bolzano","lat":"46.49067","lng":"11.33982"},{"label":"Bolzano Novarese","lat":"45.76266","lng":"8.44248"},{"label":"Bolzano Vicentino","lat":"45.60221","lng":"11.62198"},{"label":"Bomarzo","lat":"42.48273","lng":"12.25037"},{"label":"Bomba","lat":"42.03343","lng":"14.36656"},{"label":"Bompensiere","lat":"37.4724","lng":"13.7814"},{"label":"Bompietro","lat":"37.74394","lng":"14.0947"},{"label":"Bomporto","lat":"44.73389","lng":"11.03667"},{"label":"Bonarcado","lat":"40.09836","lng":"8.65534"},{"label":"Bonassola","lat":"44.18323","lng":"9.58422"},{"label":"Bonate Sopra","lat":"45.68179","lng":"9.55956"},{"label":"Bonate Sotto","lat":"45.66818","lng":"9.55865"},{"label":"Bonavicina","lat":"45.24426","lng":"11.18419"},{"label":"Bonavigo","lat":"45.25831","lng":"11.27944"},{"label":"Bondeno","lat":"44.93569","lng":"10.86035"},{"label":"Bondeno","lat":"44.88944","lng":"11.41542"},{"label":"Bondione","lat":"46.03541","lng":"10.00832"},{"label":"Bondo","lat":"46.0003","lng":"10.69197"},{"label":"Bondone","lat":"45.80649","lng":"10.55027"},{"label":"Bonea","lat":"41.07312","lng":"14.61683"},{"label":"Bonefro","lat":"41.70507","lng":"14.93439"},{"label":"Bonemerse","lat":"45.11367","lng":"10.07747"},{"label":"Bonferraro","lat":"45.1838","lng":"11.01201"},{"label":"Bonifati","lat":"39.58595","lng":"15.90163"},{"label":"Bonito","lat":"41.09857","lng":"15.00071"},{"label":"Bonnanaro","lat":"40.53265","lng":"8.76389"},{"label":"Bono","lat":"40.41387","lng":"9.03187"},{"label":"Bonorva","lat":"40.41839","lng":"8.76831"},{"label":"Bonvicino","lat":"44.50354","lng":"8.01754"},{"label":"Bora Bassa","lat":"44.04636","lng":"12.18066"},{"label":"Borbona","lat":"42.50939","lng":"13.13206"},{"label":"Borca","lat":"46.43452","lng":"12.2223"},{"label":"Bordano","lat":"46.31528","lng":"13.10529"},{"label":"Bordighera","lat":"43.78064","lng":"7.66451"},{"label":"Bordolano","lat":"45.2917","lng":"9.98731"},{"label":"Bore","lat":"44.71866","lng":"9.79207"},{"label":"Borello","lat":"44.05846","lng":"12.17993"},{"label":"Boretto","lat":"44.90157","lng":"10.55147"},{"label":"Borgagne","lat":"40.24108","lng":"18.37661"},{"label":"Borgarello","lat":"45.24066","lng":"9.14055"},{"label":"Borgaro Torinese","lat":"45.15122","lng":"7.65543"},{"label":"Borgata Marina","lat":"39.97136","lng":"16.62091"},{"label":"Borgetto","lat":"38.04664","lng":"13.14071"},{"label":"Borghetto","lat":"43.598","lng":"13.29205"},{"label":"Borghetto d'Arroscia","lat":"44.05672","lng":"7.98076"},{"label":"Borghetto di Borbera","lat":"44.72945","lng":"8.94346"},{"label":"Borghetto di Vara","lat":"44.22368","lng":"9.72118"},{"label":"Borghetto Lodigiano","lat":"45.21326","lng":"9.49946"},{"label":"Borghetto Santo Spirito","lat":"44.11187","lng":"8.24129"},{"label":"Borghetto-Melara","lat":"44.09852","lng":"9.99073"},{"label":"Borghi","lat":"44.03223","lng":"12.35618"},{"label":"Borgia","lat":"38.82627","lng":"16.5077"},{"label":"Borgiallo","lat":"45.41758","lng":"7.66984"},{"label":"Borgio","lat":"44.15906","lng":"8.30832"},{"label":"Borgo","lat":"40.84022","lng":"14.78364"},{"label":"Borgo","lat":"44.70887","lng":"7.96222"},{"label":"Borgo","lat":"44.40527","lng":"7.93839"},{"label":"Borgo","lat":"45.63882","lng":"8.11508"},{"label":"Borgo a Buggiano","lat":"43.87522","lng":"10.73482"},{"label":"Borgo a Mozzano","lat":"43.97946","lng":"10.54489"},{"label":"Borgo d'Ale","lat":"45.34958","lng":"8.05198"},{"label":"Borgo di Ranzo","lat":"44.05963","lng":"8.01495"},{"label":"Borgo di Terzo","lat":"45.72078","lng":"9.89096"},{"label":"Borgo Fornari-Pieve","lat":"44.58933","lng":"8.93671"},{"label":"Borgo Grappa","lat":"41.40212","lng":"12.96053"},{"label":"Borgo Hermada","lat":"41.30559","lng":"13.17235"},{"label":"Borgo Lotti","lat":"41.76414","lng":"12.555"},{"label":"Borgo Massano","lat":"43.82495","lng":"12.67961"},{"label":"Borgo Melano","lat":"45.01578","lng":"7.57656"},{"label":"Borgo Pace","lat":"43.65808","lng":"12.29317"},{"label":"Borgo Podgora","lat":"41.51462","lng":"12.85383"},{"label":"Borgo Priolo","lat":"44.96632","lng":"9.14835"},{"label":"Borgo Sabotino-Foce Verde","lat":"41.41667","lng":"12.83333"},{"label":"Borgo San Dalmazzo","lat":"44.33785","lng":"7.4931"},{"label":"Borgo San Giacomo","lat":"45.34798","lng":"9.96817"},{"label":"Borgo San Giovanni","lat":"45.27787","lng":"9.43496"},{"label":"Borgo San Lorenzo","lat":"43.95548","lng":"11.38561"},{"label":"Borgo San Martino","lat":"45.09259","lng":"8.52373"},{"label":"Borgo San Michele","lat":"41.43828","lng":"12.97351"},{"label":"Borgo San Siro","lat":"45.23506","lng":"8.91334"},{"label":"Borgo Santa Maria","lat":"43.87582","lng":"12.80235"},{"label":"Borgo Santa Maria Immacolata","lat":"42.61172","lng":"14.04553"},{"label":"Borgo Stazione","lat":"43.28461","lng":"13.6442"},{"label":"Borgo Ticino","lat":"45.68931","lng":"8.60448"},{"label":"Borgo Tossignano","lat":"44.28233","lng":"11.59659"},{"label":"Borgo Val di Taro","lat":"44.48899","lng":"9.76906"},{"label":"Borgo Valsugana","lat":"46.05119","lng":"11.45756"},{"label":"Borgo Velino","lat":"42.40508","lng":"13.0565"},{"label":"Borgo Vercelli","lat":"45.3568","lng":"8.4646"},{"label":"Borgoforte","lat":"45.05185","lng":"10.75018"},{"label":"Borgofranco d'Ivrea","lat":"45.51636","lng":"7.85865"},{"label":"Borgofranco sul Po","lat":"45.04658","lng":"11.2093"},{"label":"Borgolavezzaro","lat":"45.31918","lng":"8.69931"},{"label":"Borgomale","lat":"44.62034","lng":"8.13224"},{"label":"Borgomanero","lat":"45.69873","lng":"8.4623"},{"label":"Borgomaro","lat":"43.9753","lng":"7.94408"},{"label":"Borgomasino","lat":"45.36205","lng":"7.98811"},{"label":"Borgone Susa","lat":"45.12334","lng":"7.23641"},{"label":"Borgonovo Valtidone","lat":"45.01436","lng":"9.44346"},{"label":"Borgonuovo","lat":"44.43557","lng":"11.27069"},{"label":"Borgoratto Alessandrino","lat":"44.83625","lng":"8.53854"},{"label":"Borgoratto Mormorolo","lat":"44.92889","lng":"9.19402"},{"label":"Borgoricco-San Michele delle Badesse-Sant'Eufemia","lat":"45.5352","lng":"11.94111"},{"label":"Borgorose","lat":"42.19077","lng":"13.23282"},{"label":"Borgosatollo","lat":"45.4769","lng":"10.2403"},{"label":"Borgosesia","lat":"45.72045","lng":"8.27466"},{"label":"Bormida","lat":"44.27813","lng":"8.23235"},{"label":"Bormida-Genepro","lat":"44.39051","lng":"8.19952"},{"label":"Bormio","lat":"46.46717","lng":"10.37008"},{"label":"Bornasco","lat":"45.26657","lng":"9.21795"},{"label":"Bornato","lat":"45.59368","lng":"10.0409"},{"label":"Borno","lat":"45.94748","lng":"10.20243"},{"label":"Boroneddu","lat":"40.11262","lng":"8.87023"},{"label":"Borore","lat":"40.21576","lng":"8.80365"},{"label":"Borrello","lat":"41.9173","lng":"14.30535"},{"label":"Borriana","lat":"45.50781","lng":"8.0386"},{"label":"Borso del Grappa","lat":"45.81025","lng":"11.77367"},{"label":"Bortigali","lat":"40.28268","lng":"8.83946"},{"label":"Bortigiadas","lat":"40.89167","lng":"9.04352"},{"label":"Bortolot","lat":"46.38608","lng":"12.17371"},{"label":"Borutta","lat":"40.52236","lng":"8.74352"},{"label":"Borzano","lat":"44.6036","lng":"10.63675"},{"label":"Borzonasca","lat":"44.42002","lng":"9.38851"},{"label":"Bosa","lat":"40.29927","lng":"8.49827"},{"label":"Bosaro","lat":"44.99878","lng":"11.76471"},{"label":"Boschetto","lat":"45.16591","lng":"10.02656"},{"label":"Boschi Sant'Anna","lat":"45.21768","lng":"11.3562"},{"label":"Bosco","lat":"45.44337","lng":"11.7953"},{"label":"Bosco Chiesanuova","lat":"45.62103","lng":"11.03224"},{"label":"Bosco Ex Parmigiano","lat":"45.10697","lng":"10.0387"},{"label":"Bosco Marengo","lat":"44.82373","lng":"8.68008"},{"label":"Bosco Mesola","lat":"44.87639","lng":"12.23139"},{"label":"Boscochiaro","lat":"45.13658","lng":"12.12182"},{"label":"Bosconero","lat":"45.2663","lng":"7.76578"},{"label":"Boscoreale","lat":"40.77274","lng":"14.48118"},{"label":"Boscotrecase","lat":"40.77296","lng":"14.46185"},{"label":"Bosentino-Migazzone","lat":"46.0018","lng":"11.22318"},{"label":"Bosia","lat":"44.60244","lng":"8.14734"},{"label":"Bosio","lat":"44.64975","lng":"8.79285"},{"label":"Bosisio Parini","lat":"45.80075","lng":"9.29"},{"label":"Bosnasco","lat":"45.064","lng":"9.35692"},{"label":"Bossico","lat":"45.82839","lng":"10.04506"},{"label":"Bossolasco","lat":"44.52818","lng":"8.04993"},{"label":"Botricello","lat":"38.92997","lng":"16.85801"},{"label":"Botrugno","lat":"40.06359","lng":"18.32254"},{"label":"Botta","lat":"45.83222","lng":"9.53257"},{"label":"Bottanuco","lat":"45.63931","lng":"9.50903"},{"label":"Bottega","lat":"43.84523","lng":"12.74999"},{"label":"Botticino","lat":"45.52972","lng":"10.31085"},{"label":"Bottidda","lat":"40.39242","lng":"9.01039"},{"label":"Bottrighe","lat":"45.02552","lng":"12.08236"},{"label":"Bova","lat":"37.99507","lng":"15.9319"},{"label":"Bova Marina","lat":"37.93503","lng":"15.91736"},{"label":"Bovalino","lat":"38.15376","lng":"16.17232"},{"label":"Bovalino Superiore","lat":"38.16905","lng":"16.15849"},{"label":"Bovegno","lat":"45.79121","lng":"10.27012"},{"label":"Boves","lat":"44.32985","lng":"7.54733"},{"label":"Bovezzo","lat":"45.58998","lng":"10.24184"},{"label":"Boville Ernica","lat":"41.64252","lng":"13.4727"},{"label":"Bovino","lat":"41.24916","lng":"15.33948"},{"label":"Bovisio-Masciago","lat":"45.61019","lng":"9.15301"},{"label":"Bovolenta","lat":"45.26892","lng":"11.93576"},{"label":"Bovolone","lat":"45.26142","lng":"11.11786"},{"label":"Bozzole","lat":"45.06934","lng":"8.60561"},{"label":"Bozzolo","lat":"45.10324","lng":"10.47988"},{"label":"Bra","lat":"44.69776","lng":"7.85128"},{"label":"Bracca","lat":"45.82267","lng":"9.70784"},{"label":"Braccagni","lat":"42.87285","lng":"11.07266"},{"label":"Bracciano","lat":"42.10271","lng":"12.16565"},{"label":"Bracigliano","lat":"40.8188","lng":"14.70772"},{"label":"Braglia","lat":"44.98446","lng":"12.03377"},{"label":"Braies","lat":"46.72023","lng":"12.13339"},{"label":"Brancaleone","lat":"37.96297","lng":"16.1004"},{"label":"Brancaleone-Marina","lat":"37.96667","lng":"16.1"},{"label":"Brandico","lat":"45.45418","lng":"10.05267"},{"label":"Brandizzo","lat":"45.17706","lng":"7.83581"},{"label":"Branzi","lat":"46.00249","lng":"9.75935"},{"label":"Braone","lat":"45.99011","lng":"10.34178"},{"label":"Brebbia","lat":"45.82983","lng":"8.65042"},{"label":"Breda","lat":"45.7225","lng":"12.33083"},{"label":"Bregano","lat":"45.82578","lng":"8.68773"},{"label":"Breganze","lat":"45.70489","lng":"11.56074"},{"label":"Bregnano","lat":"45.69778","lng":"9.05934"},{"label":"Breguzzo","lat":"46.00679","lng":"10.69761"},{"label":"Breia","lat":"45.76497","lng":"8.30552"},{"label":"Brembate","lat":"45.60468","lng":"9.5548"},{"label":"Brembate di Sopra","lat":"45.71668","lng":"9.57945"},{"label":"Brembilla","lat":"45.82154","lng":"9.59679"},{"label":"Brembio","lat":"45.21234","lng":"9.57244"},{"label":"Breme","lat":"45.12756","lng":"8.62564"},{"label":"Brendola","lat":"45.47849","lng":"11.43947"},{"label":"Brenna","lat":"45.74338","lng":"9.18657"},{"label":"Brennero","lat":"47.00571","lng":"11.50633"},{"label":"Brennero - Brenner","lat":"46.93813","lng":"11.44247"},{"label":"Brenno Useria","lat":"45.86148","lng":"8.87801"},{"label":"Breno","lat":"45.95889","lng":"10.30648"},{"label":"Brenta","lat":"45.89418","lng":"8.68373"},{"label":"Brentino Belluno","lat":"45.65689","lng":"10.89368"},{"label":"Brentonico","lat":"45.8191","lng":"10.95508"},{"label":"Brenzone","lat":"45.69989","lng":"10.76058"},{"label":"Breo","lat":"44.39865","lng":"7.81903"},{"label":"Brescello","lat":"44.89531","lng":"10.51269"},{"label":"Brescia","lat":"45.53558","lng":"10.21472"},{"label":"Bresimo","lat":"46.41181","lng":"10.96817"},{"label":"Bressa","lat":"46.03446","lng":"13.14724"},{"label":"Bressana","lat":"45.07807","lng":"9.13119"},{"label":"Bressanone","lat":"46.71503","lng":"11.65598"},{"label":"Bressanvido","lat":"45.64651","lng":"11.63437"},{"label":"Bresso","lat":"45.53792","lng":"9.18921"},{"label":"Brez","lat":"46.4322","lng":"11.10578"},{"label":"Brezza","lat":"41.11073","lng":"14.11201"},{"label":"Brezzo di Bedero","lat":"45.97838","lng":"8.71743"},{"label":"Briaglia","lat":"44.39583","lng":"7.87574"},{"label":"Briatico","lat":"38.72254","lng":"16.02737"},{"label":"Bricco di Neive","lat":"44.71159","lng":"8.13409"},{"label":"Bricherasio","lat":"44.82328","lng":"7.303"},{"label":"Brienno","lat":"45.91175","lng":"9.13142"},{"label":"Brienza","lat":"40.47751","lng":"15.62927"},{"label":"Briga Alta","lat":"44.08273","lng":"7.74944"},{"label":"Briga Novarese","lat":"45.72931","lng":"8.45586"},{"label":"Brignano","lat":"44.81457","lng":"9.04005"},{"label":"Brignano Gera d'Adda","lat":"45.54324","lng":"9.64424"},{"label":"Brindisi","lat":"40.63215","lng":"17.93607"},{"label":"Brindisi Montagna","lat":"40.60952","lng":"15.93977"},{"label":"Brinzio","lat":"45.88914","lng":"8.78683"},{"label":"Briona","lat":"45.54247","lng":"8.47973"},{"label":"Brione","lat":"45.64228","lng":"10.14846"},{"label":"Brione","lat":"45.89488","lng":"10.58975"},{"label":"Briosco","lat":"45.71008","lng":"9.24064"},{"label":"Brisighella","lat":"44.22228","lng":"11.77358"},{"label":"Brissago-Valtravaglia","lat":"45.94921","lng":"8.7459"},{"label":"Brittoli","lat":"42.31518","lng":"13.86026"},{"label":"Brivio","lat":"45.73725","lng":"9.44249"},{"label":"Broccostella","lat":"41.69972","lng":"13.63531"},{"label":"Brogliano","lat":"45.58919","lng":"11.36549"},{"label":"Brognaturo","lat":"38.60128","lng":"16.3414"},{"label":"Brognoligo-Costalunga","lat":"45.44869","lng":"11.29379"},{"label":"Brolo","lat":"38.15623","lng":"14.82799"},{"label":"Brondello","lat":"44.60073","lng":"7.40592"},{"label":"Brongio","lat":"45.76535","lng":"9.31251"},{"label":"Broni","lat":"45.06394","lng":"9.25993"},{"label":"Bronte","lat":"37.78863","lng":"14.83377"},{"label":"Bronzolo","lat":"46.40346","lng":"11.32078"},{"label":"Brossasco","lat":"44.56778","lng":"7.36454"},{"label":"Brosso","lat":"45.4918","lng":"7.80225"},{"label":"Brovello","lat":"45.84246","lng":"8.53189"},{"label":"Brovello-Carpugnino","lat":"45.84247","lng":"8.53173"},{"label":"Brozolo","lat":"45.11695","lng":"8.07193"},{"label":"Brozzo","lat":"45.72019","lng":"10.23092"},{"label":"Brucoli","lat":"37.28191","lng":"15.18836"},{"label":"Brugherio","lat":"45.55301","lng":"9.29907"},{"label":"Brugine","lat":"45.29696","lng":"11.992"},{"label":"Brugnato","lat":"44.23671","lng":"9.72496"},{"label":"Brugnera","lat":"45.89947","lng":"12.54178"},{"label":"Bruino","lat":"45.01506","lng":"7.47754"},{"label":"Brumano","lat":"45.85463","lng":"9.50064"},{"label":"Bruna","lat":"42.82071","lng":"12.68851"},{"label":"Brunate","lat":"45.82096","lng":"9.09869"},{"label":"Brunello","lat":"45.76497","lng":"8.79533"},{"label":"Brunico","lat":"46.79942","lng":"11.93429"},{"label":"Bruno","lat":"44.79262","lng":"8.43973"},{"label":"Brusaporto","lat":"45.6714","lng":"9.76041"},{"label":"Brusasco","lat":"45.15499","lng":"8.06107"},{"label":"Brusciano","lat":"40.92237","lng":"14.42386"},{"label":"Brusimpiano","lat":"45.94468","lng":"8.88953"},{"label":"Brusnengo","lat":"45.59011","lng":"8.25219"},{"label":"Brusson","lat":"45.75926","lng":"7.72899"},{"label":"Bruzolo","lat":"45.14093","lng":"7.19463"},{"label":"Bruzzano Zeffirio","lat":"38.01327","lng":"16.0826"},{"label":"Bubano","lat":"44.41341","lng":"11.78231"},{"label":"Bubbiano","lat":"45.32727","lng":"9.01455"},{"label":"Bubbio","lat":"44.66344","lng":"8.29514"},{"label":"Buccheri","lat":"37.12494","lng":"14.85222"},{"label":"Bucchianico","lat":"42.30368","lng":"14.18377"},{"label":"Bucciano","lat":"41.07756","lng":"14.56898"},{"label":"Buccinasco","lat":"45.40703","lng":"9.1083"},{"label":"Buccino","lat":"40.6367","lng":"15.38116"},{"label":"Bucine","lat":"43.47685","lng":"11.61399"},{"label":"Buddusò","lat":"40.57723","lng":"9.25839"},{"label":"Budoia","lat":"46.04453","lng":"12.53429"},{"label":"Budoni","lat":"40.70467","lng":"9.70384"},{"label":"Budrio","lat":"44.53745","lng":"11.53439"},{"label":"Budrio","lat":"44.09916","lng":"12.34033"},{"label":"Buffalora-Bettole","lat":"45.49681","lng":"10.27518"},{"label":"Buggerru","lat":"39.39831","lng":"8.40186"},{"label":"Buglio in Monte","lat":"46.18336","lng":"9.67542"},{"label":"Bugnara","lat":"42.02383","lng":"13.86141"},{"label":"Buguggiate","lat":"45.78227","lng":"8.81063"},{"label":"Buia","lat":"46.21222","lng":"13.11691"},{"label":"Bulciago","lat":"45.75058","lng":"9.28534"},{"label":"Bulgarograsso","lat":"45.74708","lng":"9.00644"},{"label":"Bulgorello","lat":"45.72433","lng":"9.05524"},{"label":"Bultei","lat":"40.4572","lng":"9.06367"},{"label":"Bulzi","lat":"40.84666","lng":"8.83026"},{"label":"Buonabitacolo","lat":"40.26855","lng":"15.62119"},{"label":"Buonalbergo","lat":"41.22236","lng":"14.97799"},{"label":"Buonconvento","lat":"43.13314","lng":"11.48363"},{"label":"Buonvicino","lat":"39.68877","lng":"15.884"},{"label":"Burago di Molgora","lat":"45.59648","lng":"9.38165"},{"label":"Burano","lat":"45.48548","lng":"12.41696"},{"label":"Burcei","lat":"39.34379","lng":"9.36027"},{"label":"Burgio","lat":"37.60094","lng":"13.28826"},{"label":"Burgos","lat":"40.39081","lng":"8.99558"},{"label":"Buriasco","lat":"44.87222","lng":"7.412"},{"label":"Burolo","lat":"45.48116","lng":"7.93392"},{"label":"Buronzo","lat":"45.48018","lng":"8.26628"},{"label":"Busachi","lat":"40.03422","lng":"8.88848"},{"label":"Busalla","lat":"44.5706","lng":"8.94545"},{"label":"Busana","lat":"44.36886","lng":"10.32339"},{"label":"Busano","lat":"45.33137","lng":"7.65727"},{"label":"Busca","lat":"44.51625","lng":"7.47662"},{"label":"Buscate","lat":"45.54353","lng":"8.81297"},{"label":"Buscemi","lat":"37.08604","lng":"14.88499"},{"label":"Buscoldo","lat":"45.0943","lng":"10.69581"},{"label":"Buseto Palizzolo","lat":"38.00339","lng":"12.70911"},{"label":"Busnago","lat":"45.61648","lng":"9.46375"},{"label":"Buso","lat":"45.06491","lng":"11.84772"},{"label":"Bussero","lat":"45.53407","lng":"9.37205"},{"label":"Busseto","lat":"44.9794","lng":"10.04331"},{"label":"Bussi sul Tirino","lat":"42.21321","lng":"13.82511"},{"label":"Busso","lat":"41.55413","lng":"14.56103"},{"label":"Bussolengo","lat":"45.46903","lng":"10.85371"},{"label":"Bussoleno","lat":"45.1397","lng":"7.14432"},{"label":"Busto Arsizio","lat":"45.61128","lng":"8.84914"},{"label":"Busto Garolfo","lat":"45.54809","lng":"8.88298"},{"label":"Butera","lat":"37.191","lng":"14.18232"},{"label":"Buti","lat":"43.72857","lng":"10.5845"},{"label":"Buttapietra","lat":"45.3411","lng":"10.99915"},{"label":"Buttigliera Alta","lat":"45.06836","lng":"7.43254"},{"label":"Buttigliera d'Asti","lat":"45.02175","lng":"7.95103"},{"label":"Buttrio","lat":"46.01098","lng":"13.33354"},{"label":"Cà Dè Fabbri","lat":"44.61962","lng":"11.45503"},{"label":"Ca' d'Andrea","lat":"45.11957","lng":"10.27748"},{"label":"Ca' degli Oppi","lat":"45.2955","lng":"11.13029"},{"label":"Ca' di Sola","lat":"44.52986","lng":"10.95448"},{"label":"Ca' Morosini","lat":"45.11266","lng":"11.6189"},{"label":"Ca' Rainati","lat":"45.75764","lng":"11.85113"},{"label":"Ca' Savio","lat":"45.45375","lng":"12.45729"},{"label":"Ca' Tiepolo","lat":"44.94861","lng":"12.33917"},{"label":"Cabella Ligure","lat":"44.67491","lng":"9.09607"},{"label":"Cabiate","lat":"45.67418","lng":"9.17374"},{"label":"Cabras","lat":"39.92871","lng":"8.53242"},{"label":"Caccamo","lat":"37.93357","lng":"13.66808"},{"label":"Caccuri","lat":"39.22562","lng":"16.77767"},{"label":"Cadè-Gaida","lat":"44.7385","lng":"10.5158"},{"label":"Cadegliano-Viconago","lat":"45.95948","lng":"8.84343"},{"label":"Cadelbosco di Sopra","lat":"44.76573","lng":"10.59898"},{"label":"Cadelbosco di Sotto","lat":"44.80141","lng":"10.61578"},{"label":"Cadenabbia","lat":"45.98861","lng":"9.23615"},{"label":"Caderzone Terme","lat":"46.12945","lng":"10.75619"},{"label":"Cadine","lat":"46.0896","lng":"11.06847"},{"label":"Cadipietra","lat":"46.99576","lng":"11.98026"},{"label":"Cadoneghe","lat":"45.44282","lng":"11.92749"},{"label":"Cadorago-Caslino al Piano","lat":"45.72728","lng":"9.03784"},{"label":"Cadrezzate","lat":"45.79927","lng":"8.64333"},{"label":"Caerano di San Marco","lat":"45.7816","lng":"11.99851"},{"label":"Cafasse","lat":"45.24865","lng":"7.51882"},{"label":"Caggiano","lat":"40.5624","lng":"15.49629"},{"label":"Cagli","lat":"43.54771","lng":"12.65229"},{"label":"Cagliari","lat":"39.23054","lng":"9.11917"},{"label":"Caglio","lat":"45.87146","lng":"9.23719"},{"label":"Cagnano Amiterno","lat":"42.45744","lng":"13.22789"},{"label":"Cagnano Varano","lat":"41.82832","lng":"15.77203"},{"label":"Cagno","lat":"45.81108","lng":"8.91733"},{"label":"Cagnò","lat":"46.39431","lng":"11.04117"},{"label":"Caianello","lat":"41.30509","lng":"14.08516"},{"label":"Caiazzo","lat":"41.18435","lng":"14.35946"},{"label":"Caines","lat":"46.69794","lng":"11.17122"},{"label":"Caines - Kuens","lat":"46.70002","lng":"11.16987"},{"label":"Caino","lat":"45.60939","lng":"10.31317"},{"label":"Caiolo","lat":"46.14999","lng":"9.81455"},{"label":"Caira","lat":"41.53333","lng":"13.81667"},{"label":"Cairano","lat":"40.89552","lng":"15.37069"},{"label":"Cairate","lat":"45.6875","lng":"8.86807"},{"label":"Cairo Montenotte","lat":"44.3979","lng":"8.27775"},{"label":"Caivano","lat":"40.95753","lng":"14.30591"},{"label":"Cala Gonone","lat":"40.28086","lng":"9.62971"},{"label":"Calabritto","lat":"40.78342","lng":"15.22285"},{"label":"Calalzo di Cadore","lat":"46.44643","lng":"12.38176"},{"label":"Calamandrana","lat":"44.73767","lng":"8.33726"},{"label":"Calamonaci","lat":"37.52566","lng":"13.29053"},{"label":"Calangianus","lat":"40.92027","lng":"9.19343"},{"label":"Calanna","lat":"38.18457","lng":"15.72293"},{"label":"Calasca-Castiglione","lat":"46.02081","lng":"8.21451"},{"label":"Calascibetta","lat":"37.59024","lng":"14.2718"},{"label":"Calascio","lat":"42.32595","lng":"13.69699"},{"label":"Calasetta","lat":"39.10697","lng":"8.36803"},{"label":"Calatabiano","lat":"37.82049","lng":"15.23069"},{"label":"Calatafimi","lat":"37.9144","lng":"12.86364"},{"label":"Calavino","lat":"46.04606","lng":"10.98402"},{"label":"Calcara","lat":"44.54696","lng":"11.13366"},{"label":"Calcata Nuova","lat":"42.21952","lng":"12.42617"},{"label":"Calceranica al Lago","lat":"46.0046","lng":"11.24368"},{"label":"Calchera-Frontale","lat":"45.83415","lng":"9.51155"},{"label":"Calci","lat":"43.72597","lng":"10.51791"},{"label":"Calciano","lat":"40.58802","lng":"16.19238"},{"label":"Calcinaia","lat":"43.68352","lng":"10.61653"},{"label":"Calcinate","lat":"45.61975","lng":"9.79843"},{"label":"Calcinato","lat":"45.45739","lng":"10.40949"},{"label":"Calcinelli","lat":"43.75398","lng":"12.91959"},{"label":"Calcio","lat":"45.50826","lng":"9.84902"},{"label":"Calco","lat":"45.72418","lng":"9.41255"},{"label":"Caldaro sulla Strada del Vino","lat":"46.41326","lng":"11.24616"},{"label":"Caldarola","lat":"43.14282","lng":"13.22367"},{"label":"Calderara di Reno","lat":"44.56307","lng":"11.27111"},{"label":"Calderino","lat":"44.45774","lng":"11.19927"},{"label":"Caldes","lat":"46.36686","lng":"10.94037"},{"label":"Caldierino-Rota","lat":"45.41616","lng":"11.15696"},{"label":"Caldiero","lat":"45.41439","lng":"11.17739"},{"label":"Caldine","lat":"43.82834","lng":"11.30442"},{"label":"Caldogno-Rettorgole-Cresole","lat":"45.6078","lng":"11.5028"},{"label":"Caldonazzo","lat":"45.99367","lng":"11.26426"},{"label":"Calendasco","lat":"45.08659","lng":"9.59647"},{"label":"Calenzano","lat":"43.85447","lng":"11.16608"},{"label":"Caleppio","lat":"45.43436","lng":"9.3825"},{"label":"Calerno","lat":"44.74875","lng":"10.48603"},{"label":"Calestano","lat":"44.60224","lng":"10.12363"},{"label":"Calice al Cornoviglio","lat":"44.24326","lng":"9.83671"},{"label":"Calice Ligure","lat":"44.20493","lng":"8.29535"},{"label":"Calimera","lat":"40.24948","lng":"18.27982"},{"label":"Calitri","lat":"40.92569","lng":"15.40393"},{"label":"Calizzano","lat":"44.23612","lng":"8.11817"},{"label":"Callabiana - Chiesa","lat":"45.63137","lng":"8.09722"},{"label":"Calliano","lat":"45.93299","lng":"11.09503"},{"label":"Calliano","lat":"45.00798","lng":"8.25661"},{"label":"Calmasino","lat":"45.52099","lng":"10.75206"},{"label":"Calò","lat":"45.67908","lng":"9.26309"},{"label":"Calolziocorte","lat":"45.79538","lng":"9.43765"},{"label":"Caloppezzati","lat":"39.5612","lng":"16.8018"},{"label":"Calosso","lat":"44.73994","lng":"8.22714"},{"label":"Caloveto","lat":"39.50656","lng":"16.76065"},{"label":"Calozzo","lat":"46.10055","lng":"9.27531"},{"label":"Caltabellotta","lat":"37.57543","lng":"13.21632"},{"label":"Caltagirone","lat":"37.23785","lng":"14.51551"},{"label":"Caltana","lat":"45.48278","lng":"12.03002"},{"label":"Caltanissetta","lat":"37.49025","lng":"14.06216"},{"label":"Caltavuturo","lat":"37.8204","lng":"13.89158"},{"label":"Caltignaga","lat":"45.52088","lng":"8.58616"},{"label":"Calto","lat":"44.99072","lng":"11.35854"},{"label":"Caltrano","lat":"45.77346","lng":"11.4557"},{"label":"Calusco d'Adda","lat":"45.68841","lng":"9.47109"},{"label":"Caluso","lat":"45.30466","lng":"7.89101"},{"label":"Calvagese della Riviera","lat":"45.53922","lng":"10.44605"},{"label":"Calvanico","lat":"40.77616","lng":"14.82697"},{"label":"Calvatone","lat":"45.12697","lng":"10.44057"},{"label":"Calvello","lat":"40.47482","lng":"15.85092"},{"label":"Calvene","lat":"45.76615","lng":"11.51146"},{"label":"Calvenzano","lat":"45.49621","lng":"9.59953"},{"label":"Calvera","lat":"40.14871","lng":"16.14362"},{"label":"Calvi","lat":"41.07162","lng":"14.86524"},{"label":"Calvi dell'Umbria","lat":"42.40421","lng":"12.56771"},{"label":"Calvi Risorta","lat":"41.21598","lng":"14.13092"},{"label":"Calvignano","lat":"44.98306","lng":"9.16876"},{"label":"Calvignasco","lat":"45.32597","lng":"9.02775"},{"label":"Calvisano","lat":"45.34529","lng":"10.34266"},{"label":"Calvisi","lat":"39.12739","lng":"16.3059"},{"label":"Calvizzano","lat":"40.90782","lng":"14.18581"},{"label":"Camagna Monferrato","lat":"45.01765","lng":"8.42974"},{"label":"Camaiore","lat":"43.94265","lng":"10.29754"},{"label":"Camairago","lat":"45.20527","lng":"9.72746"},{"label":"Camalò","lat":"45.75324","lng":"12.17165"},{"label":"Camandona","lat":"45.64417","lng":"8.09972"},{"label":"Camastra","lat":"37.2538","lng":"13.79211"},{"label":"Cambiago","lat":"45.58035","lng":"9.43528"},{"label":"Cambiano","lat":"44.97113","lng":"7.77447"},{"label":"Cambiasca","lat":"45.96238","lng":"8.54462"},{"label":"Camburzano","lat":"45.54393","lng":"8.00226"},{"label":"Camerana","lat":"44.42338","lng":"8.14141"},{"label":"Camerano","lat":"43.52774","lng":"13.55257"},{"label":"Camerano","lat":"44.99118","lng":"8.08965"},{"label":"Camerano Casasco","lat":"44.99165","lng":"8.09103"},{"label":"Camerata Cornello","lat":"45.89956","lng":"9.65569"},{"label":"Camerata Nuova","lat":"42.018","lng":"13.1097"},{"label":"Camerata Picena","lat":"43.57758","lng":"13.35196"},{"label":"Cameri","lat":"45.50159","lng":"8.66245"},{"label":"Camerino","lat":"43.13866","lng":"13.06785"},{"label":"Camerota","lat":"40.03262","lng":"15.37048"},{"label":"Camigliano","lat":"41.18116","lng":"14.20978"},{"label":"Camilleri-Vallelata","lat":"41.59848","lng":"12.61738"},{"label":"Caminata","lat":"44.91036","lng":"9.30816"},{"label":"Camini","lat":"38.43179","lng":"16.48321"},{"label":"Camino","lat":"45.15723","lng":"8.29376"},{"label":"Camino al Tagliamento","lat":"45.92767","lng":"12.94489"},{"label":"Camisano","lat":"45.44484","lng":"9.74526"},{"label":"Camisano Vicentino","lat":"45.52156","lng":"11.70817"},{"label":"Cammarata","lat":"37.63361","lng":"13.62722"},{"label":"Camnago-Boscone","lat":"45.80472","lng":"8.97934"},{"label":"Camo","lat":"44.69504","lng":"8.19434"},{"label":"Camogli","lat":"44.34945","lng":"9.15487"},{"label":"Camoneone","lat":"45.78547","lng":"9.5691"},{"label":"Campagna","lat":"40.66661","lng":"15.10638"},{"label":"Campagna Lupia","lat":"45.35381","lng":"12.09727"},{"label":"Campagnano di Roma","lat":"42.1357","lng":"12.37358"},{"label":"Campagnatico","lat":"42.88283","lng":"11.27394"},{"label":"Campagnola","lat":"45.27866","lng":"11.99902"},{"label":"Campagnola","lat":"45.35833","lng":"11.04956"},{"label":"Campagnola Cremasca","lat":"45.39847","lng":"9.66946"},{"label":"Campagnola Emilia","lat":"44.83925","lng":"10.76507"},{"label":"Campalto","lat":"45.48062","lng":"12.28747"},{"label":"Campana","lat":"39.4136","lng":"16.8222"},{"label":"Campanarello","lat":"41.04717","lng":"14.91418"},{"label":"Campanella-Gianforma","lat":"36.9263","lng":"14.8336"},{"label":"Camparada","lat":"45.65489","lng":"9.32328"},{"label":"Campegine","lat":"44.78085","lng":"10.52836"},{"label":"Campello sul Clitunno","lat":"42.82685","lng":"12.76931"},{"label":"Campertogno","lat":"45.79877","lng":"8.03212"},{"label":"Campese","lat":"45.8058","lng":"11.71289"},{"label":"Campi Bisenzio","lat":"43.8245","lng":"11.13027"},{"label":"Campi Salentina","lat":"40.39747","lng":"18.02141"},{"label":"Campiglia Cervo","lat":"45.6629","lng":"7.99967"},{"label":"Campiglia dei Berici","lat":"45.33546","lng":"11.5421"},{"label":"Campiglia Marittima","lat":"43.06001","lng":"10.61453"},{"label":"Campiglione","lat":"44.80284","lng":"7.32422"},{"label":"Campiglione","lat":"43.1763","lng":"13.67043"},{"label":"Campione","lat":"45.96818","lng":"8.97181"},{"label":"Campitello","lat":"45.0875","lng":"10.60632"},{"label":"Campitello di Fassa","lat":"46.47579","lng":"11.7411"},{"label":"Campli","lat":"42.72679","lng":"13.68692"},{"label":"Campo","lat":"43.70811","lng":"10.47703"},{"label":"Campo Calabro","lat":"38.21607","lng":"15.65919"},{"label":"Campo dei Fiori","lat":"45.5506","lng":"9.19939"},{"label":"Campo di Carne","lat":"41.55265","lng":"12.64114"},{"label":"Campo di Giove","lat":"42.01013","lng":"14.03941"},{"label":"Campo di Trens","lat":"46.87412","lng":"11.48605"},{"label":"Campo Jemini","lat":"41.62716","lng":"12.51258"},{"label":"Campo Ligure","lat":"44.53658","lng":"8.69896"},{"label":"Campo Limpido-Favale","lat":"41.96732","lng":"12.77016"},{"label":"Campo nell'Elba","lat":"42.74802","lng":"10.23332"},{"label":"Campo San Martino","lat":"45.54868","lng":"11.82809"},{"label":"Campo Tizzoro","lat":"44.03994","lng":"10.85237"},{"label":"Campo Tures","lat":"46.90844","lng":"11.96036"},{"label":"Campobasso","lat":"41.55947","lng":"14.66737"},{"label":"Campobello di Licata","lat":"37.25759","lng":"13.91811"},{"label":"Campobello di Mazara","lat":"37.63464","lng":"12.74946"},{"label":"Campocavallo","lat":"43.4612","lng":"13.49679"},{"label":"Campochiaro","lat":"41.44827","lng":"14.50828"},{"label":"Campochiesa","lat":"44.07069","lng":"8.19712"},{"label":"Campodarsego","lat":"45.49815","lng":"11.92194"},{"label":"Campodenno","lat":"46.25791","lng":"11.03317"},{"label":"Campodimele","lat":"41.38822","lng":"13.53081"},{"label":"Campodipietra","lat":"41.5574","lng":"14.74445"},{"label":"Campodolcino","lat":"46.4029","lng":"9.35185"},{"label":"Campodoro","lat":"45.48947","lng":"11.75268"},{"label":"Campofelice di Fitalia","lat":"37.82686","lng":"13.48572"},{"label":"Campofelice di Roccella","lat":"37.9927","lng":"13.87648"},{"label":"Campofilone","lat":"43.081","lng":"13.82153"},{"label":"Campofiorenzo-California","lat":"45.66768","lng":"9.31708"},{"label":"Campofiorito","lat":"37.75374","lng":"13.26875"},{"label":"Campoformido","lat":"46.01952","lng":"13.1575"},{"label":"Campofranco","lat":"37.51208","lng":"13.71213"},{"label":"Campogalliano","lat":"44.68874","lng":"10.84705"},{"label":"Campolattaro","lat":"41.28693","lng":"14.73043"},{"label":"Campoleone","lat":"41.6457","lng":"12.64826"},{"label":"Campoli Appennino","lat":"41.73539","lng":"13.68326"},{"label":"Campoli del Monte Taburno","lat":"41.13074","lng":"14.64649"},{"label":"Campolieto","lat":"41.63336","lng":"14.76694"},{"label":"Campolongo al Torre","lat":"45.86389","lng":"13.39667"},{"label":"Campolongo al Torre-Cavenzano","lat":"45.86306","lng":"13.38944"},{"label":"Campolongo Maggiore","lat":"45.32352","lng":"12.04391"},{"label":"Campolongo Maggiore Liettoli","lat":"45.33944","lng":"12.02417"},{"label":"Campolongo sul Brenta","lat":"45.8271","lng":"11.7008"},{"label":"Campomaggiore","lat":"40.5659","lng":"16.0725"},{"label":"Campomarino","lat":"41.95692","lng":"15.03546"},{"label":"Campomolino","lat":"44.40883","lng":"7.21192"},{"label":"Campomorone","lat":"44.50954","lng":"8.88502"},{"label":"Camponogara","lat":"45.37954","lng":"12.08638"},{"label":"Campora","lat":"40.30541","lng":"15.29236"},{"label":"Campora San Giovanni","lat":"39.06798","lng":"16.09566"},{"label":"Camporeale","lat":"37.88612","lng":"13.10107"},{"label":"Camporgiano","lat":"44.15927","lng":"10.333"},{"label":"Camporosso","lat":"43.8131","lng":"7.62829"},{"label":"Camporotondo di Fiastrone","lat":"43.13203","lng":"13.26632"},{"label":"Camporotondo Etneo","lat":"37.56565","lng":"15.00319"},{"label":"Camposampiero","lat":"45.56368","lng":"11.93534"},{"label":"Camposano","lat":"40.95242","lng":"14.52991"},{"label":"Camposanto","lat":"44.79009","lng":"11.14049"},{"label":"Campospinoso","lat":"45.09403","lng":"9.24585"},{"label":"Campotosto","lat":"42.55884","lng":"13.36799"},{"label":"Camucia-Monsigliolo","lat":"43.25926","lng":"11.97114"},{"label":"Camugnano","lat":"44.1711","lng":"11.08828"},{"label":"Canal San Bovo","lat":"46.15667","lng":"11.72998"},{"label":"Canale","lat":"44.79532","lng":"7.99373"},{"label":"Canale d'Agordo","lat":"46.35693","lng":"11.91429"},{"label":"Canale Monterano","lat":"42.13598","lng":"12.10284"},{"label":"Canalicchio","lat":"37.54097","lng":"15.09645"},{"label":"Canaro","lat":"44.93394","lng":"11.67541"},{"label":"Canavaccio","lat":"43.69376","lng":"12.69863"},{"label":"Canazei","lat":"46.47627","lng":"11.76929"},{"label":"Cancellara","lat":"40.73068","lng":"15.9247"},{"label":"Cancello ed Arnone","lat":"41.07301","lng":"14.02714"},{"label":"Cancello-Arnone","lat":"41.0734","lng":"14.02542"},{"label":"Canda","lat":"45.03608","lng":"11.50331"},{"label":"Candela","lat":"41.13601","lng":"15.51537"},{"label":"Candelo","lat":"45.54093","lng":"8.10659"},{"label":"Candelù","lat":"45.73499","lng":"12.37224"},{"label":"Candia Canavese","lat":"45.32734","lng":"7.88429"},{"label":"Candia Lomellina","lat":"45.1767","lng":"8.5955"},{"label":"Candiana","lat":"45.22184","lng":"11.99256"},{"label":"Candida","lat":"40.94148","lng":"14.8723"},{"label":"Candide","lat":"46.58913","lng":"12.51476"},{"label":"Candidoni","lat":"38.50548","lng":"16.0863"},{"label":"Candiolo","lat":"44.95858","lng":"7.59812"},{"label":"Canegrate","lat":"45.56825","lng":"8.92689"},{"label":"Canelli","lat":"44.72084","lng":"8.29282"},{"label":"Canepina","lat":"42.38315","lng":"12.23179"},{"label":"Caneva","lat":"45.97078","lng":"12.45261"},{"label":"Canicattì","lat":"37.35842","lng":"13.84786"},{"label":"Canicattini Bagni","lat":"37.03171","lng":"15.06388"},{"label":"Caniezza","lat":"45.85274","lng":"11.899"},{"label":"Canino","lat":"42.46592","lng":"11.75294"},{"label":"Canischio","lat":"45.37485","lng":"7.59621"},{"label":"Canistro Inferiore","lat":"41.94101","lng":"13.41194"},{"label":"Canna","lat":"40.09484","lng":"16.50378"},{"label":"Cannalonga","lat":"40.24461","lng":"15.29325"},{"label":"Cannara","lat":"42.9954","lng":"12.58202"},{"label":"Cannero Riviera","lat":"46.022","lng":"8.67933"},{"label":"Canneto","lat":"38.49505","lng":"14.96037"},{"label":"Canneto","lat":"45.05116","lng":"9.28101"},{"label":"Canneto Pavese","lat":"45.05046","lng":"9.27876"},{"label":"Canneto sull'Oglio","lat":"45.15163","lng":"10.38282"},{"label":"Cannizzaro-Favara","lat":"38.06163","lng":"13.27167"},{"label":"Cannobio","lat":"46.06233","lng":"8.69628"},{"label":"Cannole","lat":"40.16592","lng":"18.36456"},{"label":"Canolo","lat":"38.31497","lng":"16.1999"},{"label":"Canonica","lat":"45.65587","lng":"9.28749"},{"label":"Canonica d'Adda","lat":"45.57568","lng":"9.54165"},{"label":"Canosa di Puglia","lat":"41.21954","lng":"16.06768"},{"label":"Canosa Sannita","lat":"42.29629","lng":"14.30514"},{"label":"Canosio","lat":"44.45583","lng":"7.08272"},{"label":"Canova-San Zeno","lat":"45.72116","lng":"9.4003"},{"label":"Canove di Roana","lat":"45.8635","lng":"11.4735"},{"label":"Cansano","lat":"42.0035","lng":"14.01341"},{"label":"Cantagallo","lat":"44.02205","lng":"11.07971"},{"label":"Cantagrillo-Casalguidi","lat":"43.86937","lng":"10.91386"},{"label":"Cantalice","lat":"42.46458","lng":"12.90461"},{"label":"Cantalupa","lat":"44.94594","lng":"7.33032"},{"label":"Cantalupo","lat":"45.57813","lng":"8.98261"},{"label":"Cantalupo in Sabina","lat":"42.30689","lng":"12.64513"},{"label":"Cantalupo Ligure","lat":"44.71811","lng":"9.04575"},{"label":"Cantalupo nel Sannio","lat":"41.52182","lng":"14.39292"},{"label":"Cantarana","lat":"44.90245","lng":"8.02753"},{"label":"Cantello","lat":"45.82248","lng":"8.89593"},{"label":"Canterano","lat":"41.94322","lng":"13.03809"},{"label":"Cantiano","lat":"43.47082","lng":"12.62868"},{"label":"Cantinella","lat":"39.66458","lng":"16.44912"},{"label":"Cantoira","lat":"45.34014","lng":"7.3845"},{"label":"Cantù","lat":"45.74096","lng":"9.13084"},{"label":"Canzano","lat":"42.64564","lng":"13.8041"},{"label":"Canzo","lat":"45.84867","lng":"9.27063"},{"label":"Caorle","lat":"45.59656","lng":"12.8758"},{"label":"Caorso","lat":"45.04911","lng":"9.87457"},{"label":"Capaccio","lat":"40.42435","lng":"15.07981"},{"label":"Capaccio Scalo","lat":"40.45531","lng":"15.00891"},{"label":"Capaci","lat":"38.17107","lng":"13.2393"},{"label":"Capalbio","lat":"42.45342","lng":"11.42175"},{"label":"Capanne-Prato-Cinquale","lat":"43.9972","lng":"10.15636"},{"label":"Capannoli","lat":"43.58856","lng":"10.67328"},{"label":"Capannori","lat":"43.84171","lng":"10.57271"},{"label":"Capena","lat":"42.14247","lng":"12.54513"},{"label":"Capergnanica","lat":"45.33869","lng":"9.64475"},{"label":"Capestrano","lat":"42.26807","lng":"13.76779"},{"label":"Capezzano Inferiore","lat":"40.70067","lng":"14.77301"},{"label":"Capezzano-Cologna","lat":"40.71518","lng":"14.77364"},{"label":"Capiago-Intimiano-Olmeda","lat":"45.76898","lng":"9.12764"},{"label":"Capirro","lat":"41.25403","lng":"16.42242"},{"label":"Capistrano","lat":"38.69131","lng":"16.28935"},{"label":"Capistrello","lat":"41.97223","lng":"13.39616"},{"label":"Capitan Loreto","lat":"43.01731","lng":"12.6475"},{"label":"Capitello","lat":"45.20792","lng":"11.14014"},{"label":"Capitignano","lat":"42.52041","lng":"13.30122"},{"label":"Capitignano","lat":"40.71851","lng":"14.90465"},{"label":"Capizzi","lat":"37.84788","lng":"14.47976"},{"label":"Capo d'Orlando","lat":"38.14262","lng":"14.73292"},{"label":"Capo di Ponte","lat":"46.03","lng":"10.34283"},{"label":"Capo Rizzuto","lat":"38.90412","lng":"17.09872"},{"label":"Capodarco","lat":"43.18985","lng":"13.75935"},{"label":"Capodimonte","lat":"42.5478","lng":"11.90657"},{"label":"Capodrise","lat":"41.04268","lng":"14.30607"},{"label":"Capoliveri","lat":"42.74569","lng":"10.37753"},{"label":"Capolona","lat":"43.56685","lng":"11.86374"},{"label":"Caponago","lat":"45.56647","lng":"9.37585"},{"label":"Caporciano","lat":"42.25001","lng":"13.67455"},{"label":"Caposele","lat":"40.81553","lng":"15.22337"},{"label":"Capoterra","lat":"39.1752","lng":"8.97199"},{"label":"Capovalle","lat":"45.75339","lng":"10.54447"},{"label":"Cappadocia","lat":"42.00755","lng":"13.27806"},{"label":"Cappella Cantone","lat":"45.24657","lng":"9.83826"},{"label":"Cappella de' Picenardi","lat":"45.15857","lng":"10.22998"},{"label":"Cappella Maggiore","lat":"45.97222","lng":"12.35855"},{"label":"Cappelle sul Tavo","lat":"42.47709","lng":"14.10735"},{"label":"Cappelletta","lat":"45.10514","lng":"10.77847"},{"label":"Cappone","lat":"43.83071","lng":"12.74458"},{"label":"Capracotta","lat":"41.83326","lng":"14.26581"},{"label":"Capraia e Limite","lat":"43.74535","lng":"10.98342"},{"label":"Capraia Isola","lat":"43.05064","lng":"9.84298"},{"label":"Capralba","lat":"45.44352","lng":"9.64417"},{"label":"Capranica","lat":"42.25849","lng":"12.17278"},{"label":"Capranica Prenestina","lat":"41.86285","lng":"12.95077"},{"label":"Caprara","lat":"44.77521","lng":"10.51158"},{"label":"Caprarica di Lecce","lat":"40.2606","lng":"18.24426"},{"label":"Caprarola","lat":"42.32308","lng":"12.23848"},{"label":"Caprauna","lat":"44.11603","lng":"7.95495"},{"label":"Caprese Michelangelo","lat":"43.64031","lng":"11.98546"},{"label":"Caprezzo","lat":"45.98198","lng":"8.56282"},{"label":"Capri","lat":"40.55073","lng":"14.24263"},{"label":"Capri Leone","lat":"38.08682","lng":"14.72959"},{"label":"Capriana","lat":"46.26281","lng":"11.33801"},{"label":"Capriano","lat":"45.72298","lng":"9.25526"},{"label":"Capriano del Colle","lat":"45.47478","lng":"10.13227"},{"label":"Capriata d'Orba","lat":"44.72785","lng":"8.69085"},{"label":"Capriate San Gervasio","lat":"45.61281","lng":"9.52974"},{"label":"Capriati A Volturno","lat":"41.46801","lng":"14.14602"},{"label":"Caprie","lat":"45.11944","lng":"7.33294"},{"label":"Capriglia","lat":"40.73216","lng":"14.76035"},{"label":"Capriglia","lat":"40.95972","lng":"14.7782"},{"label":"Capriglia Irpina","lat":"40.96032","lng":"14.77724"},{"label":"Capriglio","lat":"45.00355","lng":"8.00893"},{"label":"Caprino","lat":"45.74903","lng":"9.49235"},{"label":"Caprino Veronese","lat":"45.60489","lng":"10.79518"},{"label":"Capriolo","lat":"45.63333","lng":"9.93189"},{"label":"Capriva del Friuli","lat":"45.94093","lng":"13.51422"},{"label":"Capua","lat":"41.10519","lng":"14.21269"},{"label":"Capurso","lat":"41.04598","lng":"16.92168"},{"label":"Caraffa del Bianco","lat":"38.09259","lng":"16.08766"},{"label":"Caraffa di Catanzaro","lat":"38.88194","lng":"16.48675"},{"label":"Caraglio","lat":"44.41725","lng":"7.43281"},{"label":"Caramagna Piemonte","lat":"44.78224","lng":"7.73943"},{"label":"Caramanico Terme","lat":"42.15593","lng":"14.0048"},{"label":"Carano","lat":"41.20526","lng":"13.90972"},{"label":"Carano","lat":"46.29151","lng":"11.43978"},{"label":"Carapelle","lat":"41.36365","lng":"15.69384"},{"label":"Carapelle Calvisio","lat":"42.29908","lng":"13.68643"},{"label":"Carasco","lat":"44.34975","lng":"9.34567"},{"label":"Carassai","lat":"43.03303","lng":"13.68761"},{"label":"Carate Brianza","lat":"45.67574","lng":"9.23723"},{"label":"Carate Urio","lat":"45.87178","lng":"9.12214"},{"label":"Caravaggio","lat":"45.49627","lng":"9.64165"},{"label":"Caravate","lat":"45.87862","lng":"8.65431"},{"label":"Caravino","lat":"45.3995","lng":"7.9602"},{"label":"Caravonica","lat":"43.99303","lng":"7.95805"},{"label":"Carbognano","lat":"42.33024","lng":"12.26457"},{"label":"Carbonara al Ticino","lat":"45.16374","lng":"9.0649"},{"label":"Carbonara di Nola","lat":"40.87441","lng":"14.57884"},{"label":"Carbonara di Po","lat":"45.03537","lng":"11.22923"},{"label":"Carbonara Scrivia","lat":"44.84915","lng":"8.86975"},{"label":"Carbonate","lat":"45.68507","lng":"8.93814"},{"label":"Carbone","lat":"40.14227","lng":"16.08846"},{"label":"Carbonera","lat":"45.69182","lng":"12.28255"},{"label":"Carbonia","lat":"39.16465","lng":"8.5213"},{"label":"Carcare","lat":"44.35465","lng":"8.29039"},{"label":"Carceri","lat":"45.19508","lng":"11.62115"},{"label":"Carchitti","lat":"41.78688","lng":"12.82955"},{"label":"Carcoforo","lat":"45.90858","lng":"8.04967"},{"label":"Cardano","lat":"46.49336","lng":"11.39295"},{"label":"Cardano al Campo","lat":"45.64887","lng":"8.76933"},{"label":"Cardè","lat":"44.74444","lng":"7.47762"},{"label":"Cardedu","lat":"39.79714","lng":"9.62652"},{"label":"Cardeto","lat":"38.0844","lng":"15.76577"},{"label":"Cardinale","lat":"38.65379","lng":"16.38715"},{"label":"Cardito","lat":"40.9459","lng":"14.29952"},{"label":"Careggine","lat":"44.11995","lng":"10.3254"},{"label":"Carema","lat":"45.58401","lng":"7.80879"},{"label":"Carenno","lat":"45.80155","lng":"9.46301"},{"label":"Carentino","lat":"44.82885","lng":"8.47134"},{"label":"Careri","lat":"38.17741","lng":"16.11614"},{"label":"Caresana","lat":"45.22142","lng":"8.5048"},{"label":"Caresanablot","lat":"45.35736","lng":"8.39203"},{"label":"Carezzano Maggiore","lat":"44.80705","lng":"8.90055"},{"label":"Carfizzi","lat":"39.30771","lng":"16.97447"},{"label":"Cargeghe","lat":"40.66894","lng":"8.61521"},{"label":"Cariati","lat":"39.49627","lng":"16.95495"},{"label":"Carife","lat":"41.02667","lng":"15.21044"},{"label":"Carifi-Torello-Priscoli","lat":"40.79136","lng":"14.73212"},{"label":"Carignano","lat":"44.90599","lng":"7.67253"},{"label":"Carimate","lat":"45.70659","lng":"9.10751"},{"label":"Carinaro","lat":"40.98291","lng":"14.21963"},{"label":"Carini","lat":"38.1324","lng":"13.18274"},{"label":"Carinola","lat":"41.18775","lng":"13.9824"},{"label":"Carisio","lat":"45.41017","lng":"8.19962"},{"label":"Carisolo","lat":"46.1688","lng":"10.75887"},{"label":"Carlantino","lat":"41.59388","lng":"14.97681"},{"label":"Carlazzo","lat":"46.04222","lng":"9.16498"},{"label":"Carlentini","lat":"37.28071","lng":"15.0102"},{"label":"Carlino","lat":"45.80321","lng":"13.18874"},{"label":"Carloforte","lat":"39.14081","lng":"8.3039"},{"label":"Carlopoli","lat":"39.05406","lng":"16.45455"},{"label":"Carmagnola","lat":"44.84963","lng":"7.72032"},{"label":"Carmiano","lat":"40.34404","lng":"18.04195"},{"label":"Carmignano","lat":"43.81027","lng":"11.01494"},{"label":"Carmignano di Brenta","lat":"45.62578","lng":"11.70599"},{"label":"Carnago","lat":"45.72207","lng":"8.83423"},{"label":"Carnate","lat":"45.64843","lng":"9.37813"},{"label":"Carobbio","lat":"45.66424","lng":"9.83027"},{"label":"Carobbio degli Angeli","lat":"45.66518","lng":"9.82916"},{"label":"Carolei","lat":"39.25472","lng":"16.21979"},{"label":"Carona","lat":"46.02149","lng":"9.78494"},{"label":"Caronia","lat":"38.02381","lng":"14.44142"},{"label":"Caronno Pertusella","lat":"45.59777","lng":"9.04634"},{"label":"Caronno Varesino","lat":"45.73577","lng":"8.83173"},{"label":"Carosino","lat":"40.46538","lng":"17.39857"},{"label":"Carovigno","lat":"40.70626","lng":"17.65847"},{"label":"Carovilli","lat":"41.71348","lng":"14.29403"},{"label":"Carpaneto Piacentino","lat":"44.91355","lng":"9.78703"},{"label":"Carpanzano","lat":"39.14817","lng":"16.30451"},{"label":"Carpasio","lat":"43.96024","lng":"7.86631"},{"label":"Carpegna","lat":"43.7811","lng":"12.33543"},{"label":"Carpenedolo","lat":"45.36169","lng":"10.43124"},{"label":"Carpeneto","lat":"44.67835","lng":"8.60555"},{"label":"Carpesica","lat":"45.95335","lng":"12.29126"},{"label":"Carpi Centro","lat":"44.78237","lng":"10.8777"},{"label":"Carpiano","lat":"45.34027","lng":"9.27401"},{"label":"Carpignano Salentino","lat":"40.19537","lng":"18.33826"},{"label":"Carpignano Sesia","lat":"45.53341","lng":"8.41734"},{"label":"Carpineti","lat":"44.45574","lng":"10.5178"},{"label":"Carpineto della Nora","lat":"42.33365","lng":"13.86062"},{"label":"Carpineto Romano","lat":"41.6047","lng":"13.0841"},{"label":"Carpineto Sinello","lat":"42.01044","lng":"14.50418"},{"label":"Carpino","lat":"41.8445","lng":"15.85712"},{"label":"Carpinone","lat":"41.59003","lng":"14.32436"},{"label":"Carraia","lat":"43.89534","lng":"11.1819"},{"label":"Carrara","lat":"44.07926","lng":"10.09789"},{"label":"Carrara San Giorgio","lat":"45.29259","lng":"11.81841"},{"label":"Carrara-Pontenuovo","lat":"41.54045","lng":"12.95468"},{"label":"Carrè","lat":"45.7488","lng":"11.45779"},{"label":"Carrega Ligure","lat":"44.61879","lng":"9.17564"},{"label":"Carro","lat":"44.27215","lng":"9.60888"},{"label":"Carrodano","lat":"44.24155","lng":"9.65578"},{"label":"Carrosio","lat":"44.65776","lng":"8.83126"},{"label":"Carrozziere","lat":"37.0376","lng":"15.27195"},{"label":"Carrù","lat":"44.47967","lng":"7.87236"},{"label":"Carruba","lat":"37.69062","lng":"15.18815"},{"label":"Carrubazza-Motta","lat":"37.55323","lng":"15.10819"},{"label":"Carsoli","lat":"42.09882","lng":"13.08856"},{"label":"Cartiera-Stazione","lat":"41.65642","lng":"13.24086"},{"label":"Cartigliano","lat":"45.713","lng":"11.6956"},{"label":"Cartignano","lat":"44.47833","lng":"7.28573"},{"label":"Cartoceto","lat":"43.76566","lng":"12.88346"},{"label":"Cartosio","lat":"44.59024","lng":"8.42065"},{"label":"Cartura","lat":"45.26839","lng":"11.85681"},{"label":"Carugate","lat":"45.54983","lng":"9.34044"},{"label":"Carugo","lat":"45.70848","lng":"9.19684"},{"label":"Carunchio","lat":"41.91761","lng":"14.52683"},{"label":"Carvico","lat":"45.70193","lng":"9.4858"},{"label":"Carzago Riviera","lat":"45.5244","lng":"10.46052"},{"label":"Carzano","lat":"46.07091","lng":"11.49379"},{"label":"Casa del Diavolo","lat":"43.18762","lng":"12.44923"},{"label":"Casa Ponte","lat":"44.87777","lng":"9.16509"},{"label":"Casa Santa","lat":"38.02514","lng":"12.5484"},{"label":"Casabona","lat":"39.24951","lng":"16.95446"},{"label":"Casacalenda","lat":"41.73824","lng":"14.84734"},{"label":"Casacanditella","lat":"42.24643","lng":"14.2004"},{"label":"Casacorba","lat":"45.65944","lng":"12.03889"},{"label":"Casagiove","lat":"41.07124","lng":"14.31163"},{"label":"Casal Bertone","lat":"41.89821","lng":"12.53413"},{"label":"Casal Cermelli","lat":"44.83495","lng":"8.62495"},{"label":"Casal de' Pazzi","lat":"41.92884","lng":"12.56582"},{"label":"Casal di Principe","lat":"41.00996","lng":"14.13013"},{"label":"Casal Palocco","lat":"41.74845","lng":"12.34726"},{"label":"Casal Velino","lat":"40.19034","lng":"15.11137"},{"label":"Casalanguida","lat":"42.03752","lng":"14.49613"},{"label":"Casalattico","lat":"41.62213","lng":"13.72563"},{"label":"Casalazzara","lat":"41.62299","lng":"12.57634"},{"label":"Casalbeltrame","lat":"45.43806","lng":"8.46653"},{"label":"Casalbordino-Miracoli","lat":"42.15354","lng":"14.59912"},{"label":"Casalbore","lat":"41.23373","lng":"15.00752"},{"label":"Casalborgone","lat":"45.13045","lng":"7.94043"},{"label":"Casalbuono","lat":"40.21425","lng":"15.68717"},{"label":"Casalbuttano","lat":"45.25187","lng":"9.96167"},{"label":"Casalciprano","lat":"41.58037","lng":"14.52835"},{"label":"Casalduni","lat":"41.2608","lng":"14.69532"},{"label":"Casale","lat":"41.21972","lng":"14.00231"},{"label":"Casale","lat":"44.91665","lng":"10.43169"},{"label":"Casale Corte Cerro","lat":"45.91545","lng":"8.41407"},{"label":"Casale Cremasco","lat":"45.43187","lng":"9.71416"},{"label":"Casale di Mezzani","lat":"44.91534","lng":"10.43015"},{"label":"Casale di Scodosia","lat":"45.19225","lng":"11.47442"},{"label":"Casale Litta","lat":"45.76787","lng":"8.74133"},{"label":"Casale Marittimo","lat":"43.29727","lng":"10.61658"},{"label":"Casale Monferrato","lat":"45.13338","lng":"8.4525"},{"label":"Casale sul Sile","lat":"45.59638","lng":"12.32655"},{"label":"Casalecchio di Reno","lat":"44.47563","lng":"11.27495"},