[{"label":"Ak-Say","lat":"39.87438","lng":"70.52211"},{"label":"Ak-Suu","lat":"42.49948","lng":"78.52702"},{"label":"Ak-Suu","lat":"39.89877","lng":"69.3716"},{"label":"Ak-Tatyr","lat":"39.9599","lng":"70.48451"},{"label":"Ala-Buka","lat":"41.4105","lng":"71.48628"},{"label":"Alga","lat":"40.2363","lng":"71.49899"},{"label":"Andarak","lat":"39.76849","lng":"69.46398"},{"label":"Aravan","lat":"40.51608","lng":"72.4996"},{"label":"At-Bashi","lat":"41.16951","lng":"75.80099"},{"label":"Aydarken","lat":"39.94319","lng":"71.34184"},{"label":"Baetovo","lat":"41.26668","lng":"74.95698"},{"label":"Bakai-Ata","lat":"42.49298","lng":"71.9236"},{"label":"Balykchy","lat":"42.46017","lng":"76.18709"},{"label":"Batken","lat":"40.06259","lng":"70.81939"},{"label":"Bazar-Korgon","lat":"41.0376","lng":"72.74586"},{"label":"Belovodskoye","lat":"42.82944","lng":"74.1083"},{"label":"Beshkent","lat":"40.03083","lng":"69.81861"},{"label":"Bishkek","lat":"42.87","lng":"74.59"},{"label":"Bokombayevskoye","lat":"42.11769","lng":"76.99332"},{"label":"Boz-Adyr","lat":"39.9986","lng":"71.07338"},{"label":"Boz-Beshik","lat":"42.43247","lng":"77.95153"},{"label":"Chayek","lat":"41.92768","lng":"74.51699"},{"label":"Chek","lat":"40.10934","lng":"70.84636"},{"label":"Cholpon-Ata","lat":"42.64944","lng":"77.08225"},{"label":"Chuy","lat":"42.81973","lng":"75.28233"},{"label":"Daroot-Korgon","lat":"39.55274","lng":"72.20518"},{"label":"Gul’cha","lat":"40.3138","lng":"73.44418"},{"label":"Iradan","lat":"40.26667","lng":"72.1"},{"label":"Ivanovka","lat":"42.88778","lng":"75.085"},{"label":"Ivanovo-Alekseyevka","lat":"42.54689","lng":"72.20921"},{"label":"Jalal-Abad","lat":"40.93333","lng":"73"},{"label":"Kadzhi-Say","lat":"42.14107","lng":"77.17848"},{"label":"Kaindy","lat":"42.82469","lng":"73.67585"},{"label":"Kant","lat":"42.89106","lng":"74.85077"},{"label":"Kanysh-Kyya","lat":"41.76536","lng":"71.09181"},{"label":"Kara Suu","lat":"40.7046","lng":"72.86666"},{"label":"Kara-Bak","lat":"40.16169","lng":"70.81959"},{"label":"Kara-Balta","lat":"42.81423","lng":"73.84813"},{"label":"Kara-Dëbë","lat":"40.24428","lng":"72.04475"},{"label":"Kara-Dzhygach","lat":"40.12209","lng":"72.09271"},{"label":"Kara-Kulja","lat":"40.63223","lng":"73.59249"},{"label":"Karakol","lat":"42.49068","lng":"78.39362"},{"label":"Karavan","lat":"40.29513","lng":"72.18627"},{"label":"Katran","lat":"39.84434","lng":"70.01474"},{"label":"Kazarman","lat":"41.40452","lng":"74.02828"},{"label":"Kemin","lat":"42.78611","lng":"75.69167"},{"label":"Kerben","lat":"41.49399","lng":"71.75826"},{"label":"Khalmion","lat":"40.21218","lng":"71.63274"},{"label":"Kochkor","lat":"42.21552","lng":"75.75659"},{"label":"Kochkor-Ata","lat":"41.03709","lng":"72.4832"},{"label":"Korgon","lat":"39.88899","lng":"69.93559"},{"label":"Kulundu","lat":"40.10635","lng":"69.64127"},{"label":"Kyrgyz-Kyshtak","lat":"40.31055","lng":"71.34966"},{"label":"Kyzyl-Adyr","lat":"42.61981","lng":"71.5891"},{"label":"Kyzyl-Bulak","lat":"40.0517","lng":"71.73726"},{"label":"Kyzyl-Eshme","lat":"39.56559","lng":"72.27153"},{"label":"Kyzyl-Kyya","lat":"40.25684","lng":"72.12793"},{"label":"Kyzyl-Suu","lat":"42.34211","lng":"78.00644"},{"label":"Lebedinovka","lat":"42.88454","lng":"74.67819"},{"label":"Markaz","lat":"40.24019","lng":"71.89983"},{"label":"Massy","lat":"41.0601","lng":"72.63285"},{"label":"Mayevka","lat":"42.90927","lng":"74.5685"},{"label":"Naryn","lat":"41.42866","lng":"75.99111"},{"label":"Nizhnyaya Ala-Archa","lat":"42.92245","lng":"74.56684"},{"label":"Nookat","lat":"40.26597","lng":"72.61834"},{"label":"Ormosh","lat":"39.94591","lng":"71.26086"},{"label":"Orozbekovo","lat":"40.05689","lng":"71.66945"},{"label":"Osh","lat":"40.52828","lng":"72.7985"},{"label":"Pokrovka","lat":"42.7362","lng":"71.60982"},{"label":"Pulgon","lat":"40.14724","lng":"71.72962"},{"label":"Razzakov","lat":"39.83895","lng":"69.5276"},{"label":"Samarkandyk","lat":"39.9981","lng":"70.54589"},{"label":"Sokuluk","lat":"42.85401","lng":"74.30257"},{"label":"Sosnovka","lat":"42.63707","lng":"73.89608"},{"label":"Suluktu","lat":"39.93652","lng":"69.56779"},{"label":"Suzak","lat":"40.8982","lng":"72.90481"},{"label":"Talas","lat":"42.52277","lng":"72.24274"},{"label":"Talas","lat":"42.35473","lng":"72.65678"},{"label":"Tash-Kumyr","lat":"41.34612","lng":"72.21707"},{"label":"Toguz-Bulak","lat":"39.84331","lng":"69.71355"},{"label":"Tokmok","lat":"42.84194","lng":"75.30149"},{"label":"Toktogul","lat":"41.87442","lng":"72.94192"},{"label":"Tyup","lat":"42.7276","lng":"78.36476"},{"label":"Uch-Korgon","lat":"40.22881","lng":"72.05924"},{"label":"Üch-Terek","lat":"41.76222","lng":"73.20033"},{"label":"Uzgen","lat":"40.76994","lng":"73.30068"}]