[{"label":"Abay","lat":"49.63539","lng":"72.86523"},{"label":"Abay","lat":"41.34682","lng":"68.9504"},{"label":"Akbakay","lat":"45.1294","lng":"72.67169"},{"label":"Akkistau","lat":"47.22107","lng":"51.0063"},{"label":"Akkol","lat":"51.99374","lng":"70.94704"},{"label":"Akkol’","lat":"48.77358","lng":"53.18177"},{"label":"Akkol’","lat":"53.29617","lng":"69.59997"},{"label":"Akkuly","lat":"51.46967","lng":"77.77857"},{"label":"Aksu","lat":"52.04023","lng":"76.92748"},{"label":"Aksu","lat":"42.42193","lng":"69.82709"},{"label":"Aksu","lat":"52.44422","lng":"71.95761"},{"label":"Aksu-Ayuly","lat":"48.76788","lng":"73.67272"},{"label":"Aksuat","lat":"48.71667","lng":"83.7"},{"label":"Aksuat","lat":"47.76124","lng":"82.80858"},{"label":"Aktas","lat":"49.77952","lng":"72.96128"},{"label":"Aktau","lat":"50.23466","lng":"73.06662"},{"label":"Aktau","lat":"48.03333","lng":"72.83333"},{"label":"Aktobe","lat":"50.27969","lng":"57.20718"},{"label":"Aktogay","lat":"48.31636","lng":"74.98293"},{"label":"Aktogay","lat":"48.16667","lng":"75.3"},{"label":"Algha","lat":"49.89863","lng":"57.32787"},{"label":"Almaty","lat":"43.25","lng":"76.91667"},{"label":"Altay","lat":"49.73626","lng":"84.25416"},{"label":"Altayskiy","lat":"50.24593","lng":"82.36252"},{"label":"Amangeldi","lat":"50.18271","lng":"65.18966"},{"label":"Aqadyr","lat":"48.26014","lng":"72.85851"},{"label":"Aqmol","lat":"51.06568","lng":"70.97777"},{"label":"Aqsay","lat":"51.1681","lng":"52.99782"},{"label":"Aqshataū","lat":"47.98917","lng":"74.0575"},{"label":"Aqtoghay","lat":"53.00888","lng":"75.98495"},{"label":"Aqtoghay","lat":"46.95068","lng":"79.67621"},{"label":"Aral","lat":"46.80174","lng":"61.66312"},{"label":"Arkalyk","lat":"50.25031","lng":"66.90384"},{"label":"Arshaly","lat":"50.83112","lng":"72.17995"},{"label":"Arykbalyk","lat":"52.95625","lng":"68.20185"},{"label":"Arys","lat":"42.43015","lng":"68.8087"},{"label":"Asa","lat":"43.03735","lng":"71.14737"},{"label":"Ashchysay","lat":"43.5537","lng":"68.89792"},{"label":"Astana","lat":"51.1801","lng":"71.44598"},{"label":"Astrakhanka","lat":"51.53068","lng":"69.79685"},{"label":"Asubulak","lat":"49.54026","lng":"82.99471"},{"label":"Asyqata","lat":"40.8946","lng":"68.3643"},{"label":"Atakent","lat":"40.84782","lng":"68.50643"},{"label":"Atbasar","lat":"51.80854","lng":"68.35823"},{"label":"Atbasar","lat":"51.8","lng":"68.33333"},{"label":"Atyrau","lat":"47.11667","lng":"51.88333"},{"label":"Auezov","lat":"49.71003","lng":"81.58018"},{"label":"Auliyekol'","lat":"52.3585","lng":"64.13429"},{"label":"Ayagoz","lat":"47.96447","lng":"80.43437"},{"label":"Ayat","lat":"52.83554","lng":"62.52078"},{"label":"Badamsha","lat":"50.56183","lng":"58.2772"},{"label":"Baikonur","lat":"45.61667","lng":"63.31667"},{"label":"Bakanas","lat":"44.80595","lng":"76.27464"},{"label":"Balkashino","lat":"52.51779","lng":"68.7516"},{"label":"Balpyk Bi","lat":"44.90115","lng":"78.22933"},{"label":"Balqash","lat":"46.84546","lng":"74.98213"},{"label":"Balykshi","lat":"47.06667","lng":"51.86667"},{"label":"Bautino","lat":"44.54479","lng":"50.24629"},{"label":"Bauyrzhan Momyshuly","lat":"42.61419","lng":"70.76975"},{"label":"Bayanaul","lat":"50.79304","lng":"75.70123"},{"label":"Baychunas","lat":"47.2404","lng":"52.9403"},{"label":"Bayganin","lat":"48.68975","lng":"55.87512"},{"label":"Bayzhansay","lat":"43.16708","lng":"69.91459"},{"label":"Belköl","lat":"44.81384","lng":"65.58778"},{"label":"Belogorskiy","lat":"49.47887","lng":"83.14138"},{"label":"Belousovka","lat":"50.13287","lng":"82.52481"},{"label":"Besqaraghay","lat":"50.88671","lng":"79.48229"},{"label":"Bestobe","lat":"52.49795","lng":"73.09592"},{"label":"Beyneu","lat":"45.31667","lng":"55.2"},{"label":"Birlestik","lat":"53.58414","lng":"68.35382"},{"label":"Bishkul","lat":"54.77763","lng":"69.09951"},{"label":"Boko","lat":"49.05632","lng":"81.63721"},{"label":"Borodulikha","lat":"50.71841","lng":"80.9295"},{"label":"Borovskoy","lat":"53.7927","lng":"64.18268"},{"label":"Botaqara","lat":"50.05928","lng":"73.71524"},{"label":"Bulayevo","lat":"54.90596","lng":"70.44155"},{"label":"Būrabay","lat":"53.08382","lng":"70.31379"},{"label":"Burlin","lat":"51.42781","lng":"52.71076"},{"label":"Burunday","lat":"43.35567","lng":"76.85477"},{"label":"Chapayev","lat":"50.18888","lng":"51.16978"},{"label":"Chemolgan","lat":"43.37633","lng":"76.62456"},{"label":"Chernak","lat":"43.40025","lng":"68.0237"},{"label":"Chiganak","lat":"44.83056","lng":"70.00194"},{"label":"Chundzha","lat":"43.53813","lng":"79.46582"},{"label":"Denisovka","lat":"52.44772","lng":"61.74942"},{"label":"Derzhavinsk","lat":"51.09718","lng":"66.31875"},{"label":"Dolinka","lat":"49.67685","lng":"72.67822"},{"label":"Dossor","lat":"47.53234","lng":"52.9709"},{"label":"Druzhba","lat":"45.25332","lng":"82.48044"},{"label":"Dzhambul","lat":"47.20618","lng":"71.39496"},{"label":"Egindiköl","lat":"51.05227","lng":"69.47511"},{"label":"Ekibastuz","lat":"51.72371","lng":"75.32287"},{"label":"Embi","lat":"48.82981","lng":"58.15042"},{"label":"Esik","lat":"43.3552","lng":"77.45245"},{"label":"Esil","lat":"51.95453","lng":"66.40772"},{"label":"Fort-Shevchenko","lat":"44.50654","lng":"50.26388"},{"label":"Fyodorov","lat":"53.63809","lng":"62.69653"},{"label":"Glubokoye","lat":"50.13887","lng":"82.31114"},{"label":"Granitogorsk","lat":"42.744","lng":"73.46848"},{"label":"Inderbor","lat":"48.55","lng":"51.78333"},{"label":"Irtyshsk","lat":"53.33365","lng":"75.45775"},{"label":"Kalbatau","lat":"49.33009","lng":"81.57275"},{"label":"Kalkaman","lat":"51.95349","lng":"76.02723"},{"label":"Kandyagash","lat":"49.46917","lng":"57.41865"},{"label":"Kantagi","lat":"43.52786","lng":"68.58287"},{"label":"Karaaul","lat":"48.94509","lng":"79.25502"},{"label":"Karabas","lat":"46.53333","lng":"76.2"},{"label":"Karabulak","lat":"44.90881","lng":"78.49044"},{"label":"Karagandy","lat":"49.80187","lng":"73.10211"},{"label":"Karasu","lat":"52.65995","lng":"65.48421"},{"label":"Karatau","lat":"43.17959","lng":"70.4592"},{"label":"Karatobe","lat":"49.68914","lng":"53.51005"},{"label":"Karaton","lat":"46.43685","lng":"53.48905"},{"label":"Kazalinsk","lat":"45.76257","lng":"62.10334"},{"label":"Kaztalovka","lat":"49.76702","lng":"48.6893"},{"label":"Kazygurt","lat":"41.7564","lng":"69.3839"},{"label":"Kegen","lat":"43.01451","lng":"79.22638"},{"label":"Kentau","lat":"43.51672","lng":"68.50463"},{"label":"Khantau","lat":"44.22627","lng":"73.7941"},{"label":"Khromtau","lat":"50.25161","lng":"58.43574"},{"label":"Kishkenekol’","lat":"53.63589","lng":"72.34079"},{"label":"Kokpekty","lat":"48.75","lng":"82.4"},{"label":"Kokpekty","lat":"48.7553","lng":"82.38617"},{"label":"Kokshetau","lat":"53.28333","lng":"69.4"},{"label":"Koktal","lat":"49.65","lng":"73.51667"},{"label":"Kokterek","lat":"42.49442","lng":"70.25478"},{"label":"Koktobe","lat":"51.52983","lng":"77.47146"},{"label":"Konayev","lat":"43.86681","lng":"77.06304"},{"label":"Korday","lat":"43.03882","lng":"74.71287"},{"label":"Koshi","lat":"50.97075","lng":"71.35311"},{"label":"Kostanay","lat":"53.21435","lng":"63.62463"},{"label":"Krasnogorskiy","lat":"52.2456","lng":"66.52081"},{"label":"Krugloozërnoye","lat":"51.08167","lng":"51.29052"},{"label":"Kulan","lat":"42.91018","lng":"72.71571"},{"label":"Kurchatov","lat":"50.75617","lng":"78.54188"},{"label":"Kurchum","lat":"48.56603","lng":"83.66146"},{"label":"Kuryk","lat":"43.18032","lng":"51.68116"},{"label":"Kushoky","lat":"50.23091","lng":"73.40146"},{"label":"Kyzylorda","lat":"44.85278","lng":"65.50917"},{"label":"Kyzylzhar","lat":"49.98197","lng":"72.60761"},{"label":"Lenger","lat":"42.18152","lng":"69.88582"},{"label":"Leningradskoye","lat":"53.53319","lng":"71.54252"},{"label":"Leninskiy","lat":"52.25346","lng":"76.78211"},{"label":"Lepsy","lat":"46.23426","lng":"78.94034"},{"label":"Lisakovsk","lat":"52.54488","lng":"62.49893"},{"label":"Lugovoy","lat":"42.94197","lng":"72.76098"},{"label":"Makhambet","lat":"47.67061","lng":"51.58598"},{"label":"Makinsk","lat":"52.6329","lng":"70.41911"},{"label":"Maleyevsk","lat":"49.81441","lng":"84.29102"},{"label":"Maloye Ganyushkino","lat":"46.6","lng":"49.26667"},{"label":"Mamlyutka","lat":"54.93896","lng":"68.53889"},{"label":"Mangistau","lat":"43.69088","lng":"51.32237"},{"label":"Maqat","lat":"47.64967","lng":"53.34291"},{"label":"Marqaköl","lat":"48.42648","lng":"85.73474"},{"label":"Martuk","lat":"50.74746","lng":"56.50611"},{"label":"Matay","lat":"45.8996","lng":"78.72039"},{"label":"Mayqayyng","lat":"51.45981","lng":"75.80232"},{"label":"Merke","lat":"42.87183","lng":"73.19648"},{"label":"Miyaly","lat":"48.88548","lng":"53.79168"},{"label":"Moyynkum","lat":"44.28314","lng":"72.94369"},{"label":"Moyynty","lat":"47.21968","lng":"73.35437"},{"label":"Munayshy","lat":"43.49988","lng":"52.09745"},{"label":"Mynaral","lat":"45.44344","lng":"73.65453"},{"label":"Myrzakent","lat":"40.66338","lng":"68.5451"},{"label":"Narynkol","lat":"42.72636","lng":"80.17495"},{"label":"Novaya Bukhtarma","lat":"49.62873","lng":"83.52102"},{"label":"Novaya Shūl’ba","lat":"50.53978","lng":"81.32882"},{"label":"Novodolinskiy","lat":"49.7065","lng":"72.70807"},{"label":"Novoishimskiy","lat":"53.19806","lng":"66.76944"},{"label":"Novoishimskoye","lat":"53.2035","lng":"66.81431"},{"label":"Novokazalinsk","lat":"45.84806","lng":"62.15254"},{"label":"Nura","lat":"50.26159","lng":"71.54802"},{"label":"Obaghan","lat":"53.07952","lng":"64.29521"},{"label":"Ognyovka","lat":"49.68368","lng":"83.01687"},{"label":"Oktyabr'","lat":"52.11106","lng":"65.67578"},{"label":"Oral","lat":"51.23333","lng":"51.36667"},{"label":"Osakarovka","lat":"50.56315","lng":"72.57278"},{"label":"Otegen Batyra","lat":"43.41845","lng":"77.02187"},{"label":"Oytal","lat":"42.90573","lng":"73.26972"},{"label":"Ozernyy","lat":"46.80714","lng":"75.036"},{"label":"Pavlodar","lat":"52.28333","lng":"76.96667"},{"label":"Peremetnoe","lat":"51.19801","lng":"50.85291"},{"label":"Pervomayka","lat":"43.37361","lng":"76.94"},{"label":"Pervorossiyskoye","lat":"49.71739","lng":"83.8486"},{"label":"Petropavl","lat":"54.86667","lng":"69.15"},{"label":"Presnovka","lat":"54.6693","lng":"67.14912"},{"label":"Prigorodnoye","lat":"49.69244","lng":"75.58438"},{"label":"Priozersk","lat":"46.03106","lng":"73.70247"},{"label":"Qamysty","lat":"51.96382","lng":"61.78641"},{"label":"Qarabalyq","lat":"53.75019","lng":"62.0584"},{"label":"Qaramengdi","lat":"51.65708","lng":"64.22535"},{"label":"Qarazhal","lat":"48.01085","lng":"70.80058"},{"label":"Qarqaraly","lat":"49.41244","lng":"75.47228"},{"label":"Qashar","lat":"53.36799","lng":"62.86839"},{"label":"Qasym Qaysenov","lat":"49.87386","lng":"82.49485"},{"label":"Qobda","lat":"50.14928","lng":"55.66889"},{"label":"Qogham","lat":"42.82774","lng":"68.28074"},{"label":"Qorghalzhyn","lat":"50.58371","lng":"70.0189"},{"label":"Qulsary","lat":"46.95307","lng":"54.01978"},{"label":"Qusmuryn","lat":"52.45144","lng":"64.61682"},{"label":"Ridder","lat":"50.34524","lng":"83.51562"},{"label":"Rudnyy","lat":"52.97244","lng":"63.11055"},{"label":"Saksaul’skiy","lat":"47.08152","lng":"61.15239"},{"label":"Samarskoye","lat":"49.02247","lng":"83.36634"},{"label":"Saran","lat":"49.80245","lng":"72.83186"},{"label":"Sarqant","lat":"45.41322","lng":"79.91713"},{"label":"Saryaghash","lat":"41.46042","lng":"69.16791"},{"label":"Sarykamys","lat":"47.78333","lng":"78.71667"},{"label":"Sarykemer","lat":"43.00929","lng":"71.5101"},{"label":"Sarykol'","lat":"53.31891","lng":"65.53923"},{"label":"Saryozek","lat":"44.36178","lng":"77.97279"},{"label":"Saryshaghan","lat":"46.11805","lng":"73.61336"},{"label":"Sastobe","lat":"42.5533","lng":"69.99835"},{"label":"Satpayev","lat":"47.90409","lng":"67.54112"},{"label":"Saumalkol’","lat":"53.2927","lng":"68.105"},{"label":"Say-Utes","lat":"44.32787","lng":"53.53216"},{"label":"Sayaq","lat":"47","lng":"77.26667"},{"label":"Saykhin","lat":"48.85611","lng":"46.83361"},{"label":"Saykhin","lat":"48.81441","lng":"46.76946"},{"label":"Sayram","lat":"42.3025","lng":"69.75758"},{"label":"Selo Temirbeka Zhurgenova","lat":"50.43326","lng":"60.5004"},{"label":"Semey","lat":"50.42675","lng":"80.26669"},{"label":"Sergeyevka","lat":"53.88139","lng":"67.40882"},{"label":"Shakhan","lat":"49.81958","lng":"72.65407"},{"label":"Shakhtinsk","lat":"49.70713","lng":"72.59321"},{"label":"Shalkar","lat":"48.03333","lng":"48.9"},{"label":"Shalqar","lat":"47.83154","lng":"59.61926"},{"label":"Shalqīya","lat":"44.00947","lng":"67.41062"},{"label":"Shantobe","lat":"52.45376","lng":"68.17475"},{"label":"Shar","lat":"49.5872","lng":"81.04883"},{"label":"Sharbaqty","lat":"52.49087","lng":"78.15556"},{"label":"Shardara","lat":"41.25832","lng":"67.96991"},{"label":"Shaul’der","lat":"42.79097","lng":"68.37172"},{"label":"Shayan","lat":"43.03399","lng":"69.38048"},{"label":"Shchuchinsk","lat":"52.93592","lng":"70.18895"},{"label":"Shemonaikha","lat":"50.62899","lng":"81.91092"},{"label":"Shetpe","lat":"44.13922","lng":"52.15305"},{"label":"Shevchenko","lat":"43.64806","lng":"51.17222"},{"label":"Shiyeli","lat":"44.17057","lng":"66.73376"},{"label":"Sholakkorgan","lat":"43.76453","lng":"69.17856"},{"label":"Shortandy","lat":"51.69934","lng":"70.99129"},{"label":"Shu","lat":"43.60507","lng":"73.76221"},{"label":"Shubarköl","lat":"48.88222","lng":"68.80722"},{"label":"Shubarkuduk","lat":"49.14391","lng":"56.48196"},{"label":"Shubarshi","lat":"48.58022","lng":"57.18289"},{"label":"Shymkent","lat":"42.3","lng":"69.6"},{"label":"Shyngyrlau","lat":"51.09959","lng":"54.08412"},{"label":"Smirnovo","lat":"54.5148","lng":"69.42732"},{"label":"Stepnogorsk","lat":"52.35062","lng":"71.88161"},{"label":"Stepnyak","lat":"52.83489","lng":"70.78861"},{"label":"Suykbulak","lat":"49.70837","lng":"81.04854"},{"label":"Taiynsha","lat":"53.84796","lng":"69.76773"},{"label":"Taldykorgan","lat":"45.01556","lng":"78.37389"},{"label":"Talghar","lat":"43.30235","lng":"77.23811"},{"label":"Talshik","lat":"53.63736","lng":"71.87404"},{"label":"Taraz","lat":"42.9","lng":"71.36667"},{"label":"Tasbuget","lat":"44.77018","lng":"65.55461"},{"label":"Tasqala","lat":"51.11073","lng":"50.29454"},{"label":"Tasty-Taldy","lat":"50.72817","lng":"66.62033"},{"label":"Taūshyq","lat":"44.34678","lng":"51.34932"},{"label":"Tayynsha","lat":"53.84665","lng":"69.75987"},{"label":"Tekeli","lat":"44.8678","lng":"78.72807"},{"label":"Tekeli","lat":"44.86136","lng":"78.77287"},{"label":"Temir","lat":"49.14284","lng":"57.12736"},{"label":"Temirlanovka","lat":"42.59998","lng":"69.25836"},{"label":"Temirtau","lat":"50.05197","lng":"72.95497"},{"label":"Terekti","lat":"51.2221","lng":"51.95731"},{"label":"Terengköl","lat":"53.06649","lng":"76.10489"},{"label":"Terenozek","lat":"45.05048","lng":"64.98258"},{"label":"Timiryazevo","lat":"53.74947","lng":"66.48852"},{"label":"Tobol","lat":"52.69366","lng":"62.5914"},{"label":"Tobyl","lat":"53.20666","lng":"63.70038"},{"label":"Tokarevka","lat":"50.11573","lng":"73.16034"},{"label":"Torghay","lat":"49.63072","lng":"63.49035"},{"label":"Troyebratskiy","lat":"54.44306","lng":"66.07982"},{"label":"Tughyl","lat":"47.72497","lng":"84.20585"},{"label":"Turar Ryskulov","lat":"42.5334","lng":"70.3496"},{"label":"Turgen","lat":"43.40056","lng":"77.59333"},{"label":"Turkestan","lat":"43.29733","lng":"68.25175"},{"label":"Tyul’kubas","lat":"42.48578","lng":"70.29601"},{"label":"Tyuratam","lat":"45.65005","lng":"63.31163"},{"label":"Uil","lat":"49.0725","lng":"54.66304"},{"label":"Ul’ba","lat":"50.26581","lng":"83.37804"},{"label":"Ülken","lat":"45.20928","lng":"73.95089"},{"label":"Ulken Naryn","lat":"49.21245","lng":"84.50758"},{"label":"Ulytau","lat":"48.65504","lng":"67.00586"},{"label":"Umirzak","lat":"43.59762","lng":"51.24094"},{"label":"Urzhar","lat":"47.09302","lng":"81.62939"},{"label":"Usharal","lat":"46.16926","lng":"80.94331"},{"label":"Ushtobe","lat":"45.25258","lng":"77.98284"},{"label":"Uspenka","lat":"52.90727","lng":"77.41813"},{"label":"Ust-Kamenogorsk","lat":"49.97143","lng":"82.60586"},{"label":"Ūst’-Talovka","lat":"50.55058","lng":"81.84847"},{"label":"Uzunagach","lat":"43.22259","lng":"76.31871"},{"label":"Uzunkol'","lat":"54.03782","lng":"65.3354"},{"label":"Verkhniye Kayrakty","lat":"48.68333","lng":"73.28333"},{"label":"Vozvyshenka","lat":"54.4354","lng":"70.94224"},{"label":"Yavlenka","lat":"54.34525","lng":"68.4574"},{"label":"Yereymentau","lat":"51.62364","lng":"73.10265"},{"label":"Yrghyz","lat":"48.61958","lng":"61.26067"},{"label":"Yul’yevka","lat":"52.11775","lng":"64.27539"},{"label":"Zavodskoy","lat":"52.47031","lng":"72.01514"},{"label":"Zaysan","lat":"47.46657","lng":"84.87144"},{"label":"Zerenda","lat":"52.90599","lng":"69.15593"},{"label":"Zhabagly","lat":"42.43781","lng":"70.47841"},{"label":"Zhaksy","lat":"51.91058","lng":"67.31665"},{"label":"Zhalagash","lat":"45.07958","lng":"64.68175"},{"label":"Zhalghyztobe","lat":"49.21094","lng":"81.21596"},{"label":"Zhana Kiima","lat":"51.59611","lng":"67.58944"},{"label":"Zhanaozen","lat":"43.34116","lng":"52.86192"},{"label":"Zhangaarqa","lat":"48.68659","lng":"71.64469"},{"label":"Zhangaqala","lat":"49.21532","lng":"50.29009"},{"label":"Zhangaqorghan","lat":"43.90652","lng":"67.24637"},{"label":"Zhangatas","lat":"43.56274","lng":"69.73209"},{"label":"Zhanibek","lat":"49.42278","lng":"46.84626"},{"label":"Zhansugurov","lat":"45.39743","lng":"79.50345"},{"label":"Zharkent","lat":"44.16619","lng":"80.00736"},{"label":"Zharyk","lat":"48.85692","lng":"72.83598"},{"label":"Zhelezinka","lat":"53.5388","lng":"75.31326"},{"label":"Zhetybay","lat":"43.58928","lng":"52.10313"},{"label":"Zhetysay","lat":"40.77631","lng":"68.32774"},{"label":"Zhezkent","lat":"50.93112","lng":"81.3615"},{"label":"Zhezqazghan","lat":"47.78746","lng":"67.71118"},{"label":"Zhitikara","lat":"52.19019","lng":"61.19894"},{"label":"Zholymbet","lat":"51.74259","lng":"71.70971"},{"label":"Zhosaly","lat":"45.48778","lng":"64.07806"},{"label":"Zhympity","lat":"50.25645","lng":"52.59707"}]