[{"label":"Anse Ger","lat":"13.79775","lng":"-60.9164"},{"label":"Anse La Raye","lat":"13.94619","lng":"-61.03879"},{"label":"Au Leon","lat":"13.94583","lng":"-60.9078"},{"label":"Augier","lat":"13.76324","lng":"-60.97893"},{"label":"Bagatelle","lat":"14.00078","lng":"-60.98107"},{"label":"Balata","lat":"14.01397","lng":"-60.95598"},{"label":"Beauséjour","lat":"14.0754","lng":"-60.94423"},{"label":"Bexon","lat":"13.95256","lng":"-60.97782"},{"label":"Bisee","lat":"14.02429","lng":"-60.97445"},{"label":"Bocage","lat":"13.98892","lng":"-60.97202"},{"label":"Cabiche","lat":"14.00402","lng":"-60.94778"},{"label":"Canaries","lat":"13.90224","lng":"-61.06459"},{"label":"Cantonement","lat":"13.75263","lng":"-60.97529"},{"label":"Castries","lat":"13.9957","lng":"-61.00614"},{"label":"Choiseul","lat":"13.77273","lng":"-61.04931"},{"label":"Ciceron","lat":"13.99009","lng":"-61.00806"},{"label":"Corinthe","lat":"14.04531","lng":"-60.9607"},{"label":"Dennery","lat":"13.91409","lng":"-60.89132"},{"label":"Entrepôt","lat":"14.00251","lng":"-60.97616"},{"label":"Forestière","lat":"13.95947","lng":"-60.96253"},{"label":"Grande Rivière","lat":"14.03252","lng":"-60.95331"},{"label":"Gros Islet","lat":"14.06667","lng":"-60.95"},{"label":"L’Abbayée","lat":"13.92715","lng":"-60.97193"},{"label":"La Clery","lat":"14.01683","lng":"-60.97897"},{"label":"La Pointe","lat":"13.846","lng":"-60.90236"},{"label":"La Resource","lat":"13.74461","lng":"-60.95769"},{"label":"Laborie","lat":"13.75","lng":"-60.98333"},{"label":"Micoud","lat":"13.81667","lng":"-60.9"},{"label":"Mon Repos","lat":"13.85977","lng":"-60.90225"},{"label":"Monchy","lat":"14.05319","lng":"-60.92987"},{"label":"Morne Doudon","lat":"14.00988","lng":"-60.97241"},{"label":"Pavée","lat":"14.00437","lng":"-60.99139"},{"label":"Pierrot","lat":"13.77111","lng":"-60.94393"},{"label":"Praslin","lat":"13.87545","lng":"-60.89717"},{"label":"Soufrière","lat":"13.85616","lng":"-61.0566"},{"label":"Ti Rocher","lat":"13.81661","lng":"-60.93019"}]