[{"label":"Akademija (Kaunas)","lat":"54.8964","lng":"23.82411"},{"label":"Akmenė","lat":"56.25","lng":"22.75"},{"label":"Aleksotas","lat":"54.88037","lng":"23.90842"},{"label":"Alytus","lat":"54.39635","lng":"24.04142"},{"label":"Antakalnis","lat":"54.70781","lng":"25.31706"},{"label":"Anykščiai","lat":"55.52557","lng":"25.10264"},{"label":"Ariogala","lat":"55.262","lng":"23.477"},{"label":"Baltoji Vokė","lat":"54.60002","lng":"25.19318"},{"label":"Birštonas","lat":"54.608","lng":"24.034"},{"label":"Birzai","lat":"56.2","lng":"24.75"},{"label":"Būgai","lat":"55.41387","lng":"22.60894"},{"label":"Dainava (Kaunas)","lat":"54.91525","lng":"23.96831"},{"label":"Daugai","lat":"54.36667","lng":"24.33333"},{"label":"Druskininkai","lat":"54.01573","lng":"23.98703"},{"label":"Eiguliai","lat":"54.93133","lng":"23.93243"},{"label":"Eišiškės","lat":"54.17414","lng":"24.99917"},{"label":"Elektrėnai","lat":"54.78544","lng":"24.66302"},{"label":"Ežerėlis","lat":"54.88315","lng":"23.60396"},{"label":"Fabijoniškės","lat":"54.73333","lng":"25.24167"},{"label":"Gargždai","lat":"55.70951","lng":"21.39441"},{"label":"Garliava","lat":"54.82139","lng":"23.8713"},{"label":"Gelgaudiškis","lat":"55.07688","lng":"22.97699"},{"label":"Grigiškės","lat":"54.68333","lng":"25.08333"},{"label":"Ignalina","lat":"55.34063","lng":"26.16049"},{"label":"Jieznas","lat":"54.59937","lng":"24.17593"},{"label":"Jonava","lat":"55.08014","lng":"24.27544"},{"label":"Joniškis","lat":"56.23939","lng":"23.61541"},{"label":"Juodupė","lat":"56.087","lng":"25.607"},{"label":"Jurbarkas","lat":"55.07556","lng":"22.76416"},{"label":"Justiniškės","lat":"54.71664","lng":"25.2174"},{"label":"Kaišiadorys","lat":"54.86528","lng":"24.46815"},{"label":"Kalvarija","lat":"54.417","lng":"23.223"},{"label":"Karmėlava","lat":"54.97055","lng":"24.06182"},{"label":"Karoliniškės","lat":"54.69034","lng":"25.21903"},{"label":"Kaunas","lat":"54.90272","lng":"23.90961"},{"label":"Kazlų Rūda","lat":"54.749","lng":"23.49"},{"label":"Kėdainiai","lat":"55.28782","lng":"23.97275"},{"label":"Kelmė","lat":"55.63009","lng":"22.9349"},{"label":"Klaipėda","lat":"55.7068","lng":"21.13912"},{"label":"Kretinga","lat":"55.8888","lng":"21.24448"},{"label":"Kudirkos Naumiestis","lat":"54.77353","lng":"22.86138"},{"label":"Kulautuva","lat":"54.94212","lng":"23.64218"},{"label":"Kupiskis","lat":"55.84027","lng":"24.97976"},{"label":"Kuršėnai","lat":"56.00318","lng":"22.93662"},{"label":"Kybartai","lat":"54.63858","lng":"22.76316"},{"label":"Lazdijai","lat":"54.23326","lng":"23.51466"},{"label":"Lazdynai","lat":"54.66815","lng":"25.20684"},{"label":"Lentvaris","lat":"54.64364","lng":"25.05162"},{"label":"Linkuva","lat":"56.08596","lng":"23.97061"},{"label":"Marijampolė","lat":"54.55991","lng":"23.35412"},{"label":"Mastaiciai","lat":"54.81998","lng":"23.84462"},{"label":"Matuizos","lat":"54.2753","lng":"24.68003"},{"label":"Mazeikiai","lat":"56.31667","lng":"22.33333"},{"label":"Molėtai","lat":"55.22469","lng":"25.41688"},{"label":"Naujamiestis","lat":"54.67951","lng":"25.26855"},{"label":"Naujininkai","lat":"54.66425","lng":"25.28418"},{"label":"Naujoji Akmene","lat":"56.31667","lng":"22.9"},{"label":"Naujoji Vilnia","lat":"54.69515","lng":"25.41969"},{"label":"Nemenčinė","lat":"54.84776","lng":"25.46992"},{"label":"Neringa","lat":"55.37194","lng":"21.06472"},{"label":"Nida","lat":"55.3086","lng":"20.99651"},{"label":"Obeliai","lat":"55.96895","lng":"25.15648"},{"label":"Pabradė","lat":"54.981","lng":"25.761"},{"label":"Pagėgiai","lat":"55.13793","lng":"21.91378"},{"label":"Pakruojis","lat":"55.97889","lng":"23.85508"},{"label":"Palanga","lat":"55.9175","lng":"21.06861"},{"label":"Panevėžys","lat":"55.73186","lng":"24.35983"},{"label":"Pašilaičiai","lat":"54.73429","lng":"25.21912"},{"label":"Pasvalys","lat":"56.06251","lng":"24.39965"},{"label":"Pervalka","lat":"55.41486","lng":"21.09774"},{"label":"Pilaitė","lat":"54.69981","lng":"25.18393"},{"label":"Plateliai","lat":"56.04657","lng":"21.81615"},{"label":"Plunge","lat":"55.91139","lng":"21.84417"},{"label":"Priekulė","lat":"55.55427","lng":"21.31903"},{"label":"Prienai","lat":"54.636","lng":"23.94585"},{"label":"Radviliskis","lat":"55.81667","lng":"23.53333"},{"label":"Ramučiai","lat":"54.9483","lng":"24.0305"},{"label":"Ramygala","lat":"55.514","lng":"24.3"},{"label":"Raseiniai","lat":"55.37973","lng":"23.12386"},{"label":"Rasos","lat":"54.67877","lng":"25.31173"},{"label":"Rietavas","lat":"55.72708","lng":"21.92343"},{"label":"Rokiškis","lat":"55.95867","lng":"25.59466"},{"label":"Rūdiškės","lat":"54.51609","lng":"24.83084"},{"label":"Rusnė","lat":"55.2982","lng":"21.3712"},{"label":"Šakiai","lat":"54.95339","lng":"23.04779"},{"label":"Salantai","lat":"56.0565","lng":"21.5689"},{"label":"Šalčininkai","lat":"54.30864","lng":"25.38677"},{"label":"Sargėnai","lat":"54.94933","lng":"23.88316"},{"label":"Seda","lat":"56.16854","lng":"22.09071"},{"label":"Šeduva","lat":"55.7493","lng":"23.7561"},{"label":"Senieji Trakai","lat":"54.609","lng":"24.98"},{"label":"Šeškinė","lat":"54.70972","lng":"25.25053"},{"label":"Šiauliai","lat":"55.93333","lng":"23.31667"},{"label":"Šilainiai","lat":"54.92911","lng":"23.88599"},{"label":"Šilalė","lat":"55.4898","lng":"22.18692"},{"label":"Silute","lat":"55.34889","lng":"21.48306"},{"label":"Simnas","lat":"54.382","lng":"23.646"},{"label":"Širvintos","lat":"55.044","lng":"24.95446"},{"label":"Skaidiškės","lat":"54.61398","lng":"25.39573"},{"label":"Skuodas","lat":"56.27057","lng":"21.53208"},{"label":"Švenčionėliai","lat":"55.16163","lng":"26.00177"},{"label":"Švenčionys","lat":"55.135","lng":"26.159"},{"label":"Šventoji","lat":"56.0261","lng":"21.08411"},{"label":"Taurage","lat":"55.25222","lng":"22.28972"},{"label":"Telsiai","lat":"55.98139","lng":"22.24722"},{"label":"Trakai","lat":"54.63783","lng":"24.93433"},{"label":"Tytuvėnėliai","lat":"55.62345","lng":"23.17162"},{"label":"Ukmerge","lat":"55.25","lng":"24.75"},{"label":"Utena","lat":"55.49764","lng":"25.59918"},{"label":"Varėna","lat":"54.21546","lng":"24.57538"},{"label":"Veisiejai","lat":"54.1011","lng":"23.69614"},{"label":"Venta","lat":"56.19162","lng":"22.69528"},{"label":"Viekšniai","lat":"56.23598","lng":"22.51667"},{"label":"Vievis","lat":"54.77258","lng":"24.81129"},{"label":"Vilkaviskis","lat":"54.65167","lng":"23.03222"},{"label":"Vilkija","lat":"55.04609","lng":"23.58552"},{"label":"Vilkpėdė","lat":"54.66969","lng":"25.2477"},{"label":"Vilnius","lat":"54.68916","lng":"25.2798"},{"label":"Visaginas","lat":"55.59678","lng":"26.43984"},{"label":"Žagarė","lat":"56.36149","lng":"23.25094"},{"label":"Zarasai","lat":"55.73225","lng":"26.25115"},{"label":"Žemaičių Naumiestis","lat":"55.35941","lng":"21.70364"}]