[{"label":"Ajdabiya","lat":"30.75545","lng":"20.22625"},{"label":"Al ‘Azīzīyah","lat":"32.53194","lng":"13.0175"},{"label":"Al Abyār","lat":"32.19","lng":"20.59653"},{"label":"Al Ajaylat","lat":"32.75718","lng":"12.37633"},{"label":"Al Bayḑā’","lat":"32.76272","lng":"21.75506"},{"label":"Al Burayqah","lat":"30.40624","lng":"19.57386"},{"label":"Al Jadīd","lat":"27.05","lng":"14.4"},{"label":"Al Jaghbūb","lat":"29.74262","lng":"24.51676"},{"label":"Al Jawf","lat":"24.1989","lng":"23.29093"},{"label":"Al Jumayl","lat":"32.85286","lng":"12.0612"},{"label":"Al Khums","lat":"32.64861","lng":"14.26191"},{"label":"Al Marj","lat":"32.49257","lng":"20.82909"},{"label":"Al Qaţrūn","lat":"24.95139","lng":"14.64861"},{"label":"Al Qubbah","lat":"32.75684","lng":"22.24106"},{"label":"At Tāj","lat":"24.20487","lng":"23.2857"},{"label":"Awjilah","lat":"29.10806","lng":"21.28694"},{"label":"Az Zāwīyah","lat":"32.7571","lng":"12.72764"},{"label":"Az Zuwaytīnah","lat":"30.9522","lng":"20.12022"},{"label":"Bani Walid","lat":"31.74554","lng":"13.98354"},{"label":"Benghazi","lat":"32.11486","lng":"20.06859"},{"label":"Brak","lat":"27.54956","lng":"14.27139"},{"label":"Darnah","lat":"32.76704","lng":"22.63669"},{"label":"Ghadāmis","lat":"30.13366","lng":"9.50072"},{"label":"Gharyan","lat":"32.17222","lng":"13.02028"},{"label":"Ghat","lat":"24.96334","lng":"10.18003"},{"label":"Hūn","lat":"29.12684","lng":"15.94772"},{"label":"Idrī","lat":"27.44707","lng":"13.05173"},{"label":"Jādū","lat":"31.95506","lng":"12.02901"},{"label":"Jālū","lat":"29.03333","lng":"21.55"},{"label":"Marādah","lat":"29.22054","lng":"19.20454"},{"label":"Masallātah","lat":"32.61667","lng":"14"},{"label":"Mişrātah","lat":"32.37535","lng":"15.09254"},{"label":"Mizdah","lat":"31.44934","lng":"12.9853"},{"label":"Murzuq","lat":"25.91552","lng":"13.91839"},{"label":"Nālūt","lat":"31.86848","lng":"10.9812"},{"label":"Qaryat Sulūq","lat":"31.66818","lng":"20.25205"},{"label":"Qasr Abu Hadi","lat":"31.05926","lng":"16.65905"},{"label":"Sabhā","lat":"27.03766","lng":"14.42832"},{"label":"Şabrātah","lat":"32.79335","lng":"12.48845"},{"label":"Sirte","lat":"31.20892","lng":"16.58866"},{"label":"Şurmān","lat":"32.75668","lng":"12.57159"},{"label":"Tājūrā’","lat":"32.88167","lng":"13.35056"},{"label":"Tarhuna","lat":"32.43501","lng":"13.6332"},{"label":"Tobruk","lat":"32.08963","lng":"23.95385"},{"label":"Tripoli","lat":"32.88743","lng":"13.18733"},{"label":"Tūkrah","lat":"32.53414","lng":"20.57911"},{"label":"Ubari","lat":"26.59034","lng":"12.77511"},{"label":"Waddān","lat":"29.1614","lng":"16.13904"},{"label":"Yafran","lat":"32.06329","lng":"12.52859"},{"label":"Zalţan","lat":"32.94699","lng":"11.86668"},{"label":"Zawiya","lat":"32.75222","lng":"12.72778"},{"label":"Zintan","lat":"31.93155","lng":"12.25291"},{"label":"Zliten","lat":"32.46739","lng":"14.56874"},{"label":"Zuwārah","lat":"32.9312","lng":"12.08199"}]