[{"label":"Abū Zayyān","lat":"32.09972","lng":"12.97861"},{"label":"Ajdabiya","lat":"30.75545","lng":"20.22625"},{"label":"Al ‘Awinat","lat":"25.78123","lng":"10.56133"},{"label":"Al ‘Azīzīyah","lat":"32.53194","lng":"13.0175"},{"label":"Al Abraq","lat":"32.78991","lng":"22.0005"},{"label":"Al Abyār","lat":"32.19","lng":"20.59653"},{"label":"Al Ajaylat","lat":"32.75718","lng":"12.37633"},{"label":"Al Aşābi‘ah","lat":"32.03333","lng":"12.86667"},{"label":"Al Barakāt","lat":"24.894","lng":"10.18336"},{"label":"Al Bayḑā’","lat":"32.76272","lng":"21.75506"},{"label":"Al Burayqah","lat":"30.40624","lng":"19.57386"},{"label":"Al Ghurayfah","lat":"26.52161","lng":"13.01072"},{"label":"Al Ḩawāmid","lat":"31.97528","lng":"11.16222"},{"label":"Al Ḩurshah","lat":"32.76472","lng":"12.67389"},{"label":"Al Jadīd","lat":"27.05","lng":"14.4"},{"label":"Al Jaghbūb","lat":"29.74262","lng":"24.51676"},{"label":"Al Jawf","lat":"24.1989","lng":"23.29093"},{"label":"Al Jumayl","lat":"32.85286","lng":"12.0612"},{"label":"Al Khaḑrā’","lat":"32.44403","lng":"13.76735"},{"label":"Al Khums","lat":"32.64861","lng":"14.26191"},{"label":"Al Marj","lat":"32.49257","lng":"20.82909"},{"label":"Al Māyah","lat":"32.80194","lng":"12.87917"},{"label":"Al Qaţrūn","lat":"24.95139","lng":"14.64861"},{"label":"Al Qawāsim","lat":"32.18418","lng":"13.06045"},{"label":"Al Qubbah","lat":"32.75684","lng":"22.24106"},{"label":"Al-'Alūaṣ","lat":"32.71007","lng":"13.96713"},{"label":"An Nāşirīyah","lat":"32.63278","lng":"12.87361"},{"label":"Āqār","lat":"27.53914","lng":"14.16251"},{"label":"Ar Rayāyinah","lat":"32.02684","lng":"12.35643"},{"label":"Ar Rujbān","lat":"31.95","lng":"12.16667"},{"label":"Ar-Raḥaībāt","lat":"31.84637","lng":"11.8436"},{"label":"As Sawānī","lat":"32.71667","lng":"13.06667"},{"label":"At Tāj","lat":"24.20487","lng":"23.2857"},{"label":"Awjilah","lat":"29.10806","lng":"21.28694"},{"label":"Az Zahrā’","lat":"32.67889","lng":"12.87327"},{"label":"Az Zāwīyah","lat":"32.7571","lng":"12.72764"},{"label":"Az Zuwaytīnah","lat":"30.9522","lng":"20.12022"},{"label":"Bani Walid","lat":"31.74554","lng":"13.98354"},{"label":"Barqin","lat":"27.54801","lng":"13.62914"},{"label":"Benghazi","lat":"32.11486","lng":"20.06859"},{"label":"Bi’r al Ghanam","lat":"32.30912","lng":"12.56935"},{"label":"Bin Jawwād","lat":"30.80418","lng":"18.0772"},{"label":"Brak","lat":"27.54956","lng":"14.27139"},{"label":"Daraj","lat":"30.16502","lng":"10.45804"},{"label":"Darnah","lat":"32.76704","lng":"22.63669"},{"label":"Daryānah","lat":"32.34751","lng":"20.30933"},{"label":"Ghadames","lat":"30.13366","lng":"9.50072"},{"label":"Gharyan","lat":"32.17222","lng":"13.02028"},{"label":"Ghat","lat":"24.96334","lng":"10.18003"},{"label":"Hūn","lat":"29.12684","lng":"15.94772"},{"label":"Idrī","lat":"27.44707","lng":"13.05173"},{"label":"Jādū","lat":"31.95506","lng":"12.02901"},{"label":"Jālū","lat":"29.03333","lng":"21.55"},{"label":"Janzūr","lat":"32.81868","lng":"13.01727"},{"label":"Jardas al ‘Abīd","lat":"32.30337","lng":"20.98615"},{"label":"Kābāw","lat":"31.84724","lng":"11.33055"},{"label":"Kambūt","lat":"31.90434","lng":"24.4784"},{"label":"Kiklah","lat":"32.08333","lng":"12.7"},{"label":"Marādah","lat":"29.22054","lng":"19.20454"},{"label":"Martūbah","lat":"32.57421","lng":"22.76353"},{"label":"Massah","lat":"32.75249","lng":"21.62807"},{"label":"Misratah","lat":"32.37535","lng":"15.09254"},{"label":"Mizdah","lat":"31.44934","lng":"12.9853"},{"label":"Msalātah","lat":"32.58345","lng":"14.03627"},{"label":"Mukhaylá","lat":"32.16005","lng":"22.27845"},{"label":"Murzuk","lat":"25.91552","lng":"13.91839"},{"label":"Nālūt","lat":"31.86848","lng":"10.9812"},{"label":"Qamīnis","lat":"31.6576","lng":"20.01697"},{"label":"Qandūlah","lat":"32.53798","lng":"21.57525"},{"label":"Qarqūzah","lat":"32.74572","lng":"12.84234"},{"label":"Qaryat ‘Umar al Mukhtār","lat":"32.62978","lng":"21.67651"},{"label":"Qaryat al Bayyāḑah","lat":"32.56501","lng":"21.25415"},{"label":"Qaryat al Qī‘ān","lat":"32.05572","lng":"11.54302"},{"label":"Qaryat Sulūq","lat":"31.66818","lng":"20.25205"},{"label":"Qasr Abu Hadi","lat":"31.05926","lng":"16.65905"},{"label":"Qaşr al Qarabūllī","lat":"32.74506","lng":"13.71467"},{"label":"Qaşr Bin Ghashīr","lat":"32.68333","lng":"13.18333"},{"label":"Qaşr Khiyār","lat":"32.69677","lng":"13.84634"},{"label":"Qaşr Lībiyā","lat":"32.63333","lng":"21.41667"},{"label":"Qīrah","lat":"27.58595","lng":"14.35375"},{"label":"Qirnādah","lat":"32.73174","lng":"21.9035"},{"label":"Sabha","lat":"27.03766","lng":"14.42832"},{"label":"Şabrātah","lat":"32.79335","lng":"12.48845"},{"label":"Samnū","lat":"27.27459","lng":"14.8819"},{"label":"Shahhat","lat":"32.8043","lng":"21.86605"},{"label":"Sīdī aş Şayd","lat":"32.33462","lng":"13.47942"},{"label":"Sīdī Bin Zīnah","lat":"32.88718","lng":"11.98729"},{"label":"Sīnāwin","lat":"31.02604","lng":"10.60238"},{"label":"Sirte","lat":"31.20892","lng":"16.58866"},{"label":"Sūknah","lat":"29.06941","lng":"15.78266"},{"label":"Sulţān","lat":"31.09396","lng":"20.22329"},{"label":"Şurmān","lat":"32.75668","lng":"12.57159"},{"label":"Sūsah","lat":"32.89702","lng":"21.96583"},{"label":"Tājūrā’","lat":"32.88167","lng":"13.35056"},{"label":"Tamzāwah","lat":"27.57154","lng":"14.20234"},{"label":"Tarāghin","lat":"25.92333","lng":"14.42056"},{"label":"Tarhuna","lat":"32.43501","lng":"13.6332"},{"label":"Tāzirbū","lat":"25.67289","lng":"21.07286"},{"label":"Tījī","lat":"32.01493","lng":"11.35461"},{"label":"Tobruk","lat":"32.08963","lng":"23.95385"},{"label":"Tripoli","lat":"32.88743","lng":"13.18733"},{"label":"Tūkrah","lat":"32.53414","lng":"20.57911"},{"label":"Ubari","lat":"26.59034","lng":"12.77511"},{"label":"Umm al Arānib","lat":"26.13386","lng":"14.7372"},{"label":"Umm ar Rizam","lat":"32.53332","lng":"23.00904"},{"label":"Umm Sā'ad","lat":"31.60968","lng":"25.04999"},{"label":"Waddān","lat":"29.1614","lng":"16.13904"},{"label":"Wādī 'Utbah","lat":"26.09502","lng":"13.55744"},{"label":"Wardāmah","lat":"32.79661","lng":"21.79099"},{"label":"Wāzin","lat":"31.942","lng":"10.66532"},{"label":"Yafran","lat":"32.06329","lng":"12.52859"},{"label":"Zalţan","lat":"32.94699","lng":"11.86668"},{"label":"Zawīlah","lat":"26.16188","lng":"15.12522"},{"label":"Zawiya","lat":"32.75222","lng":"12.72778"},{"label":"Zillah","lat":"28.55099","lng":"17.54358"},{"label":"Zintan","lat":"31.93155","lng":"12.25291"},{"label":"Zliten","lat":"32.46739","lng":"14.56874"},{"label":"Zuwarah","lat":"32.9312","lng":"12.08199"}]