[{"label":"Andrijevica","lat":"42.73389","lng":"19.79194"},{"label":"Bar","lat":"42.0937","lng":"19.09841"},{"label":"Berane","lat":"42.8425","lng":"19.87333"},{"label":"Bijela","lat":"42.45333","lng":"18.65556"},{"label":"Bijelo Polje","lat":"43.03834","lng":"19.74758"},{"label":"Budva","lat":"42.28639","lng":"18.84"},{"label":"Cetinje","lat":"42.39063","lng":"18.91417"},{"label":"Danilovgrad","lat":"42.55384","lng":"19.14608"},{"label":"Dobrota","lat":"42.45417","lng":"18.76833"},{"label":"Golubovci","lat":"42.335","lng":"19.23111"},{"label":"Goričani","lat":"42.33222","lng":"19.21194"},{"label":"Gusinje","lat":"42.56194","lng":"19.83389"},{"label":"Herceg Novi","lat":"42.45306","lng":"18.5375"},{"label":"Igalo","lat":"42.46007","lng":"18.50647"},{"label":"Kolašin","lat":"42.82229","lng":"19.51653"},{"label":"Kotor","lat":"42.42067","lng":"18.76825"},{"label":"Lipci","lat":"42.49722","lng":"18.65806"},{"label":"Mataguži","lat":"42.32361","lng":"19.27278"},{"label":"Mojanovići","lat":"42.34167","lng":"19.22139"},{"label":"Mojkovac","lat":"42.96044","lng":"19.5833"},{"label":"Nikšić","lat":"42.7731","lng":"18.94446"},{"label":"Petnjica","lat":"42.90889","lng":"19.96444"},{"label":"Petrovac na Moru","lat":"42.20556","lng":"18.9425"},{"label":"Plav","lat":"42.59694","lng":"19.94556"},{"label":"Pljevlja","lat":"43.3567","lng":"19.35843"},{"label":"Plužine","lat":"43.15278","lng":"18.83944"},{"label":"Podgorica","lat":"42.44111","lng":"19.26361"},{"label":"Prčanj","lat":"42.4575","lng":"18.74222"},{"label":"Risan","lat":"42.515","lng":"18.69556"},{"label":"Šavnik","lat":"42.95639","lng":"19.09667"},{"label":"Spuž","lat":"42.515","lng":"19.195"},{"label":"Stari Bar","lat":"42.097","lng":"19.136"},{"label":"Šušanj","lat":"42.11556","lng":"19.08833"},{"label":"Sutomore","lat":"42.14278","lng":"19.04667"},{"label":"Tivat","lat":"42.43623","lng":"18.69361"},{"label":"Tuzi","lat":"42.36556","lng":"19.33139"},{"label":"Ulcinj","lat":"41.92936","lng":"19.22436"},{"label":"Žabljak","lat":"43.15423","lng":"19.12325"}]