[{"label":"Ailuk","lat":"10.21972","lng":"169.97967"},{"label":"Airuk","lat":"7.27717","lng":"168.8203"},{"label":"Arno","lat":"7.06691","lng":"171.55413"},{"label":"Aur","lat":"8.1499","lng":"171.16869"},{"label":"Ebaye","lat":"8.77479","lng":"167.73919"},{"label":"Ebon","lat":"4.58199","lng":"168.69636"},{"label":"Enewetak","lat":"11.34735","lng":"162.33733"},{"label":"Jabat","lat":"7.75003","lng":"168.97513"},{"label":"Jabor","lat":"5.92098","lng":"169.64335"},{"label":"Kili","lat":"5.64387","lng":"169.12109"},{"label":"Lae","lat":"8.92217","lng":"166.26344"},{"label":"Lib","lat":"8.31221","lng":"167.37662"},{"label":"Loen","lat":"7.76007","lng":"168.23072"},{"label":"Majuro","lat":"7.08971","lng":"171.38027"},{"label":"Mejit","lat":"10.27531","lng":"170.86461"},{"label":"Mili","lat":"6.0815","lng":"171.73502"},{"label":"Namdrik","lat":"5.59944","lng":"168.10282"},{"label":"RMI Capitol","lat":"7.08931","lng":"171.3805"},{"label":"Rongelap","lat":"11.16351","lng":"166.89408"},{"label":"Taroa","lat":"8.70576","lng":"171.2275"},{"label":"Ujae","lat":"8.93218","lng":"165.76416"},{"label":"Utrik","lat":"11.22778","lng":"169.84739"},{"label":"Wotho","lat":"10.16575","lng":"166.01022"},{"label":"Wotje","lat":"9.45429","lng":"170.23674"}]