[{"label":"Batinci","lat":"41.91909","lng":"21.47978"},{"label":"Bedinje","lat":"42.14167","lng":"21.69639"},{"label":"Belčišta","lat":"41.30278","lng":"20.83028"},{"label":"Beranci","lat":"41.15969","lng":"21.35963"},{"label":"Berovo","lat":"41.70306","lng":"22.85778"},{"label":"Bistrica","lat":"40.97892","lng":"21.3658"},{"label":"Bitola","lat":"41.03143","lng":"21.33474"},{"label":"Blatec","lat":"41.83668","lng":"22.57909"},{"label":"Bogdanci","lat":"41.20306","lng":"22.57556"},{"label":"Bogomila","lat":"41.59306","lng":"21.47167"},{"label":"Bogovinje","lat":"41.92361","lng":"20.91361"},{"label":"Bojane","lat":"42.00009","lng":"21.19265"},{"label":"Bosilovo","lat":"41.44056","lng":"22.72778"},{"label":"Brvenica","lat":"41.96722","lng":"20.98083"},{"label":"Bučin","lat":"41.27377","lng":"21.31692"},{"label":"Bukovik","lat":"41.97103","lng":"21.23905"},{"label":"Bulacani","lat":"42.07056","lng":"21.50278"},{"label":"Butel","lat":"42.03083","lng":"21.44667"},{"label":"Čair","lat":"42.01528","lng":"21.44111"},{"label":"Capari","lat":"41.05656","lng":"21.17884"},{"label":"Čaška","lat":"41.65056","lng":"21.66222"},{"label":"Cegrane","lat":"41.83889","lng":"20.97583"},{"label":"Čelopek","lat":"41.93167","lng":"21.01333"},{"label":"Centar Župa","lat":"41.47849","lng":"20.55945"},{"label":"Češinovo","lat":"41.87148","lng":"22.28961"},{"label":"Cresevo","lat":"42.05083","lng":"21.50972"},{"label":"Crnilište","lat":"41.53025","lng":"21.41416"},{"label":"Debar","lat":"41.52444","lng":"20.52421"},{"label":"Delcevo","lat":"41.96722","lng":"22.76944"},{"label":"Delogožda","lat":"41.25728","lng":"20.7218"},{"label":"Demir Hisar","lat":"41.22097","lng":"21.20302"},{"label":"Demir Kapija","lat":"41.40613","lng":"22.24631"},{"label":"Desovo","lat":"41.46278","lng":"21.49111"},{"label":"Dobarce","lat":"41.9553","lng":"21.08875"},{"label":"Dobri Dol","lat":"41.8652","lng":"20.89009"},{"label":"Dobrošte","lat":"42.10333","lng":"21.07778"},{"label":"Dobruševo","lat":"41.16861","lng":"21.4825"},{"label":"Dolna Banjica","lat":"41.78611","lng":"20.90611"},{"label":"Dolneni","lat":"41.42579","lng":"21.45402"},{"label":"Dolno Količani","lat":"41.88639","lng":"21.48556"},{"label":"Dolno Orizari","lat":"41.05028","lng":"21.37944"},{"label":"Dolno Palčište","lat":"41.96859","lng":"20.92899"},{"label":"Dolno Srpci","lat":"41.1748","lng":"21.36464"},{"label":"Dračevo","lat":"41.93667","lng":"21.52167"},{"label":"Drugovo","lat":"41.4849","lng":"20.92636"},{"label":"Džepčište","lat":"42.03287","lng":"20.99817"},{"label":"Forino","lat":"41.82334","lng":"20.96174"},{"label":"Gevgelija","lat":"41.14166","lng":"22.50141"},{"label":"Gjorče Petro","lat":"42.00778","lng":"21.35306"},{"label":"Golema Rečica","lat":"41.98803","lng":"20.94517"},{"label":"Gorno Orizari","lat":"41.68583","lng":"21.73475"},{"label":"Gorno Orizari","lat":"41.05188","lng":"21.34548"},{"label":"Gorobinci","lat":"41.87507","lng":"21.87599"},{"label":"Gostivar","lat":"41.79601","lng":"20.90819"},{"label":"Gradec","lat":"41.89696","lng":"20.90398"},{"label":"Gradec","lat":"41.85068","lng":"22.51132"},{"label":"Gradsko","lat":"41.5775","lng":"21.94278"},{"label":"Grčec","lat":"41.98806","lng":"21.33028"},{"label":"Grnčari","lat":"41.01722","lng":"21.05333"},{"label":"Gurgurnica","lat":"41.84508","lng":"21.10538"},{"label":"Ilinden","lat":"41.99451","lng":"21.58002"},{"label":"Ilovica","lat":"41.47224","lng":"22.8048"},{"label":"Ivankovci","lat":"41.84889","lng":"21.82028"},{"label":"Izvor","lat":"42.20322","lng":"21.57812"},{"label":"Jankovec","lat":"41.11028","lng":"21.01139"},{"label":"Jegunovce","lat":"42.07238","lng":"21.12367"},{"label":"Kadino","lat":"41.96889","lng":"21.60139"},{"label":"Kamenjane","lat":"41.94568","lng":"20.92894"},{"label":"Kanatlarci","lat":"41.21028","lng":"21.50333"},{"label":"Karbinci","lat":"41.81758","lng":"22.23529"},{"label":"Kavadarci","lat":"41.43306","lng":"22.01194"},{"label":"Kičevo","lat":"41.51267","lng":"20.95886"},{"label":"Kisela Voda","lat":"41.94889","lng":"21.50278"},{"label":"Kochani","lat":"41.91639","lng":"22.41278"},{"label":"Konče","lat":"41.49511","lng":"22.38359"},{"label":"Kondovo","lat":"42.01151","lng":"21.31427"},{"label":"Kosel","lat":"41.17444","lng":"20.83556"},{"label":"Krani","lat":"40.93934","lng":"21.10911"},{"label":"Kratovo","lat":"42.07838","lng":"22.1807"},{"label":"Kriva Palanka","lat":"42.20088","lng":"22.33244"},{"label":"Krivogashtani","lat":"41.33611","lng":"21.33306"},{"label":"Krusevo","lat":"41.36889","lng":"21.24889"},{"label":"Krušopek","lat":"41.99651","lng":"21.34355"},{"label":"Kuklis","lat":"41.40528","lng":"22.66528"},{"label":"Kukurečani","lat":"41.09562","lng":"21.32454"},{"label":"Kumanovo","lat":"42.13222","lng":"21.71444"},{"label":"Labunista","lat":"41.26861","lng":"20.59611"},{"label":"Larce","lat":"41.93319","lng":"21.12628"},{"label":"Lažani","lat":"41.44222","lng":"21.31583"},{"label":"Lipkovo","lat":"42.15639","lng":"21.58528"},{"label":"Lisičani","lat":"41.46139","lng":"21.05444"},{"label":"Ljubin","lat":"42.00139","lng":"21.30917"},{"label":"Logovardi","lat":"41.03096","lng":"21.40967"},{"label":"Lojane","lat":"42.23276","lng":"21.6655"},{"label":"Lozovo","lat":"41.78389","lng":"21.90556"},{"label":"Lukovo","lat":"41.35339","lng":"20.60637"},{"label":"Makedonska Kamenica","lat":"42.02079","lng":"22.5876"},{"label":"Makedonski Brod","lat":"41.51361","lng":"21.21528"},{"label":"Marino","lat":"41.98776","lng":"21.59148"},{"label":"Markov Grad","lat":"41.35722","lng":"21.5325"},{"label":"Matejce","lat":"42.12556","lng":"21.59778"},{"label":"Mešeišta","lat":"41.23814","lng":"20.77414"},{"label":"Miladinovci","lat":"41.98029","lng":"21.64982"},{"label":"Miletino","lat":"41.90753","lng":"21.01601"},{"label":"Miravci","lat":"41.30925","lng":"22.43641"},{"label":"Mislesevo","lat":"41.185","lng":"20.70861"},{"label":"Mogila","lat":"41.10833","lng":"21.37861"},{"label":"Morani","lat":"41.90978","lng":"21.54997"},{"label":"Murtino","lat":"41.41537","lng":"22.72589"},{"label":"Negotino","lat":"41.87792","lng":"20.88389"},{"label":"Negotino","lat":"41.48456","lng":"22.09056"},{"label":"Nerašte","lat":"42.10711","lng":"21.1081"},{"label":"Novaci","lat":"41.04197","lng":"21.45866"},{"label":"Novo Selo","lat":"41.41486","lng":"22.88164"},{"label":"Oblesevo","lat":"41.88333","lng":"22.33389"},{"label":"Obršani","lat":"41.28168","lng":"21.3615"},{"label":"Ognjaci","lat":"41.92167","lng":"21.58306"},{"label":"Ohrid","lat":"41.11722","lng":"20.80194"},{"label":"Oktisi","lat":"41.2325","lng":"20.60722"},{"label":"Oraovica","lat":"41.62583","lng":"22.51333"},{"label":"Orashac","lat":"42.0625","lng":"21.79972"},{"label":"Orizari","lat":"41.92262","lng":"22.44628"},{"label":"Otlja","lat":"42.14315","lng":"21.58675"},{"label":"Pehčevo","lat":"41.76226","lng":"22.88921"},{"label":"Pirava","lat":"41.32042","lng":"22.53047"},{"label":"Pirok","lat":"41.91083","lng":"20.91056"},{"label":"Plasnica","lat":"41.46722","lng":"21.12306"},{"label":"Podareš","lat":"41.61389","lng":"22.54222"},{"label":"Poroj","lat":"42.02913","lng":"20.99266"},{"label":"Prilep","lat":"41.34514","lng":"21.55504"},{"label":"Probishtip","lat":"42.00306","lng":"22.17861"},{"label":"Pršovce","lat":"42.08336","lng":"21.05994"},{"label":"Radishani","lat":"42.06111","lng":"21.44778"},{"label":"Radolista","lat":"41.16417","lng":"20.62333"},{"label":"Radovis","lat":"41.63833","lng":"22.46472"},{"label":"Rankovce","lat":"42.16964","lng":"22.11617"},{"label":"Resen","lat":"41.08934","lng":"21.01092"},{"label":"Romanovci","lat":"42.09472","lng":"21.69306"},{"label":"Rosoman","lat":"41.51671","lng":"21.94585"},{"label":"Rostusa","lat":"41.61","lng":"20.6"},{"label":"Rusinovo","lat":"41.68728","lng":"22.80849"},{"label":"Samokov","lat":"41.68331","lng":"21.14625"},{"label":"Saraj","lat":"42","lng":"21.32778"},{"label":"Sedlarevo","lat":"41.88306","lng":"21.1275"},{"label":"Sekirnik","lat":"41.43999","lng":"22.79536"},{"label":"Selce","lat":"42.03482","lng":"20.94035"},{"label":"Shtip","lat":"41.74583","lng":"22.19583"},{"label":"Šipkovica","lat":"42.035","lng":"20.91556"},{"label":"Skopje","lat":"41.99646","lng":"21.43141"},{"label":"Slatino","lat":"42.06784","lng":"21.03902"},{"label":"Slepče","lat":"41.23333","lng":"21.175"},{"label":"Sopište","lat":"41.95472","lng":"21.4275"},{"label":"Sopotnica","lat":"41.29594","lng":"21.15357"},{"label":"Srbica","lat":"41.58672","lng":"21.03027"},{"label":"Srbinovo","lat":"41.70586","lng":"20.95859"},{"label":"Sredno Konjari","lat":"41.95743","lng":"21.71494"},{"label":"Star Dojran","lat":"41.18647","lng":"22.7203"},{"label":"Stojakovo","lat":"41.15556","lng":"22.5775"},{"label":"Strelci","lat":"41.54046","lng":"21.00563"},{"label":"Strimnica","lat":"41.96719","lng":"21.03598"},{"label":"Struga","lat":"41.17799","lng":"20.67784"},{"label":"Strumica","lat":"41.4375","lng":"22.64333"},{"label":"Studeničani","lat":"41.92208","lng":"21.53483"},{"label":"Sušica","lat":"41.43982","lng":"22.83676"},{"label":"Šuto Orizare","lat":"42.04","lng":"21.425"},{"label":"Sveti Nikole","lat":"41.86956","lng":"21.95274"},{"label":"Tearce","lat":"42.07666","lng":"21.0531"},{"label":"Tetovo","lat":"42.00973","lng":"20.97155"},{"label":"Topolčani","lat":"41.22772","lng":"21.43113"},{"label":"Tuin","lat":"41.61944","lng":"21.04528"},{"label":"Usje","lat":"41.95871","lng":"21.45835"},{"label":"Vaksince","lat":"42.20611","lng":"21.66306"},{"label":"Valandovo","lat":"41.31744","lng":"22.56002"},{"label":"Vasilevo","lat":"41.47408","lng":"22.64301"},{"label":"Vataša","lat":"41.41694","lng":"22.01889"},{"label":"Veles","lat":"41.71556","lng":"21.77556"},{"label":"Velesta","lat":"41.24083","lng":"20.64389"},{"label":"Veljusa","lat":"41.47611","lng":"22.5675"},{"label":"Vevčani","lat":"41.24056","lng":"20.59333"},{"label":"Vinica","lat":"41.88278","lng":"22.50917"},{"label":"Vladimirovo","lat":"41.71","lng":"22.79278"},{"label":"Vraneštica","lat":"41.44496","lng":"21.02683"},{"label":"Vrapčište","lat":"41.83439","lng":"20.88563"},{"label":"Vratnica","lat":"42.14333","lng":"21.11694"},{"label":"Vrutok","lat":"41.76861","lng":"20.83917"},{"label":"Zajas","lat":"41.60722","lng":"20.93833"},{"label":"Zelenikovo","lat":"41.88413","lng":"21.58848"},{"label":"Zelenikovo","lat":"41.87333","lng":"21.60306"},{"label":"Zelino","lat":"41.98028","lng":"21.06417"},{"label":"Žitoše","lat":"41.41991","lng":"21.29078"},{"label":"Zletovo","lat":"41.98861","lng":"22.23611"},{"label":"Арачиново","lat":"42.02679","lng":"21.56276"},{"label":"Идризово","lat":"41.96083","lng":"21.57556"},{"label":"Јурумлери","lat":"41.96722","lng":"21.55694"},{"label":"Петровец","lat":"41.93889","lng":"21.615"},{"label":"Слупчане","lat":"42.17333","lng":"21.62778"},{"label":"Старо Нагоричане","lat":"42.19806","lng":"21.82861"},{"label":"Чучер - Сандево","lat":"42.10361","lng":"21.38222"}]