[{"label":"Abeïbara","lat":"19.11667","lng":"1.75"},{"label":"Ansongo","lat":"15.6597","lng":"0.5022"},{"label":"Araouane","lat":"18.90476","lng":"-3.52649"},{"label":"Bafoulabé","lat":"13.8065","lng":"-10.8321"},{"label":"Bamako","lat":"12.60915","lng":"-7.97522"},{"label":"Banamba","lat":"13.54773","lng":"-7.44808"},{"label":"Bandiagara","lat":"14.35005","lng":"-3.61038"},{"label":"Bankass","lat":"14.0775","lng":"-3.51594"},{"label":"Barouéli","lat":"13.077","lng":"-6.8312"},{"label":"Bla","lat":"12.95007","lng":"-5.76024"},{"label":"Bougouni","lat":"11.41769","lng":"-7.48323"},{"label":"Bourem","lat":"16.955","lng":"-0.34861"},{"label":"Dialakorodji","lat":"12.70354","lng":"-7.96463"},{"label":"Diéma","lat":"14.54","lng":"-9.1921"},{"label":"Dioïla","lat":"12.48735","lng":"-6.80313"},{"label":"Diourou","lat":"13.68719","lng":"-5.83203"},{"label":"Diré","lat":"16.25705","lng":"-3.40126"},{"label":"Djenné","lat":"13.90608","lng":"-4.55332"},{"label":"Douentza","lat":"15.00605","lng":"-2.9517"},{"label":"Dougabougou","lat":"13.82049","lng":"-6.12057"},{"label":"Doumba","lat":"13.1042","lng":"-7.61121"},{"label":"Fana","lat":"12.7787","lng":"-6.9564"},{"label":"Figuira-Toma","lat":"11.91667","lng":"-8.36667"},{"label":"Gao","lat":"16.27167","lng":"-0.04472"},{"label":"Goundam","lat":"16.41453","lng":"-3.67075"},{"label":"Gourma Rharous","lat":"16.87778","lng":"-1.92306"},{"label":"Inékar","lat":"15.95944","lng":"3.14111"},{"label":"Kabala","lat":"12.52549","lng":"-8.03927"},{"label":"Kadiolo","lat":"10.55","lng":"-5.76667"},{"label":"Kalaban Koro","lat":"12.57329","lng":"-8.02907"},{"label":"Kangaba","lat":"11.93333","lng":"-8.41667"},{"label":"Kati","lat":"12.74409","lng":"-8.07257"},{"label":"Kayes","lat":"14.44776","lng":"-11.44393"},{"label":"Ké-Macina","lat":"13.9641","lng":"-5.35791"},{"label":"Kènènkoun","lat":"13.10624","lng":"-7.24337"},{"label":"Kidal","lat":"18.44345","lng":"1.40921"},{"label":"Kinmparana","lat":"12.84217","lng":"-4.9245"},{"label":"Kita","lat":"13.03885","lng":"-9.48817"},{"label":"Kokofata","lat":"12.88333","lng":"-9.95"},{"label":"Kolokani","lat":"13.5728","lng":"-8.0339"},{"label":"Kolondiéba","lat":"11.08943","lng":"-6.8929"},{"label":"Koro","lat":"14.064","lng":"-3.07539"},{"label":"Koula","lat":"13.11382","lng":"-7.65231"},{"label":"Koulikoro","lat":"12.86273","lng":"-7.55985"},{"label":"Kouri","lat":"12.18396","lng":"-4.80284"},{"label":"Koutiala","lat":"12.38723","lng":"-5.46507"},{"label":"Leleni","lat":"12.38944","lng":"-5.24528"},{"label":"Markala","lat":"13.68427","lng":"-6.07352"},{"label":"Massiogo","lat":"10.30635","lng":"-6.10972"},{"label":"Ménaka","lat":"15.91985","lng":"2.39609"},{"label":"Molodo","lat":"14.23719","lng":"-6.02269"},{"label":"Mopti","lat":"14.4843","lng":"-4.18296"},{"label":"Moribabougou","lat":"12.68672","lng":"-7.86378"},{"label":"N'Débougou","lat":"14.37388","lng":"-5.97821"},{"label":"Nara","lat":"15.16931","lng":"-7.28985"},{"label":"Niafunké","lat":"15.9322","lng":"-3.9906"},{"label":"Niono","lat":"14.25054","lng":"-5.98679"},{"label":"Nioro","lat":"15.23074","lng":"-9.59356"},{"label":"Ntossoni","lat":"12.5304","lng":"-5.77003"},{"label":"Pèlèngana","lat":"13.4274","lng":"-6.222"},{"label":"Sagala","lat":"14.11266","lng":"-6.72865"},{"label":"Sagalo","lat":"12.2","lng":"-10.7"},{"label":"San","lat":"13.29701","lng":"-4.89627"},{"label":"Sangarébougou","lat":"12.70581","lng":"-7.90268"},{"label":"Ségou","lat":"13.44032","lng":"-6.25947"},{"label":"Sikasso","lat":"11.31755","lng":"-5.66654"},{"label":"Sirakoro Méguétana","lat":"12.56439","lng":"-7.91551"},{"label":"Siribala Coro","lat":"14.0432","lng":"-6.1067"},{"label":"Sokolo","lat":"14.7328","lng":"-6.1219"},{"label":"Taoudenni","lat":"22.67691","lng":"-3.97922"},{"label":"Ténenkou","lat":"14.45722","lng":"-4.9169"},{"label":"Tessalit","lat":"20.20126","lng":"1.01186"},{"label":"Ti-n-Essako","lat":"18.45059","lng":"2.48795"},{"label":"Timbuktu","lat":"16.77348","lng":"-3.00742"},{"label":"Tominian","lat":"13.28737","lng":"-4.59317"},{"label":"Toubakoura","lat":"13.4637","lng":"-7.38278"},{"label":"Werekela","lat":"14.33263","lng":"-5.94515"},{"label":"Yanfolila","lat":"11.18333","lng":"-8.15"},{"label":"Yélimané","lat":"15.11868","lng":"-10.57729"},{"label":"Yorosso","lat":"12.35811","lng":"-4.77688"},{"label":"Youwarou","lat":"15.3684","lng":"-4.2628"},{"label":"Zambla","lat":"10.24245","lng":"-6.98682"}]