[{"label":"’Adel Bagrou","lat":"15.4975","lng":"-6.95056"},{"label":"’Elb el Jmel","lat":"17.0105","lng":"-13.97102"},{"label":"Akjoujt","lat":"19.74657","lng":"-14.38531"},{"label":"Aleg","lat":"17.05314","lng":"-13.91312"},{"label":"Amourj","lat":"16.1098","lng":"-7.2185"},{"label":"Arafat","lat":"18.04639","lng":"-15.97194"},{"label":"Atar","lat":"20.5177","lng":"-13.04857"},{"label":"Ayoun El Atrous","lat":"16.6614","lng":"-9.6149"},{"label":"Bababé","lat":"16.3371","lng":"-13.95287"},{"label":"Barkéwol","lat":"16.64039","lng":"-12.49849"},{"label":"Bassikounou","lat":"15.8656","lng":"-5.9468"},{"label":"Bir Mogran","lat":"25.22967","lng":"-11.57912"},{"label":"Bîr Mogreïn","lat":"25.22125","lng":"-11.57928"},{"label":"Bogué","lat":"16.59153","lng":"-14.26309"},{"label":"Bouanzé","lat":"15.81852","lng":"-12.23218"},{"label":"Bouhdida","lat":"16.92809","lng":"-13.99918"},{"label":"Boulenouar","lat":"21.28965","lng":"-16.52404"},{"label":"Boustéïlé","lat":"15.5754","lng":"-8.08563"},{"label":"Boutilimit","lat":"17.5467","lng":"-14.6944"},{"label":"Çangarâfa","lat":"17.592","lng":"-12.8365"},{"label":"Chingueṭṭi","lat":"20.463","lng":"-12.362"},{"label":"Choûm","lat":"21.2875","lng":"-13.06173"},{"label":"Dar Naim","lat":"18.10808","lng":"-15.92666"},{"label":"Diaguili","lat":"14.84783","lng":"-12.39187"},{"label":"Diogountourou","lat":"14.77","lng":"-12.2509"},{"label":"Djigéni","lat":"15.73127","lng":"-8.6672"},{"label":"Djowol","lat":"16.05956","lng":"-13.37924"},{"label":"El Ghayra","lat":"17.19778","lng":"-12.24"},{"label":"El Gheddiya","lat":"17.8257","lng":"-11.5724"},{"label":"Fassalé","lat":"15.5571","lng":"-5.516"},{"label":"Fderîck","lat":"22.678","lng":"-12.711"},{"label":"Guerou","lat":"17.07754","lng":"-12.03869"},{"label":"Hamoud","lat":"15.64004","lng":"-11.51864"},{"label":"Hassi Chaggar","lat":"15.36637","lng":"-12.08665"},{"label":"Kaédi","lat":"16.15027","lng":"-13.5037"},{"label":"Kankossa","lat":"15.93891","lng":"-11.52701"},{"label":"KeurMassène","lat":"16.53848","lng":"-16.21491"},{"label":"Kiffa","lat":"16.62073","lng":"-11.40208"},{"label":"Kobenni","lat":"15.81722","lng":"-9.36528"},{"label":"Lekseïba","lat":"16.21584","lng":"-13.14493"},{"label":"Maghama","lat":"15.50915","lng":"-12.85005"},{"label":"Magṭa‘ Laḥjar","lat":"17.506","lng":"-13.0927"},{"label":"Mbagne","lat":"16.14497","lng":"-13.79258"},{"label":"Mbera","lat":"15.85615","lng":"-5.79067"},{"label":"Mbout","lat":"16.02157","lng":"-12.58379"},{"label":"Mederdra","lat":"16.92256","lng":"-15.65646"},{"label":"Mônguel","lat":"16.42361","lng":"-13.14087"},{"label":"Moudjéria","lat":"17.87364","lng":"-12.33185"},{"label":"Nbeïka","lat":"17.9811","lng":"-12.2542"},{"label":"Ndiago","lat":"16.16763","lng":"-16.51026"},{"label":"Néma","lat":"16.61702","lng":"-7.25649"},{"label":"Nouadhibou","lat":"20.94188","lng":"-17.03842"},{"label":"Nouakchott","lat":"18.08581","lng":"-15.9785"},{"label":"Nouâmghâr","lat":"19.35644","lng":"-16.51389"},{"label":"Ouad Naga","lat":"17.96636","lng":"-15.51802"},{"label":"Ouâd Nâga","lat":"17.9525","lng":"-15.69528"},{"label":"Ouadâne","lat":"20.92767","lng":"-11.62138"},{"label":"Oualâta","lat":"17.3014","lng":"-7.0256"},{"label":"Oujeft","lat":"19.96222","lng":"-13.05944"},{"label":"Ould Yenjé","lat":"15.54038","lng":"-11.71467"},{"label":"R'kiz","lat":"16.9151","lng":"-15.23701"},{"label":"Rosso","lat":"16.51378","lng":"-15.80503"},{"label":"Sagné","lat":"15.20457","lng":"-12.78979"},{"label":"Sélibaby","lat":"15.15846","lng":"-12.1843"},{"label":"Taguilalett","lat":"17.04045","lng":"-15.52049"},{"label":"Tamchekket","lat":"17.2422","lng":"-10.6706"},{"label":"Tékane","lat":"16.60175","lng":"-15.34866"},{"label":"Tevragh Zeina","lat":"18.09894","lng":"-15.98848"},{"label":"Tîchît","lat":"18.44134","lng":"-9.49394"},{"label":"Tidjikja","lat":"18.55644","lng":"-11.42715"},{"label":"Timbedgha","lat":"16.2447","lng":"-8.1643"},{"label":"Ṭinṭâne","lat":"16.3946","lng":"-10.1737"},{"label":"Wali Djantang","lat":"15.33255","lng":"-12.87464"}]