[{"label":"’Elb el Jmel","lat":"17.0105","lng":"-13.97102"},{"label":"Aioun","lat":"16.6614","lng":"-9.6149"},{"label":"Akjoujt","lat":"19.74657","lng":"-14.38531"},{"label":"Aleg","lat":"17.05314","lng":"-13.91312"},{"label":"Arafat","lat":"18.04639","lng":"-15.97194"},{"label":"Atar","lat":"20.5177","lng":"-13.04857"},{"label":"Barkéwol","lat":"16.64039","lng":"-12.49849"},{"label":"Chingueṭṭi","lat":"20.463","lng":"-12.362"},{"label":"Dar Naim","lat":"18.10808","lng":"-15.92666"},{"label":"Kaédi","lat":"16.15027","lng":"-13.5037"},{"label":"Kiffa","lat":"16.62073","lng":"-11.40208"},{"label":"Néma","lat":"16.61702","lng":"-7.25649"},{"label":"Nouadhibou","lat":"20.94188","lng":"-17.03842"},{"label":"Nouakchott","lat":"18.08581","lng":"-15.9785"},{"label":"Rosso","lat":"16.51378","lng":"-15.80503"},{"label":"Sélibaby","lat":"15.15846","lng":"-12.1843"},{"label":"Tékane","lat":"16.60175","lng":"-15.34866"},{"label":"Tevragh Zeina","lat":"18.09894","lng":"-15.98848"},{"label":"Tidjikja","lat":"18.55644","lng":"-11.42715"}]