[{"label":"’Elb el Jmel","lat":"17.0105","lng":"-13.97102"},{"label":"Aioun","lat":"16.6614","lng":"-9.6149"},{"label":"Akjoujt","lat":"19.74657","lng":"-14.38531"},{"label":"Aleg","lat":"17.05314","lng":"-13.91312"},{"label":"Arafat","lat":"18.04639","lng":"-15.97194"},{"label":"Atar","lat":"20.5177","lng":"-13.04857"},{"label":"Barkéwol","lat":"16.64039","lng":"-12.49849"},{"label":"Bassikounou","lat":"15.8656","lng":"-5.9468"},{"label":"Bîr Mogreïn","lat":"25.22125","lng":"-11.57928"},{"label":"Bogué","lat":"16.59153","lng":"-14.26309"},{"label":"Boulenouar","lat":"21.28965","lng":"-16.52404"},{"label":"Boutilimit","lat":"17.5467","lng":"-14.6944"},{"label":"Çangarâfa","lat":"17.592","lng":"-12.8365"},{"label":"Chingueṭṭi","lat":"20.463","lng":"-12.362"},{"label":"Choûm","lat":"21.2875","lng":"-13.06173"},{"label":"Dar Naim","lat":"18.10808","lng":"-15.92666"},{"label":"El Gheddiya","lat":"17.8257","lng":"-11.5724"},{"label":"Fassalé","lat":"15.5571","lng":"-5.516"},{"label":"Fdérik","lat":"22.678","lng":"-12.711"},{"label":"Hamoud","lat":"15.64004","lng":"-11.51864"},{"label":"Kaédi","lat":"16.15027","lng":"-13.5037"},{"label":"KeurMassène","lat":"16.53848","lng":"-16.21491"},{"label":"Kiffa","lat":"16.62073","lng":"-11.40208"},{"label":"Mederdra","lat":"16.89639","lng":"-15.75611"},{"label":"Moudjéria","lat":"17.87364","lng":"-12.33185"},{"label":"Nbeïka","lat":"17.9811","lng":"-12.2542"},{"label":"Ndiago","lat":"16.16763","lng":"-16.51026"},{"label":"Néma","lat":"16.61702","lng":"-7.25649"},{"label":"Nouadhibou","lat":"20.94188","lng":"-17.03842"},{"label":"Nouakchott","lat":"18.08581","lng":"-15.9785"},{"label":"Nouâmghâr","lat":"19.35644","lng":"-16.51389"},{"label":"Ouâd Nâga","lat":"17.9525","lng":"-15.69528"},{"label":"Oualâta","lat":"17.3014","lng":"-7.0256"},{"label":"R'kiz","lat":"16.9151","lng":"-15.23701"},{"label":"Rosso","lat":"16.51378","lng":"-15.80503"},{"label":"Sélibaby","lat":"15.15846","lng":"-12.1843"},{"label":"Taguilalett","lat":"17.04045","lng":"-15.52049"},{"label":"Tamchekket","lat":"17.2422","lng":"-10.6706"},{"label":"Tékane","lat":"16.60175","lng":"-15.34866"},{"label":"Tevragh Zeina","lat":"18.09894","lng":"-15.98848"},{"label":"Tîchît","lat":"18.44134","lng":"-9.49394"},{"label":"Tidjikja","lat":"18.55644","lng":"-11.42715"},{"label":"Timbedgha","lat":"16.2447","lng":"-8.1643"}]