[{"label":"Attard","lat":"35.88972","lng":"14.4425"},{"label":"Balzan","lat":"35.90028","lng":"14.455"},{"label":"Birkirkara","lat":"35.89722","lng":"14.46111"},{"label":"Birżebbuġa","lat":"35.82583","lng":"14.52694"},{"label":"Cospicua","lat":"35.88556","lng":"14.5275"},{"label":"Dingli","lat":"35.86139","lng":"14.38222"},{"label":"Fgura","lat":"35.87028","lng":"14.51333"},{"label":"Floriana","lat":"35.89583","lng":"14.50833"},{"label":"Fontana","lat":"36.0375","lng":"14.23611"},{"label":"Għajnsielem","lat":"36.02639","lng":"14.285"},{"label":"Għarb","lat":"36.06","lng":"14.20889"},{"label":"Għaxaq","lat":"35.84889","lng":"14.51667"},{"label":"Gudja","lat":"35.84917","lng":"14.50306"},{"label":"Gżira","lat":"35.90583","lng":"14.48806"},{"label":"Hal Gharghur","lat":"35.92409","lng":"14.45118"},{"label":"Ħamrun","lat":"35.88472","lng":"14.48444"},{"label":"Haz-Zebbug","lat":"35.87194","lng":"14.44111"},{"label":"Imdina","lat":"35.88694","lng":"14.4025"},{"label":"Imġarr","lat":"35.92056","lng":"14.36639"},{"label":"Imsida","lat":"35.8925","lng":"14.48278"},{"label":"Imtarfa","lat":"35.89333","lng":"14.39889"},{"label":"Kalkara","lat":"35.88917","lng":"14.53278"},{"label":"Kerċem","lat":"36.04194","lng":"14.22667"},{"label":"Kirkop","lat":"35.84222","lng":"14.48528"},{"label":"L-Iklin","lat":"35.90414","lng":"14.45415"},{"label":"Lija","lat":"35.90056","lng":"14.44639"},{"label":"Luqa","lat":"35.85889","lng":"14.48861"},{"label":"Marsa","lat":"35.87917","lng":"14.49528"},{"label":"Marsaskala","lat":"35.8622","lng":"14.56701"},{"label":"Mellieħa","lat":"35.95639","lng":"14.36222"},{"label":"Mġarr","lat":"36.02528","lng":"14.295"},{"label":"Mosta","lat":"35.90917","lng":"14.42556"},{"label":"Mqabba","lat":"35.84763","lng":"14.46824"},{"label":"Munxar","lat":"36.03","lng":"14.23333"},{"label":"Nadur","lat":"36.03778","lng":"14.29417"},{"label":"Naxxar","lat":"35.91361","lng":"14.44361"},{"label":"Paola","lat":"35.87306","lng":"14.49889"},{"label":"Pembroke","lat":"35.93056","lng":"14.47639"},{"label":"Pietà","lat":"35.89472","lng":"14.495"},{"label":"Qala","lat":"36.03611","lng":"14.30944"},{"label":"Qormi","lat":"35.87601","lng":"14.472"},{"label":"Qrendi","lat":"35.83472","lng":"14.45833"},{"label":"Rabat","lat":"35.88152","lng":"14.39872"},{"label":"Safi","lat":"35.83306","lng":"14.48472"},{"label":"San Ġiljan","lat":"35.91839","lng":"14.48977"},{"label":"San Ġwann","lat":"35.90556","lng":"14.47611"},{"label":"San Lawrenz","lat":"36.05556","lng":"14.20361"},{"label":"San Pawl il-Baħar","lat":"35.95064","lng":"14.41561"},{"label":"Sannat","lat":"36.02444","lng":"14.24278"},{"label":"Santa Luċija","lat":"35.86278","lng":"14.5075"},{"label":"Santa Venera","lat":"35.89083","lng":"14.47417"},{"label":"Senglea","lat":"35.8875","lng":"14.51694"},{"label":"Siġġiewi","lat":"35.85556","lng":"14.43639"},{"label":"Sliema","lat":"35.9125","lng":"14.50194"},{"label":"Swieqi","lat":"35.9225","lng":"14.48"},{"label":"Ta’ Xbiex","lat":"35.89917","lng":"14.49444"},{"label":"Tarxien","lat":"35.86583","lng":"14.515"},{"label":"Valletta","lat":"35.89968","lng":"14.5148"},{"label":"Victoria","lat":"36.04444","lng":"14.23972"},{"label":"Vittoriosa","lat":"35.89222","lng":"14.51833"},{"label":"Xagħra","lat":"36.05","lng":"14.26444"},{"label":"Xewkija","lat":"36.03278","lng":"14.25806"},{"label":"Xgħajra","lat":"35.88556","lng":"14.5475"},{"label":"Żabbar","lat":"35.87611","lng":"14.535"},{"label":"Żebbuġ","lat":"36.07222","lng":"14.23583"},{"label":"Żejtun","lat":"35.85583","lng":"14.53306"},{"label":"Żurrieq","lat":"35.83111","lng":"14.47417"}]