[{"label":"Albion","lat":"-20.20814","lng":"57.40766"},{"label":"Amaury","lat":"-20.13083","lng":"57.65917"},{"label":"Arsenal","lat":"-20.10556","lng":"57.53528"},{"label":"Baie aux Huîtres","lat":"-19.69444","lng":"63.40833"},{"label":"Baie du Tombeau","lat":"-20.11944","lng":"57.49139"},{"label":"Bambous","lat":"-20.25667","lng":"57.40611"},{"label":"Bambous Virieux","lat":"-20.34278","lng":"57.7575"},{"label":"Beau Bassin-Rose Hill","lat":"-20.23325","lng":"57.46609"},{"label":"Beau Vallon","lat":"-20.41889","lng":"57.69528"},{"label":"Bel Air Rivière Sèche","lat":"-20.25777","lng":"57.74976"},{"label":"Bois des Amourettes","lat":"-20.36306","lng":"57.73111"},{"label":"Bon Accueil","lat":"-20.17083","lng":"57.65639"},{"label":"Brisée Verdière","lat":"-20.16389","lng":"57.64667"},{"label":"Calebasses","lat":"-20.11167","lng":"57.55389"},{"label":"Camp de Masque","lat":"-20.23694","lng":"57.66333"},{"label":"Camp Diable","lat":"-20.46278","lng":"57.57889"},{"label":"Camp Ithier","lat":"-20.21583","lng":"57.74556"},{"label":"Camp Thorel","lat":"-20.21472","lng":"57.61611"},{"label":"Cap Malheureux","lat":"-19.98417","lng":"57.61417"},{"label":"Cargados Carajos","lat":"-16.60329","lng":"59.65851"},{"label":"Cascavelle","lat":"-20.28694","lng":"57.40722"},{"label":"Centre de Flacq","lat":"-20.18972","lng":"57.71444"},{"label":"Chamouny","lat":"-20.48222","lng":"57.46611"},{"label":"Chemin Grenier","lat":"-20.48722","lng":"57.46556"},{"label":"Clémencia","lat":"-20.26389","lng":"57.70611"},{"label":"Cluny","lat":"-20.36694","lng":"57.60389"},{"label":"Congomah","lat":"-20.14889","lng":"57.59083"},{"label":"Cottage","lat":"-20.05972","lng":"57.62917"},{"label":"Crève Coeur","lat":"-20.19346","lng":"57.56328"},{"label":"Curepipe","lat":"-20.31628","lng":"57.52594"},{"label":"Dagotière","lat":"-20.24476","lng":"57.56188"},{"label":"Dubreuil","lat":"-20.30132","lng":"57.59861"},{"label":"Ebene","lat":"-20.24494","lng":"57.49163"},{"label":"Ecroignard","lat":"-20.22611","lng":"57.73611"},{"label":"Espérance Trébuchet","lat":"-20.06972","lng":"57.64194"},{"label":"Flic en Flac","lat":"-20.278","lng":"57.372"},{"label":"Fond du Sac","lat":"-20.04732","lng":"57.584"},{"label":"Goodlands","lat":"-20.03841","lng":"57.65055"},{"label":"Grand Baie","lat":"-20.01816","lng":"57.58015"},{"label":"Grand Bois","lat":"-20.41889","lng":"57.54417"},{"label":"Grand Gaube","lat":"-20.00639","lng":"57.66083"},{"label":"Grand Sable","lat":"-20.31417","lng":"57.76444"},{"label":"Grande Rivière Noire","lat":"-20.36028","lng":"57.36611"},{"label":"Grande Rivière Sud Est","lat":"-20.28611","lng":"57.77583"},{"label":"Gros Cailloux","lat":"-20.20722","lng":"57.43"},{"label":"L’Escalier","lat":"-20.47","lng":"57.61222"},{"label":"Lalmatie","lat":"-20.18972","lng":"57.66111"},{"label":"Laventure","lat":"-20.14583","lng":"57.67667"},{"label":"Le Hochet","lat":"-20.13859","lng":"57.53013"},{"label":"Long Mountain","lat":"-20.14306","lng":"57.56222"},{"label":"Mahébourg","lat":"-20.40806","lng":"57.7"},{"label":"Mapou","lat":"-20.07583","lng":"57.60139"},{"label":"Mare La Chaux","lat":"-20.19806","lng":"57.74944"},{"label":"Melrose","lat":"-20.26972","lng":"57.63194"},{"label":"Midlands","lat":"-20.338","lng":"57.567"},{"label":"Moka","lat":"-20.21904","lng":"57.51083"},{"label":"Montagne Blanche","lat":"-20.28538","lng":"57.65865"},{"label":"Morcellement Saint André","lat":"-20.07199","lng":"57.56833"},{"label":"New Grove","lat":"-20.40861","lng":"57.61361"},{"label":"Notre Dame","lat":"-20.14298","lng":"57.55969"},{"label":"Nouvelle France","lat":"-20.37056","lng":"57.56111"},{"label":"Olivia","lat":"-20.28778","lng":"57.73097"},{"label":"Pailles","lat":"-20.19271","lng":"57.48826"},{"label":"Pamplemousses","lat":"-20.10389","lng":"57.57028"},{"label":"Petit Raffray","lat":"-20.02022","lng":"57.62296"},{"label":"Petite Case Noyale","lat":"-20.404","lng":"57.371"},{"label":"Petite Rivière","lat":"-20.19551","lng":"57.44592"},{"label":"Piton","lat":"-20.09028","lng":"57.63028"},{"label":"Plaine des Papayes","lat":"-20.065","lng":"57.5725"},{"label":"Plaine Magnien","lat":"-20.42967","lng":"57.66968"},{"label":"Plaines des Roches","lat":"-20.11167","lng":"57.69083"},{"label":"Pointe aux Piments","lat":"-20.06494","lng":"57.52347"},{"label":"Port Louis","lat":"-20.16194","lng":"57.49889"},{"label":"Port Mathurin","lat":"-19.68333","lng":"63.41667"},{"label":"Poste de Flacq","lat":"-20.16306","lng":"57.73056"},{"label":"Poudre d’Or","lat":"-20.06","lng":"57.67667"},{"label":"Providence","lat":"-20.24472","lng":"57.61222"},{"label":"Quartier Militaire","lat":"-20.2479","lng":"57.59737"},{"label":"Quatre Bornes","lat":"-20.26381","lng":"57.4791"},{"label":"Quatre Cocos","lat":"-20.20151","lng":"57.77448"},{"label":"Quatre Soeurs","lat":"-20.29917","lng":"57.77056"},{"label":"Queen Victoria","lat":"-20.22","lng":"57.7075"},{"label":"Richelieu","lat":"-20.19324","lng":"57.45952"},{"label":"Rivière des Anguilles","lat":"-20.493","lng":"57.563"},{"label":"Rivière du Rempart","lat":"-20.10306","lng":"57.68472"},{"label":"Roche Terre","lat":"-20.01861","lng":"57.64472"},{"label":"Roches Noire","lat":"-20.11111","lng":"57.71222"},{"label":"Rose Belle","lat":"-20.40028","lng":"57.59667"},{"label":"Saint Aubin","lat":"-20.496","lng":"57.55"},{"label":"Saint Hubert","lat":"-20.36417","lng":"57.63833"},{"label":"Saint Julien","lat":"-20.22639","lng":"57.63639"},{"label":"Saint Pierre","lat":"-20.2215","lng":"57.53431"},{"label":"Sebastopol","lat":"-20.2907","lng":"57.68779"},{"label":"Souillac","lat":"-20.51667","lng":"57.51667"},{"label":"Surinam","lat":"-20.50972","lng":"57.50528"},{"label":"Tamarin","lat":"-20.32556","lng":"57.37056"},{"label":"Terre Rouge","lat":"-20.1283","lng":"57.53116"},{"label":"The Vale","lat":"-20.03018","lng":"57.60219"},{"label":"Triolet","lat":"-20.0576","lng":"57.55025"},{"label":"Vacoas","lat":"-20.29806","lng":"57.47833"},{"label":"Vingt Cinq","lat":"-10.38803","lng":"56.61795"}]