[{"label":"10 de Abril","lat":"16.82917","lng":"-99.74083"},{"label":"18 de Marzo","lat":"18.96889","lng":"-98.16028"},{"label":"1ra. Sección de Izapa","lat":"14.92083","lng":"-92.17083"},{"label":"2da. Sección de Medio Monte","lat":"14.88194","lng":"-92.18444"},{"label":"31 de Octubre","lat":"27.29583","lng":"-110.0375"},{"label":"Abalá","lat":"20.64739","lng":"-89.6806"},{"label":"Abasolo","lat":"24.05844","lng":"-98.37333"},{"label":"Abasolo","lat":"16.8214","lng":"-92.21611"},{"label":"Abasolo","lat":"27.18219","lng":"-101.42757"},{"label":"Abasolo","lat":"25.94595","lng":"-100.39584"},{"label":"Abasolo","lat":"25.31145","lng":"-104.6558"},{"label":"Abasolo","lat":"20.44997","lng":"-101.53073"},{"label":"Abasolo del Valle","lat":"17.78306","lng":"-95.54556"},{"label":"Abdenago C. García","lat":"29.98937","lng":"-107.5521"},{"label":"Abelardo L. Rodríguez","lat":"18.72842","lng":"-90.90456"},{"label":"Abelardo L. Rodríguez","lat":"18.7375","lng":"-98.98528"},{"label":"Abrevadero","lat":"18.28222","lng":"-95.21444"},{"label":"Acachapan y Colmena 3ra. Sección","lat":"18.04858","lng":"-92.7775"},{"label":"Acachuén","lat":"19.84715","lng":"-102.09272"},{"label":"Acacoyagua","lat":"15.34054","lng":"-92.67519"},{"label":"Acahuasco","lat":"20.96254","lng":"-98.59656"},{"label":"Acahuizotla","lat":"17.36054","lng":"-99.46759"},{"label":"Acajete","lat":"19.58646","lng":"-97.00995"},{"label":"Acajete","lat":"19.11154","lng":"-97.95231"},{"label":"Acala","lat":"16.55625","lng":"-92.80449"},{"label":"Acalco","lat":"17.50575","lng":"-99.1667"},{"label":"Acalpican de Morelos","lat":"18.01854","lng":"-102.34033"},{"label":"Acámbaro","lat":"20.03085","lng":"-100.72194"},{"label":"Acambay","lat":"19.95522","lng":"-99.84428"},{"label":"Acamilpa","lat":"18.71695","lng":"-99.15724"},{"label":"Acamixtla","lat":"18.56512","lng":"-99.56599"},{"label":"Acanceh","lat":"20.81291","lng":"-89.45332"},{"label":"Acapetahua","lat":"15.28189","lng":"-92.68987"},{"label":"Acapetlahuaya","lat":"18.41942","lng":"-100.07237"},{"label":"Acaponeta","lat":"22.49396","lng":"-105.36369"},{"label":"Acapulco de Juárez","lat":"16.84942","lng":"-99.90891"},{"label":"Acatempa","lat":"17.64333","lng":"-99.36639"},{"label":"Acatempan","lat":"18.31809","lng":"-99.88298"},{"label":"Acatepec","lat":"16.7375","lng":"-98.4275"},{"label":"Acatepec","lat":"20.95367","lng":"-98.27373"},{"label":"Acatepec","lat":"18.37236","lng":"-97.03651"},{"label":"Acatepec","lat":"17.32472","lng":"-98.90944"},{"label":"Acatic","lat":"20.77995","lng":"-102.91056"},{"label":"Acatla","lat":"18.74944","lng":"-97.21833"},{"label":"Acatlán","lat":"20.14562","lng":"-98.43959"},{"label":"Acatlán","lat":"19.69677","lng":"-96.84216"},{"label":"Acatlán","lat":"17.65807","lng":"-99.16944"},{"label":"Acatlán de Juárez","lat":"20.42262","lng":"-103.59051"},{"label":"Acatlán de Osorio","lat":"18.2025","lng":"-98.04864"},{"label":"Acatlán de Pérez Figueroa","lat":"18.53973","lng":"-96.60568"},{"label":"Acatzingo","lat":"18.98196","lng":"-97.78363"},{"label":"Acatzingo (Acatzingo de la Piedra)","lat":"18.92389","lng":"-99.58861"},{"label":"Acaxochitlán","lat":"20.15789","lng":"-98.20172"},{"label":"Acaxtlahuacán de Albino Zertuche","lat":"18.01714","lng":"-98.54018"},{"label":"Acayuca","lat":"20.02567","lng":"-98.8411"},{"label":"Acayucan","lat":"17.94979","lng":"-94.91386"},{"label":"Acazónica","lat":"19.21284","lng":"-96.58978"},{"label":"Achichipico","lat":"18.94861","lng":"-98.82611"},{"label":"Achotal de Moreno","lat":"17.73652","lng":"-95.13395"},{"label":"Acoapa","lat":"21.12116","lng":"-98.48701"},{"label":"Acolman de Netzahualcóyotl","lat":"19.63976","lng":"-98.90777"},{"label":"Aconchi","lat":"29.82628","lng":"-110.22492"},{"label":"Acontitla","lat":"20.68206","lng":"-97.38469"},{"label":"Acopinalco del Peñón","lat":"19.65929","lng":"-98.16299"},{"label":"Acoxcatlán","lat":"20.97343","lng":"-98.77793"},{"label":"Acoyotla","lat":"21.12551","lng":"-98.77729"},{"label":"Acteopan","lat":"18.76388","lng":"-98.71366"},{"label":"Actipan","lat":"18.93689","lng":"-97.90252"},{"label":"Actipan de Morelos","lat":"18.96003","lng":"-97.79904"},{"label":"Actopan","lat":"20.26961","lng":"-98.94377"},{"label":"Actopan","lat":"19.50427","lng":"-96.61668"},{"label":"Acuaco","lat":"19.7625","lng":"-97.56444"},{"label":"Acuamanala","lat":"19.22361","lng":"-98.20056"},{"label":"Acuexcomac","lat":"19.03742","lng":"-98.38501"},{"label":"Acuitlapan","lat":"18.60155","lng":"-99.5426"},{"label":"Acuitlapilco","lat":"19.27333","lng":"-98.23542"},{"label":"Acuitlapilco","lat":"18.90873","lng":"-99.78464"},{"label":"Acuítzio del Canje","lat":"19.49585","lng":"-101.33321"},{"label":"Acula","lat":"18.50563","lng":"-95.77427"},{"label":"Aculco de Espinoza","lat":"20.09867","lng":"-99.82757"},{"label":"Acultzingo","lat":"18.71894","lng":"-97.30367"},{"label":"Acxotla del Monte","lat":"19.25208","lng":"-98.16777"},{"label":"Acxotla del Río","lat":"19.32417","lng":"-98.2375"},{"label":"Adjuntas del Río","lat":"21.11667","lng":"-100.86806"},{"label":"Adolfo López Mateos","lat":"17.216","lng":"-93.47895"},{"label":"Adolfo López Mateos","lat":"19.80083","lng":"-100.00055"},{"label":"Adolfo López Mateos","lat":"28.46667","lng":"-107.3"},{"label":"Adolfo López Mateos (El Tamarindo)","lat":"24.89639","lng":"-107.63278"},{"label":"Adolfo Moreno","lat":"19.72472","lng":"-97.23806"},{"label":"Adolfo Ruiz Cortines","lat":"25.70275","lng":"-108.71975"},{"label":"Adolfo Ruíz Cortines","lat":"20.59585","lng":"-97.30585"},{"label":"Adolfo Ruíz Cortínes","lat":"25.75","lng":"-108.75"},{"label":"Aduana del Sásabe","lat":"31.47076","lng":"-111.54608"},{"label":"Agiabampo Uno","lat":"26.36686","lng":"-109.14572"},{"label":"Agostitlán","lat":"19.53818","lng":"-100.61849"},{"label":"Agrícola Lázaro Cárdenas","lat":"18.81361","lng":"-97.19833"},{"label":"Agrónomos Mexicanos","lat":"16.35","lng":"-93.53"},{"label":"Agua Azul","lat":"16.81432","lng":"-91.52391"},{"label":"Agua Azul","lat":"20.60271","lng":"-100.20472"},{"label":"Agua Blanca","lat":"19.22056","lng":"-99.47056"},{"label":"Agua Blanca Serranía","lat":"17.26781","lng":"-91.83564"},{"label":"Agua Buena","lat":"21.95791","lng":"-99.39416"},{"label":"Agua Caliente","lat":"20.06519","lng":"-101.73466"},{"label":"Agua Caliente","lat":"19.90011","lng":"-100.17186"},{"label":"Agua Caliente Grande (De Gastélum)","lat":"26.53762","lng":"-108.34814"},{"label":"Agua del Espino","lat":"16.59095","lng":"-96.80204"},{"label":"Agua Dulce","lat":"20.36337","lng":"-97.29315"},{"label":"Agua Dulce","lat":"18.13909","lng":"-94.14527"},{"label":"Agua Escondida","lat":"19.97893","lng":"-99.57829"},{"label":"Agua Fría","lat":"21.15304","lng":"-99.80638"},{"label":"Agua Gorda","lat":"22.10669","lng":"-101.92182"},{"label":"Agua Nueva","lat":"25.18934","lng":"-101.0884"},{"label":"Agua Prieta","lat":"31.33071","lng":"-109.54876"},{"label":"Agua Señora","lat":"22.2375","lng":"-101.04222"},{"label":"Agua Verde","lat":"22.89259","lng":"-105.97355"},{"label":"Agua Zarca","lat":"21.22003","lng":"-99.09075"},{"label":"Agua Zarca","lat":"16.62365","lng":"-98.70245"},{"label":"Agua Zarca","lat":"15.63417","lng":"-92.14472"},{"label":"Aguacatenango","lat":"16.47388","lng":"-92.40875"},{"label":"Agualeguas","lat":"26.31362","lng":"-99.53728"},{"label":"Aguas Blancas","lat":"17.03654","lng":"-100.063"},{"label":"Aguas Buenas","lat":"20.97028","lng":"-101.3725"},{"label":"Aguas Calientes","lat":"16.8425","lng":"-99.64056"},{"label":"Aguascalientes","lat":"21.88234","lng":"-102.28259"},{"label":"Aguilera","lat":"17.81083","lng":"-95.015"},{"label":"Aguililla","lat":"18.73742","lng":"-102.78934"},{"label":"Agustín de Iturbide","lat":"15.07523","lng":"-92.19858"},{"label":"Ahome","lat":"25.91985","lng":"-109.1732"},{"label":"Ahuacachahue (Ndog'yo Itún Tichi)","lat":"16.82861","lng":"-98.98556"},{"label":"Ahuacatán","lat":"19.78351","lng":"-97.2978"},{"label":"Ahuacatitlán","lat":"18.89414","lng":"-99.70867"},{"label":"Ahuacatitlán Cuarto y Quinto Cuartel","lat":"19.96222","lng":"-99.98694"},{"label":"Ahuacatlán","lat":"20.00615","lng":"-97.85916"},{"label":"Ahuacatlán","lat":"15.0403","lng":"-92.18036"},{"label":"Ahuacatlán","lat":"19.88275","lng":"-97.54495"},{"label":"Ahuacatlán","lat":"21.05405","lng":"-104.48398"},{"label":"Ahuacatlán","lat":"20.13722","lng":"-98.0075"},{"label":"Ahuacatlán de Guadalupe","lat":"21.21472","lng":"-99.54056"},{"label":"Ahuacuotzingo","lat":"17.71431","lng":"-98.93492"},{"label":"Ahuajutla","lat":"17.43043","lng":"-98.29029"},{"label":"Ahualulco de Mercado","lat":"20.70137","lng":"-103.97461"},{"label":"Ahualulco del Sonido Trece","lat":"22.40019","lng":"-101.16614"},{"label":"Ahuatempan","lat":"18.41269","lng":"-98.0185"},{"label":"Ahuateno","lat":"21.00245","lng":"-98.15055"},{"label":"Ahuatepec","lat":"18.85831","lng":"-97.91764"},{"label":"Ahuatepec de Camino","lat":"19.04087","lng":"-97.43457"},{"label":"Ahuatepec Pueblo","lat":"17.60577","lng":"-98.5897"},{"label":"Ahuatitla","lat":"21.16495","lng":"-98.66594"},{"label":"Ahuatlán","lat":"18.57276","lng":"-98.25692"},{"label":"Ahuatlán","lat":"20.41836","lng":"-102.88759"},{"label":"Ahuaxintitla","lat":"20.25325","lng":"-97.89561"},{"label":"Ahuazotepec","lat":"20.04535","lng":"-98.16332"},{"label":"Ahuehuepan","lat":"18.00625","lng":"-99.49995"},{"label":"Ahuehuetitla","lat":"18.21272","lng":"-98.21949"},{"label":"Ahuehuetitla","lat":"20.08444","lng":"-98.41667"},{"label":"Ahuehuetitlán","lat":"17.6713","lng":"-98.32024"},{"label":"Ahuehuetzingo","lat":"18.68024","lng":"-99.30834"},{"label":"Ahuehueyo Primero Centro","lat":"21.345","lng":"-98.83722"},{"label":"Ahuexotitlán","lat":"17.52849","lng":"-99.24398"},{"label":"Ahueyahualco","lat":"19.71974","lng":"-97.25984"},{"label":"Ahuihuiyuco","lat":"17.62958","lng":"-99.22738"},{"label":"Ahuirán","lat":"19.66574","lng":"-102.07347"},{"label":"Ahuisculco","lat":"20.56875","lng":"-103.70313"},{"label":"Ajacuba","lat":"20.0917","lng":"-99.12246"},{"label":"Ajalpan","lat":"18.37908","lng":"-97.25867"},{"label":"Ajijic","lat":"20.30325","lng":"-103.25476"},{"label":"Ajilhó","lat":"16.98376","lng":"-92.93804"},{"label":"Ajuchitlán","lat":"20.70713","lng":"-100.02008"},{"label":"Ajuchitlán del Progreso","lat":"18.15189","lng":"-100.48353"},{"label":"Ajuchitlancito","lat":"20.47601","lng":"-100.21583"},{"label":"Ajuno","lat":"19.51262","lng":"-101.7228"},{"label":"Akil","lat":"20.26547","lng":"-89.34787"},{"label":"Akumal","lat":"20.39693","lng":"-87.31444"},{"label":"Álamo","lat":"20.91154","lng":"-97.67554"},{"label":"Álamos","lat":"27.02326","lng":"-108.9344"},{"label":"Álamos Tepetitlán","lat":"19.19619","lng":"-97.43858"},{"label":"Alaquines","lat":"22.12973","lng":"-99.60093"},{"label":"Albarradas","lat":"17.06752","lng":"-96.20012"},{"label":"Alberto Carrera Torres","lat":"21.7724","lng":"-101.01193"},{"label":"Albia","lat":"25.66537","lng":"-103.36253"},{"label":"Alborada","lat":"19.44851","lng":"-96.87109"},{"label":"Alborada Jaltenco","lat":"19.66194","lng":"-99.06889"},{"label":"Alcaraces","lat":"19.36433","lng":"-103.57676"},{"label":"Alchichica","lat":"19.43433","lng":"-97.38992"},{"label":"Alcholoa","lat":"17.1511","lng":"-100.40837"},{"label":"Alcocer","lat":"20.86867","lng":"-100.70456"},{"label":"Alcozacán","lat":"17.50444","lng":"-99.095"},{"label":"Alcozauca de Guerrero","lat":"17.46481","lng":"-98.38428"},{"label":"Aldama","lat":"22.92157","lng":"-98.07519"},{"label":"Aldama","lat":"16.91707","lng":"-92.68839"},{"label":"Aldama","lat":"28.83669","lng":"-105.91423"},{"label":"Aldama","lat":"20.81641","lng":"-101.31467"},{"label":"Alejo González (Bilbao)","lat":"25.82194","lng":"-103.19472"},{"label":"Alfajayucan","lat":"20.40808","lng":"-99.34895"},{"label":"Alfajayucan","lat":"20.7537","lng":"-100.21773"},{"label":"Alfaro","lat":"21.14941","lng":"-101.60611"},{"label":"Alfonso G. Calderón (Poblado Siete)","lat":"26.06528","lng":"-109.01972"},{"label":"Alfonso G. Calderón Velarde","lat":"25.78556","lng":"-108.60222"},{"label":"Alfonso Garzón [Granjas Familiares]","lat":"32.54667","lng":"-116.61722"},{"label":"Alfonso Moguel","lat":"16.6675","lng":"-93.50639"},{"label":"Alfredo V. Bonfil","lat":"25.20507","lng":"-97.94507"},{"label":"Alfredo V. Bonfil","lat":"25.56203","lng":"-98.23952"},{"label":"Alfredo V. Bonfil","lat":"19.53032","lng":"-90.18214"},{"label":"Alfredo V. Bonfil","lat":"21.08776","lng":"-86.84706"},{"label":"Alfredo V. Bonfil (Chacampalco)","lat":"18.65528","lng":"-99.15417"},{"label":"Alfredo V. Bonfil (Siete Ejidos)","lat":"25.64306","lng":"-108.23333"},{"label":"Alhuaca","lat":"18.56795","lng":"-97.16594"},{"label":"Alhuey","lat":"25.37806","lng":"-108.13028"},{"label":"Alianza Real","lat":"25.85139","lng":"-100.38278"},{"label":"Alista","lat":"19.63487","lng":"-103.78945"},{"label":"Aljojuca","lat":"19.09933","lng":"-97.52973"},{"label":"Allende","lat":"18.15514","lng":"-94.39289"},{"label":"Allende","lat":"19.53879","lng":"-97.59711"},{"label":"Allende","lat":"20.72054","lng":"-102.08557"},{"label":"Allende","lat":"27.19201","lng":"-109.9073"},{"label":"Allende","lat":"28.34124","lng":"-100.85111"},{"label":"Almagres","lat":"17.8075","lng":"-94.9175"},{"label":"Almecatla","lat":"19.14286","lng":"-98.23597"},{"label":"Almolonga","lat":"18.47627","lng":"-97.96353"},{"label":"Almolonga","lat":"17.63826","lng":"-99.29502"},{"label":"Almolonga","lat":"18.60848","lng":"-96.66099"},{"label":"Almoloya","lat":"19.70435","lng":"-98.40379"},{"label":"Almoloya","lat":"20.02278","lng":"-98.31667"},{"label":"Almoloya","lat":"20.15139","lng":"-98.44861"},{"label":"Almoloya de Alquisiras","lat":"18.86564","lng":"-99.89452"},{"label":"Almoloya del Río","lat":"19.16046","lng":"-99.4874"},{"label":"Alotepec","lat":"17.09259","lng":"-95.85423"},{"label":"Alpatláhuac","lat":"19.12015","lng":"-97.09367"},{"label":"Alpoyeca","lat":"17.67041","lng":"-98.50974"},{"label":"Alpuyeca","lat":"18.74006","lng":"-99.25937"},{"label":"Alpuyecancingo de las Montañas","lat":"17.67083","lng":"-98.85194"},{"label":"Altamira","lat":"22.39215","lng":"-97.93867"},{"label":"Altamira","lat":"23.38173","lng":"-102.98674"},{"label":"Altamira de Zináparo","lat":"18.58208","lng":"-90.2561"},{"label":"Altamirano","lat":"16.88333","lng":"-92.15"},{"label":"Altamirano","lat":"16.73457","lng":"-92.03843"},{"label":"Altar","lat":"30.71538","lng":"-111.83703"},{"label":"Altata","lat":"24.63403","lng":"-107.93101"},{"label":"Altepexi","lat":"18.37035","lng":"-97.29966"},{"label":"Alto Lucero","lat":"19.62442","lng":"-96.73409"},{"label":"Alto Lucero","lat":"20.95361","lng":"-97.44194"},{"label":"Altotonga","lat":"19.76613","lng":"-97.24514"},{"label":"Altus Bosques","lat":"20.56806","lng":"-103.3725"},{"label":"Altzayanca","lat":"19.43121","lng":"-97.79555"},{"label":"Alvarado","lat":"18.77143","lng":"-95.76181"},{"label":"Álvaro Obregón","lat":"19.35867","lng":"-99.20329"},{"label":"Álvaro Obregón","lat":"14.92231","lng":"-92.37813"},{"label":"Álvaro Obregón","lat":"16.29811","lng":"-95.08392"},{"label":"Álvaro Obregón","lat":"20.70662","lng":"-99.37323"},{"label":"Álvaro Obregón","lat":"16.09486","lng":"-91.84287"},{"label":"Álvaro Obregón","lat":"19.02781","lng":"-97.90219"},{"label":"Álvaro Obregón","lat":"18.299","lng":"-88.65145"},{"label":"Álvaro Obregón","lat":"19.82096","lng":"-101.04008"},{"label":"Álvaro Obregón","lat":"25.51417","lng":"-103.505"},{"label":"Álvaro Obregón","lat":"16.84361","lng":"-93.19278"},{"label":"Álvaro Obregón (Santa Cruz)","lat":"18.39422","lng":"-92.79982"},{"label":"Álvaro Obregón 2da. Sección (El Lechugal)","lat":"18.39287","lng":"-92.79119"},{"label":"Amacueca","lat":"20.01071","lng":"-103.59963"},{"label":"Amacuitlapilco","lat":"18.69611","lng":"-98.81167"},{"label":"Amacuzac","lat":"18.59861","lng":"-99.36944"},{"label":"Amado Gómez","lat":"18.14684","lng":"-93.35618"},{"label":"Amado Nervo","lat":"17.23107","lng":"-92.24581"},{"label":"Amanalco de Becerra","lat":"19.31667","lng":"-100.01667"},{"label":"Amanalco de Becerra","lat":"19.25374","lng":"-100.0198"},{"label":"Amapa","lat":"21.78359","lng":"-105.25482"},{"label":"Amatán","lat":"17.37429","lng":"-92.81893"},{"label":"Amatenango de la Frontera","lat":"15.43438","lng":"-92.1157"},{"label":"Amatenango del Valle","lat":"16.52722","lng":"-92.43472"},{"label":"Amatepec","lat":"18.68222","lng":"-100.18583"},{"label":"Amatillo","lat":"16.82028","lng":"-99.66611"},{"label":"Amatitán","lat":"20.83388","lng":"-103.73076"},{"label":"Amatitlán","lat":"18.43158","lng":"-95.73319"},{"label":"Amatitlán de Azueta","lat":"18.17631","lng":"-98.0764"},{"label":"Amatlán","lat":"21.33519","lng":"-97.75704"},{"label":"Amatlán de Cañas","lat":"20.80699","lng":"-104.40408"},{"label":"Amatlán de los Reyes","lat":"18.84658","lng":"-96.91595"},{"label":"Amatlán de Quetzalcoatl","lat":"18.97537","lng":"-99.03742"},{"label":"Amaxac de Guerrero","lat":"19.34661","lng":"-98.17057"},{"label":"Amayuca","lat":"18.72408","lng":"-98.79812"},{"label":"Amazcala","lat":"20.70339","lng":"-100.26511"},{"label":"Amealco","lat":"20.18758","lng":"-100.14485"},{"label":"Ameca","lat":"20.54629","lng":"-104.04508"},{"label":"Amecameca","lat":"19.12384","lng":"-98.76649"},{"label":"Ameche","lat":"20.55261","lng":"-100.58367"},{"label":"Ameluca","lat":"20.56344","lng":"-97.82571"},{"label":"América Libre","lat":"16.61462","lng":"-92.99185"},{"label":"Amilcingo","lat":"18.74274","lng":"-98.77089"},{"label":"Amixtlán","lat":"20.04778","lng":"-97.79918"},{"label":"Amozoc de Mota","lat":"19.04611","lng":"-98.045"},{"label":"Ampliación Colonia Lázaro Cárdenas","lat":"28.38333","lng":"-105.61667"},{"label":"Ampliación la Hincada","lat":"22.21528","lng":"-99.23611"},{"label":"Ampliación San Mateo","lat":"19.61639","lng":"-99.14722"},{"label":"Ampliación Tezoyuca","lat":"19.58057","lng":"-98.92053"},{"label":"Amuco de la Reforma","lat":"18.29361","lng":"-100.63972"},{"label":"Anacleto Canabal 2da. Sección","lat":"17.97556","lng":"-93.02417"},{"label":"Anacleto Canabal 3ra. Sección","lat":"18.0183","lng":"-92.98992"},{"label":"Anahuac","lat":"22.20275","lng":"-97.85506"},{"label":"Anáhuac","lat":"25.77638","lng":"-97.77413"},{"label":"Anáhuac","lat":"27.24457","lng":"-100.13229"},{"label":"Anáhuac","lat":"28.48396","lng":"-106.7472"},{"label":"Analco de Ponciano Arriaga (Santa Cruz Analco)","lat":"19.26444","lng":"-98.50028"},{"label":"Andrés Quintana Roo","lat":"17.70771","lng":"-93.01077"},{"label":"Anenecuilco","lat":"18.77738","lng":"-98.98907"},{"label":"Angahuán","lat":"19.5479","lng":"-102.22563"},{"label":"Angamacutiro de la Unión","lat":"20.14998","lng":"-101.71113"},{"label":"Ángel Albino Corzo (Guadalupe)","lat":"17.12639","lng":"-93.275"},{"label":"Ángel R. Cabada","lat":"18.59601","lng":"-95.4458"},{"label":"Angostura","lat":"25.36586","lng":"-108.16107"},{"label":"Animas Trujano","lat":"16.99086","lng":"-96.71319"},{"label":"Ansihuacuaro","lat":"20.19984","lng":"-101.8067"},{"label":"Antiguo Morelos","lat":"22.5495","lng":"-99.08123"},{"label":"Antón Lizardo","lat":"19.05962","lng":"-95.99272"},{"label":"Antonio Amaro","lat":"24.27684","lng":"-104.01873"},{"label":"Antonio Escobedo","lat":"20.8","lng":"-104.01667"},{"label":"Antonio J Bermúdez","lat":"22.15046","lng":"-98.15873"},{"label":"Antonio Rosales","lat":"28.07889","lng":"-110.61349"},{"label":"Antonio Rosales","lat":"27.35111","lng":"-109.85306"},{"label":"Antúnez","lat":"19.01451","lng":"-102.20432"},{"label":"Antúnez (Morelos)","lat":"19.01278","lng":"-102.20389"},{"label":"Apalani","lat":"16.85361","lng":"-99.58944"},{"label":"Apan","lat":"19.71128","lng":"-98.45086"},{"label":"Apango","lat":"17.74121","lng":"-99.32909"},{"label":"Apango de Zaragoza","lat":"19.06833","lng":"-97.94028"},{"label":"Apantéopan","lat":"19.3582","lng":"-97.19104"},{"label":"Apantla","lat":"17.03972","lng":"-99.16944"},{"label":"Apapantilla","lat":"20.40356","lng":"-97.84665"},{"label":"Apapátaro","lat":"20.46806","lng":"-100.36861"},{"label":"Apas","lat":"16.71066","lng":"-92.79335"},{"label":"Apaseo el Alto","lat":"20.45798","lng":"-100.62081"},{"label":"Apaseo el Grande","lat":"20.54495","lng":"-100.68462"},{"label":"Apatauyan","lat":"19.79911","lng":"-97.4444"},{"label":"Apatzingán","lat":"17.60803","lng":"-91.06687"},{"label":"Apatzingán","lat":"19.08864","lng":"-102.35704"},{"label":"Apaxco de Ocampo","lat":"19.97512","lng":"-99.17112"},{"label":"Apaxtla de Castrejón","lat":"18.13127","lng":"-99.93255"},{"label":"Apazapan","lat":"19.32072","lng":"-96.71874"},{"label":"Apeo","lat":"19.88722","lng":"-100.34194"},{"label":"Apetatitlán Antonio Carbajal","lat":"19.33622","lng":"-98.17912"},{"label":"Apipilulco","lat":"18.19104","lng":"-99.67205"},{"label":"Apizaco","lat":"19.41333","lng":"-98.14358"},{"label":"Apo","lat":"19.42722","lng":"-102.41126"},{"label":"Apoala","lat":"17.64845","lng":"-97.13608"},{"label":"Apoderado","lat":"22.90867","lng":"-105.92458"},{"label":"Aporo","lat":"19.67021","lng":"-100.41068"},{"label":"Apozol","lat":"21.46952","lng":"-103.09076"},{"label":"Apulco","lat":"21.38824","lng":"-102.68219"},{"label":"Aputzio de Juárez","lat":"19.34183","lng":"-100.34689"},{"label":"Aquila","lat":"18.79565","lng":"-97.30845"},{"label":"Aquila","lat":"18.5997","lng":"-103.50454"},{"label":"Aquiles Córdova Morán","lat":"19.70685","lng":"-100.53615"},{"label":"Aquiles Serdán","lat":"17.78333","lng":"-92.28333"},{"label":"Aquiles Serdán","lat":"18.4135","lng":"-93.0134"},{"label":"Aquiles Serdán","lat":"14.9398","lng":"-92.51444"},{"label":"Aquiles Serdán","lat":"21.87206","lng":"-98.14794"},{"label":"Aquiles Serdán","lat":"21.38198","lng":"-104.88891"},{"label":"Aquiles Serdán","lat":"20.00357","lng":"-102.21609"},{"label":"Aquiles Serdán (San Fernando)","lat":"17.80556","lng":"-92.48972"},{"label":"Aquiles Serdán 1ra. Sección","lat":"17.82474","lng":"-92.73977"},{"label":"Aquismón","lat":"21.62159","lng":"-99.01984"},{"label":"Aquixtla","lat":"19.79582","lng":"-97.93553"},{"label":"Aramberri","lat":"24.09984","lng":"-99.81729"},{"label":"Arandas","lat":"20.72468","lng":"-101.37296"},{"label":"Arandas","lat":"20.70519","lng":"-102.34635"},{"label":"Arantepacua","lat":"19.5958","lng":"-101.9686"},{"label":"Aranza","lat":"19.66418","lng":"-102.02365"},{"label":"Araró","lat":"19.91136","lng":"-100.8246"},{"label":"Aratichanguío","lat":"18.47877","lng":"-101.36211"},{"label":"Arbolada los Sauces","lat":"19.81583","lng":"-99.04417"},{"label":"Arboledas","lat":"19.20722","lng":"-96.21444"},{"label":"Arboledas Paso Blanco [Fraccionamiento]","lat":"21.96361","lng":"-102.30194"},{"label":"Arbolillo","lat":"18.81631","lng":"-95.83601"},{"label":"Arcelia","lat":"18.31847","lng":"-100.28148"},{"label":"Arcelia de Rodríguez","lat":"16.73668","lng":"-98.64486"},{"label":"Arcila","lat":"20.41037","lng":"-100.10993"},{"label":"Arcinas","lat":"25.77556","lng":"-103.40913"},{"label":"Arellano","lat":"21.80106","lng":"-102.27384"},{"label":"Arena 1ra. Sección","lat":"18.20139","lng":"-93.36694"},{"label":"Arena 6ta. Sección (La Bolsa)","lat":"18.16218","lng":"-93.39539"},{"label":"Arena de Hidalgo","lat":"17.45827","lng":"-91.58847"},{"label":"Arenal","lat":"19.38111","lng":"-98.94278"},{"label":"Arenal de Álvarez (Arenal de Paco)","lat":"17.12611","lng":"-100.455"},{"label":"Arenal Santa Ana","lat":"17.78951","lng":"-95.7697"},{"label":"Arimatea","lat":"17.34139","lng":"-91.87639"},{"label":"Ario de Rayón","lat":"20.02651","lng":"-102.34814"},{"label":"Ario de Rosales","lat":"19.209","lng":"-101.70743"},{"label":"Arivechi","lat":"28.92765","lng":"-109.18681"},{"label":"Arizpe","lat":"30.3369","lng":"-110.16649"},{"label":"Armadillo de los Infante","lat":"22.2449","lng":"-100.6558"},{"label":"Arriaga","lat":"16.23589","lng":"-93.89995"},{"label":"Arroyo Chical (Nuevo Arroyo Chicali)","lat":"18.21611","lng":"-96.33667"},{"label":"Arroyo Choápam","lat":"17.97028","lng":"-96.15722"},{"label":"Arroyo de Banco","lat":"17.80312","lng":"-96.34794"},{"label":"Arroyo de Enmedio","lat":"18.4975","lng":"-96.54722"},{"label":"Arroyo del Maíz Uno","lat":"20.53667","lng":"-97.41528"},{"label":"Arroyo del Potrero","lat":"20.14554","lng":"-97.0652"},{"label":"Arroyo Grande","lat":"17.19122","lng":"-92.87207"},{"label":"Arroyo Granizo","lat":"17.03716","lng":"-91.42563"},{"label":"Arroyo Hondo","lat":"20.02317","lng":"-96.87372"},{"label":"Arroyo Hondo Abejonal","lat":"17.97739","lng":"-93.41039"},{"label":"Arroyo Limón","lat":"17.90008","lng":"-95.96175"},{"label":"Arroyo Palenque","lat":"17.39167","lng":"-92.10444"},{"label":"Arroyo San Isidro","lat":"18.48667","lng":"-95.41333"},{"label":"Arroyo Seco","lat":"21.54777","lng":"-99.68832"},{"label":"Arroyo Vista Hermosa","lat":"19.33082","lng":"-99.53694"},{"label":"Arroyo Zapotillo","lat":"18.07639","lng":"-96.54417"},{"label":"Arroyos","lat":"22.05455","lng":"-100.9052"},{"label":"Arteaga","lat":"25.44528","lng":"-100.84667"},{"label":"Arteaga","lat":"18.35779","lng":"-102.29122"},{"label":"Artemio Treviño","lat":"25.83528","lng":"-100.14278"},{"label":"Artículo Primero Constitucional","lat":"18.97412","lng":"-98.15848"},{"label":"Arturo Martínez Adame","lat":"25.83157","lng":"-103.38291"},{"label":"Arvenza Uno","lat":"16.77972","lng":"-92.72028"},{"label":"Ascención","lat":"31.1","lng":"-107.98333"},{"label":"Ascensión","lat":"31.0926","lng":"-107.99687"},{"label":"Asientos","lat":"22.23836","lng":"-102.0894"},{"label":"Astacinga","lat":"18.569","lng":"-97.10376"},{"label":"Astapa","lat":"17.78165","lng":"-92.84938"},{"label":"Asunción Ixtaltepec","lat":"16.50315","lng":"-95.06121"},{"label":"Asunción Nochixtlán","lat":"17.45916","lng":"-97.22605"},{"label":"Asunción Ocotlán","lat":"16.76195","lng":"-96.72137"},{"label":"Asunción Tlacolulita","lat":"16.29942","lng":"-95.72668"},{"label":"Atacco","lat":"19.92662","lng":"-103.74249"},{"label":"Atacheo de Regalado","lat":"20.05874","lng":"-102.18703"},{"label":"Atalpan","lat":"19.84374","lng":"-97.56008"},{"label":"Atapán","lat":"19.65057","lng":"-102.42463"},{"label":"Atapaneo","lat":"19.73892","lng":"-101.11576"},{"label":"Atarasquillo","lat":"19.32831","lng":"-99.46899"},{"label":"Atarjea","lat":"21.26777","lng":"-99.71914"},{"label":"Atasta","lat":"18.61954","lng":"-92.10326"},{"label":"Atecax","lat":"19.6987","lng":"-97.36698"},{"label":"Atecucario de la Constitución (Atecuario)","lat":"20.06444","lng":"-102.23861"},{"label":"Atemajac de Brizuela","lat":"20.13735","lng":"-103.72588"},{"label":"Atempan","lat":"19.83945","lng":"-97.45855"},{"label":"Atenango del Río","lat":"18.10526","lng":"-99.10777"},{"label":"Atencingo","lat":"18.51347","lng":"-98.60542"},{"label":"Atengo","lat":"20.17526","lng":"-99.32714"},{"label":"Atengo","lat":"20.27412","lng":"-104.23715"},{"label":"Atenguillo","lat":"20.41553","lng":"-104.49387"},{"label":"Atenguillo","lat":"19.56361","lng":"-98.87639"},{"label":"Atenxoxola","lat":"17.48819","lng":"-99.14285"},{"label":"Atequiza","lat":"20.39006","lng":"-103.14065"},{"label":"Atexcatzingo","lat":"19.46882","lng":"-98.14716"},{"label":"Aticama","lat":"21.48387","lng":"-105.19787"},{"label":"Atil","lat":"30.84361","lng":"-111.58361"},{"label":"Atitalaquia","lat":"20.05964","lng":"-99.22163"},{"label":"Atizapán","lat":"19.25","lng":"-99.55"},{"label":"Atla","lat":"20.27527","lng":"-98.12469"},{"label":"Atlacahualoya","lat":"18.54057","lng":"-98.72982"},{"label":"Atlacholoaya","lat":"18.74238","lng":"-99.22656"},{"label":"Atlacomulco de Fabela","lat":"19.79919","lng":"-99.875"},{"label":"Atlahuilco","lat":"18.69717","lng":"-97.0916"},{"label":"Atlamajac","lat":"17.55528","lng":"-98.54722"},{"label":"Atlamajalcingo del Río","lat":"17.52667","lng":"-98.65556"},{"label":"Atlangatepec","lat":"19.5322","lng":"-98.20888"},{"label":"Atlapexco","lat":"21.0198","lng":"-98.34742"},{"label":"Atlatlahucan","lat":"18.93413","lng":"-98.8982"},{"label":"Atlatongo","lat":"19.66776","lng":"-98.90402"},{"label":"Atlautla","lat":"19.02188","lng":"-98.77859"},{"label":"Atlequizayan","lat":"20.01214","lng":"-97.62423"},{"label":"Atliaca","lat":"17.65168","lng":"-99.37471"},{"label":"Atlixco","lat":"18.90815","lng":"-98.43613"},{"label":"Atlixtac","lat":"17.56312","lng":"-98.93415"},{"label":"Atlzayanca","lat":"19.43111","lng":"-97.79556"},{"label":"Atolinga","lat":"21.80659","lng":"-103.46496"},{"label":"Atoluca","lat":"19.855","lng":"-97.35361"},{"label":"Atonalisco","lat":"21.66551","lng":"-104.83949"},{"label":"Atongo","lat":"20.77288","lng":"-100.23953"},{"label":"Atotonilco","lat":"18.64947","lng":"-98.83117"},{"label":"Atotonilco","lat":"19.94111","lng":"-100.22306"},{"label":"Atotonilco de Tula","lat":"20.0077","lng":"-99.21804"},{"label":"Atotonilco el Alto","lat":"20.55079","lng":"-102.50942"},{"label":"Atotonilco el Bajo","lat":"20.35151","lng":"-103.67455"},{"label":"Atotonilco el Grande","lat":"20.28632","lng":"-98.6685"},{"label":"Atotonilquillo","lat":"20.39287","lng":"-103.12356"},{"label":"Atoyac","lat":"18.91205","lng":"-96.77865"},{"label":"Atoyac","lat":"20.00968","lng":"-103.51666"},{"label":"Atoyac de Álvarez","lat":"17.20667","lng":"-100.43306"},{"label":"Atoyatempan","lat":"18.81925","lng":"-97.9139"},{"label":"Atzacan","lat":"18.90724","lng":"-97.08307"},{"label":"Atzacoaloya","lat":"17.54659","lng":"-99.13757"},{"label":"Atzala","lat":"18.54639","lng":"-98.55306"},{"label":"Atzalan","lat":"19.78864","lng":"-97.24195"},{"label":"Atzalán","lat":"19.82472","lng":"-97.44417"},{"label":"Atzingo","lat":"19.1727","lng":"-98.77873"},{"label":"Atzingo (La Cumbre)","lat":"19.97972","lng":"-97.96861"},{"label":"Atzitzintla","lat":"18.89915","lng":"-97.3244"},{"label":"Augusto Gómez Villanueva","lat":"19.02154","lng":"-104.00156"},{"label":"Aurelio Manrique","lat":"22.2875","lng":"-98.65083"},{"label":"Aurora Ermita","lat":"17.23583","lng":"-92.87389"},{"label":"Aurora Esquipulas","lat":"17.11704","lng":"-92.47626"},{"label":"Aután","lat":"21.68973","lng":"-105.3075"},{"label":"Autlán de Navarro","lat":"19.76822","lng":"-104.36664"},{"label":"Axapusco","lat":"19.72456","lng":"-98.75863"},{"label":"Axaxacualco","lat":"17.80387","lng":"-99.46175"},{"label":"Axixintla","lat":"18.60222","lng":"-99.51806"},{"label":"Axochiapan","lat":"18.50246","lng":"-98.75358"},{"label":"Axochío","lat":"18.37175","lng":"-95.29985"},{"label":"Axotlán","lat":"19.69417","lng":"-99.23944"},{"label":"Axtla de Terrazas","lat":"21.43923","lng":"-98.87508"},{"label":"Axutla","lat":"18.18938","lng":"-98.38935"},{"label":"Axuxco","lat":"18.23045","lng":"-97.20739"},{"label":"Ayahualulco","lat":"19.10416","lng":"-97.13563"},{"label":"Ayahualulco","lat":"19.35113","lng":"-97.14874"},{"label":"Ayahualulco","lat":"17.50066","lng":"-99.18264"},{"label":"Ayapa","lat":"18.2241","lng":"-93.11158"},{"label":"Ayapango","lat":"19.12692","lng":"-98.79988"},{"label":"Ayometitla","lat":"19.20722","lng":"-98.19306"},{"label":"Ayoquezco de Aldama","lat":"16.6837","lng":"-96.84287"},{"label":"Ayotitlán","lat":"20.22048","lng":"-103.94397"},{"label":"Ayotla","lat":"18.67004","lng":"-98.37266"},{"label":"Ayotlán","lat":"20.52907","lng":"-102.3262"},{"label":"Ayotoxco de Guerrero","lat":"20.09589","lng":"-97.40961"},{"label":"Ayotuxtla","lat":"20.64885","lng":"-98.30264"},{"label":"Ayotzinapa","lat":"17.55628","lng":"-98.76346"},{"label":"Ayotzintepec","lat":"17.67261","lng":"-96.12855"},{"label":"Ayutla","lat":"17.02756","lng":"-96.07632"},{"label":"Ayutla","lat":"18.54503","lng":"-98.50537"},{"label":"Ayutla","lat":"20.12907","lng":"-104.34355"},{"label":"Ayutla de los Libres","lat":"16.96376","lng":"-99.09616"},{"label":"Azcapotzalco","lat":"19.48698","lng":"-99.18594"},{"label":"Azoyú","lat":"16.73314","lng":"-98.60166"},{"label":"Azteca","lat":"16.21775","lng":"-93.94557"},{"label":"Aztlán","lat":"16.76919","lng":"-92.92316"},{"label":"Azumbilla","lat":"18.64552","lng":"-97.39815"},{"label":"Baborigame","lat":"26.42962","lng":"-107.26857"},{"label":"Baburia","lat":"25.84289","lng":"-108.20276"},{"label":"Baca","lat":"21.10874","lng":"-89.39866"},{"label":"Bacabachi","lat":"26.89471","lng":"-109.3932"},{"label":"Bacabchén","lat":"20.28903","lng":"-90.05602"},{"label":"Bacadéhuachi","lat":"29.80872","lng":"-109.14054"},{"label":"Bacalar","lat":"18.68109","lng":"-88.39333"},{"label":"Bacame Nuevo","lat":"27.15899","lng":"-109.59286"},{"label":"Bacanora","lat":"28.98152","lng":"-109.40012"},{"label":"Bacerac","lat":"30.35565","lng":"-108.93147"},{"label":"Bachajón","lat":"17.03963","lng":"-92.18986"},{"label":"Bachigualatito","lat":"24.71344","lng":"-107.46938"},{"label":"Bachíniva","lat":"28.76801","lng":"-107.25559"},{"label":"Bachoco","lat":"25.69687","lng":"-108.81437"},{"label":"Bachomobampo Número Dos","lat":"25.73888","lng":"-109.14776"},{"label":"Bacoachi","lat":"30.63168","lng":"-109.96867"},{"label":"Bacobampo","lat":"26.98239","lng":"-109.6535"},{"label":"Bacorehuis","lat":"26.31749","lng":"-109.0851"},{"label":"Bacubirito","lat":"25.80944","lng":"-107.915"},{"label":"Bácum","lat":"27.55142","lng":"-110.0833"},{"label":"Badiraguato","lat":"25.36525","lng":"-107.55083"},{"label":"Bagojo Colectivo","lat":"25.87417","lng":"-109.11778"},{"label":"Bahía Asunción","lat":"27.14231","lng":"-114.29582"},{"label":"Bahía de Kino","lat":"28.82278","lng":"-111.94083"},{"label":"Bahía de Lobos","lat":"27.35167","lng":"-110.45472"},{"label":"Bahía Tortugas","lat":"27.69132","lng":"-114.8948"},{"label":"Bahuichivo","lat":"27.4095","lng":"-108.0674"},{"label":"Bajío de Bonillas","lat":"20.94944","lng":"-101.49528"},{"label":"Bajío de San José","lat":"21.67525","lng":"-102.11606"},{"label":"Bajío de San Nicolás","lat":"22.56499","lng":"-102.00784"},{"label":"Bajos de Chila","lat":"15.92343","lng":"-97.12113"},{"label":"Bajos del Ejido","lat":"16.96086","lng":"-99.97169"},{"label":"Bajucu","lat":"16.4752","lng":"-92.06471"},{"label":"Balancán","lat":"17.80903","lng":"-91.53682"},{"label":"Balleza","lat":"26.95154","lng":"-106.34921"},{"label":"Bamoa","lat":"25.70523","lng":"-108.34614"},{"label":"Banámichi","lat":"30.0074","lng":"-110.21585"},{"label":"Banco Nacional","lat":"25.87139","lng":"-103.35667"},{"label":"Banderas","lat":"20.99083","lng":"-97.39361"},{"label":"Banderas (Guatacalca 2da. Sección)","lat":"18.15167","lng":"-92.89881"},{"label":"Banderas del Águila","lat":"23.92596","lng":"-105.3395"},{"label":"Banderilla","lat":"19.58893","lng":"-96.93727"},{"label":"Bangandhó","lat":"20.48277","lng":"-99.14901"},{"label":"Banus Vallarta (Verde Vallarta)","lat":"20.71611","lng":"-105.22306"},{"label":"Bara de Chachalacas","lat":"19.40643","lng":"-96.34159"},{"label":"Bariometo","lat":"24.76695","lng":"-107.66254"},{"label":"Barra de Cazones","lat":"20.72307","lng":"-97.2032"},{"label":"Barra de Navidad","lat":"19.20715","lng":"-104.68228"},{"label":"Barra de Tecoanapa","lat":"16.50864","lng":"-98.73216"},{"label":"Barranca de Otates (Barranca de Otatán)","lat":"20.26806","lng":"-103.66472"},{"label":"Barrancas","lat":"18.06918","lng":"-94.58691"},{"label":"Barrancas y Amate 3ra. Sección","lat":"17.971","lng":"-92.76173"},{"label":"Barretal","lat":"24.08337","lng":"-99.12526"},{"label":"Barretos","lat":"20.93933","lng":"-101.64282"},{"label":"Barrio Aztlán","lat":"20.46562","lng":"-98.08553"},{"label":"Barrio Bordo Nuevo","lat":"19.37917","lng":"-99.67333"},{"label":"Barrio Chiquichuca","lat":"19.32139","lng":"-100.21278"},{"label":"Barrio Cuarto (La Loma)","lat":"19.76861","lng":"-99.67694"},{"label":"Barrio de Arriba de San Juan Xoconusco","lat":"19.3204","lng":"-100.2702"},{"label":"Barrio de Boyecha","lat":"19.70778","lng":"-99.68444"},{"label":"Barrio de Canales","lat":"19.37333","lng":"-99.37556"},{"label":"Barrio de Centro del Cerrillo","lat":"19.53694","lng":"-99.95417"},{"label":"Barrio de Ensido","lat":"19.49389","lng":"-99.37444"},{"label":"Barrio de España","lat":"19.86139","lng":"-99.08167"},{"label":"Barrio de Guadalupe","lat":"19.23054","lng":"-98.9309"},{"label":"Barrio de Guadalupe del Mezquitillo","lat":"20.94417","lng":"-101.80083"},{"label":"Barrio de Jesús Fracción Primera","lat":"19.36778","lng":"-99.68694"},{"label":"Barrio de la Barranca","lat":"19.43583","lng":"-99.55833"},{"label":"Barrio de México","lat":"19.2825","lng":"-99.82833"},{"label":"Barrio de Nuevo León","lat":"19.08861","lng":"-98.29"},{"label":"Barrio de Puentecillas","lat":"19.53558","lng":"-99.98463"},{"label":"Barrio de San Isidro","lat":"19.52139","lng":"-99.95861"},{"label":"Barrio de San Juan","lat":"19.4142","lng":"-99.53717"},{"label":"Barrio de San Miguel","lat":"19.64333","lng":"-97.12389"},{"label":"Barrio de San Miguel","lat":"18.93139","lng":"-97.125"},{"label":"Barrio de San Miguel","lat":"19.51232","lng":"-99.95467"},{"label":"Barrio de San Pedro la Cabecera","lat":"19.56528","lng":"-99.75"},{"label":"Barrio de San Ramón","lat":"19.37361","lng":"-99.33111"},{"label":"Barrio del Cajón","lat":"19.39139","lng":"-99.65806"},{"label":"Barrio el Boncho","lat":"19.42611","lng":"-100.10639"},{"label":"Barrio el Vivero","lat":"19.45306","lng":"-100.03528"},{"label":"Barrio la Joya","lat":"19.42","lng":"-100.09972"},{"label":"Barrio la Tenería","lat":"19.69361","lng":"-99.79194"},{"label":"Barrio los Tules","lat":"19.42917","lng":"-100.07472"},{"label":"Barrio Nuevo","lat":"17.72075","lng":"-101.63657"},{"label":"Barrio Nuevo de los Muertos","lat":"16.89278","lng":"-99.54389"},{"label":"Barrio San Diego","lat":"17.27917","lng":"-97.67417"},{"label":"Barrio San Joaquín el Junco","lat":"19.56417","lng":"-99.77333"},{"label":"Barrio San Miguel Dorami","lat":"19.44622","lng":"-99.34296"},{"label":"Barrio Santa Cruz","lat":"19.35139","lng":"-99.66278"},{"label":"Barrio Tepetitlán Emilio Portes Gil","lat":"19.65306","lng":"-99.88667"},{"label":"Barrio Tlatenco","lat":"19.73917","lng":"-99.19167"},{"label":"Barrón","lat":"23.12322","lng":"-106.2765"},{"label":"Barrón","lat":"20.67667","lng":"-101.08423"},{"label":"Basaseachic","lat":"28.20626","lng":"-108.2127"},{"label":"Basconcobe","lat":"26.95491","lng":"-109.6686"},{"label":"Basúchil","lat":"28.52479","lng":"-107.40172"},{"label":"Batopilas","lat":"27.02846","lng":"-107.74125"},{"label":"Bautista Chico","lat":"16.79972","lng":"-92.71194"},{"label":"Baviácora","lat":"29.71349","lng":"-110.16307"},{"label":"Bavispe","lat":"30.47931","lng":"-108.93982"},{"label":"Bécal","lat":"20.44172","lng":"-90.02738"},{"label":"Becanchén","lat":"19.87467","lng":"-89.21732"},{"label":"Bejucal de Ocampo","lat":"15.45535","lng":"-92.15835"},{"label":"Bejucos","lat":"18.77802","lng":"-100.42778"},{"label":"Belem","lat":"19.63334","lng":"-98.79664"},{"label":"Belén","lat":"17.78907","lng":"-92.61137"},{"label":"Belén Atzitzimititlán","lat":"19.34694","lng":"-98.19"},{"label":"Belén del Refugio","lat":"21.53023","lng":"-102.43515"},{"label":"Belisario Domínguez","lat":"16.89186","lng":"-92.66053"},{"label":"Belisario Domínguez","lat":"19.8714","lng":"-100.97184"},{"label":"Belisario Domínguez","lat":"15.29944","lng":"-92.38056"},{"label":"Belisario Domínguez","lat":"17.40611","lng":"-91.98361"},{"label":"Bella Esperanza","lat":"19.43329","lng":"-96.86648"},{"label":"Bella Vista","lat":"15.58359","lng":"-92.24683"},{"label":"Bella Vista del Río","lat":"20.69","lng":"-99.57139"},{"label":"Bellas Fuentes","lat":"19.82132","lng":"-101.6795"},{"label":"Bellavista","lat":"24.81373","lng":"-107.46188"},{"label":"Bellavista","lat":"21.56236","lng":"-104.88267"},{"label":"Bellavista","lat":"20.43408","lng":"-103.63742"},{"label":"Bellavista de Victoria (San José Bellavista)","lat":"18.87639","lng":"-97.54389"},{"label":"Benemérito de las Américas","lat":"16.51599","lng":"-90.65371"},{"label":"Benemérito Juárez","lat":"18.11944","lng":"-96.00194"},{"label":"Benito García (El Zorrillo)","lat":"31.67111","lng":"-116.51139"},{"label":"Benito González","lat":"17.86993","lng":"-92.70834"},{"label":"Benito Juarez","lat":"19.3984","lng":"-99.15766"},{"label":"Benito Juárez","lat":"20.88635","lng":"-98.20594"},{"label":"Benito Juárez","lat":"19.81654","lng":"-97.79108"},{"label":"Benito Juárez","lat":"19.37391","lng":"-97.909"},{"label":"Benito Juárez","lat":"16.42751","lng":"-93.32188"},{"label":"Benito Juárez","lat":"15.88178","lng":"-96.32405"},{"label":"Benito Juárez","lat":"18.42573","lng":"-92.80285"},{"label":"Benito Juárez","lat":"20.16047","lng":"-98.82606"},{"label":"Benito Juárez","lat":"19.5859","lng":"-98.42827"},{"label":"Benito Juárez","lat":"17.14081","lng":"-93.24979"},{"label":"Benito Juárez","lat":"16.88349","lng":"-93.18912"},{"label":"Benito Juárez","lat":"16.0429","lng":"-92.81865"},{"label":"Benito Juárez","lat":"22.20067","lng":"-97.84085"},{"label":"Benito Juárez","lat":"19.43765","lng":"-99.85384"},{"label":"Benito Juárez","lat":"29.16642","lng":"-106.95772"},{"label":"Benito Juárez","lat":"32.56852","lng":"-114.99422"},{"label":"Benito Juárez","lat":"25.77373","lng":"-109.03311"},{"label":"Benito Juárez","lat":"29.74624","lng":"-107.93966"},{"label":"Benito Juárez","lat":"19.23333","lng":"-100.46667"},{"label":"Benito Juárez","lat":"19.3727","lng":"-99.1564"},{"label":"Benito Juárez","lat":"15.055","lng":"-92.19111"},{"label":"Benito Juárez","lat":"19.31351","lng":"-100.43358"},{"label":"Benito Juárez","lat":"19.0091","lng":"-97.85718"},{"label":"Benito Juárez (La Playita)","lat":"17.93231","lng":"-93.36472"},{"label":"Benito Juárez (Vinatería)","lat":"25.97376","lng":"-108.87315"},{"label":"Benito Juárez II (San Martín)","lat":"18.14056","lng":"-96.46139"},{"label":"Benito Juárez Uno","lat":"18.27695","lng":"-91.09914"},{"label":"Benjamín Hill","lat":"30.16904","lng":"-111.11403"},{"label":"Beristain","lat":"20.09426","lng":"-98.1329"},{"label":"Bermejillo","lat":"25.88682","lng":"-103.62069"},{"label":"Bernal","lat":"20.7403","lng":"-99.94125"},{"label":"Berriozábal","lat":"16.79853","lng":"-93.27163"},{"label":"Betania","lat":"20.58199","lng":"-102.37914"},{"label":"Betania","lat":"16.60639","lng":"-92.52194"},{"label":"Betania","lat":"18.28003","lng":"-93.32081"},{"label":"Bethania","lat":"17.91939","lng":"-96.00459"},{"label":"Betulia","lat":"21.75935","lng":"-102.0194"},{"label":"Bienvenido","lat":"20.12235","lng":"-97.74434"},{"label":"Bimbaletes Aguascalientes (El Álamo)","lat":"22.23444","lng":"-102.01917"},{"label":"Blanca Espuma","lat":"19.58117","lng":"-96.68819"},{"label":"Blasillo 1ra. Sección (Nicolás Bravo)","lat":"18.07861","lng":"-93.91833"},{"label":"Bledos","lat":"21.84148","lng":"-101.11651"},{"label":"Bobashi de Guadalupe","lat":"19.87583","lng":"-99.91167"},{"label":"Boca del Monte","lat":"19.15451","lng":"-96.8327"},{"label":"Boca del Monte","lat":"17.61462","lng":"-95.7312"},{"label":"Boca del Rio","lat":"19.10464","lng":"-96.10405"},{"label":"Bocaneo (San Pedro)","lat":"19.83861","lng":"-100.81722"},{"label":"Bocas","lat":"22.51817","lng":"-101.02186"},{"label":"Bochil","lat":"16.99625","lng":"-92.89218"},{"label":"Bochojbo Alto","lat":"16.73583","lng":"-92.71694"},{"label":"Bocoyna","lat":"27.84133","lng":"-107.58918"},{"label":"Bokoba","lat":"21.00755","lng":"-89.17913"},{"label":"Bolón","lat":"20.8501","lng":"-89.83193"},{"label":"Bolonchén de Rejón","lat":"20.00386","lng":"-89.74663"},{"label":"Bomanxotha","lat":"20.51542","lng":"-99.66679"},{"label":"Bomintzha","lat":"20.014","lng":"-99.27277"},{"label":"Bondojito","lat":"20.44395","lng":"-99.70022"},{"label":"Bonifacio García","lat":"18.71786","lng":"-99.12011"},{"label":"Bonifacio Moreno (El Aguaje)","lat":"18.99167","lng":"-102.71083"},{"label":"Boquiapa","lat":"18.16111","lng":"-93.1375"},{"label":"Boquilla de Babisas (La Boquilla de Conchos)","lat":"27.54861","lng":"-105.40361"},{"label":"Boquilla de las Perlas","lat":"25.32803","lng":"-103.2887"},{"label":"Boquillas","lat":"20.41642","lng":"-101.43333"},{"label":"Bordo Blanco","lat":"20.49631","lng":"-99.92855"},{"label":"Boshindó","lat":"19.91922","lng":"-99.84075"},{"label":"Bosque de Saloya","lat":"18.01611","lng":"-92.95806"},{"label":"Bosques de la Magdalena","lat":"19.35778","lng":"-98.9475"},{"label":"Bosques de San Pedro","lat":"25.60139","lng":"-100.17972"},{"label":"Boxasní","lat":"20.67083","lng":"-99.84861"},{"label":"Boyé","lat":"20.68091","lng":"-99.73933"},{"label":"Bravo","lat":"20.39977","lng":"-100.42423"},{"label":"Brisas Barra de Suchiate","lat":"14.53588","lng":"-92.22414"},{"label":"Brisas de Zicatela","lat":"15.83694","lng":"-97.04194"},{"label":"Brisas del Carrizal","lat":"18.01556","lng":"-92.97083"},{"label":"Briseñas de Matamoros","lat":"20.26821","lng":"-102.56195"},{"label":"Buaysiacobe","lat":"27.06795","lng":"-109.68628"},{"label":"Buayums","lat":"26.86336","lng":"-109.43427"},{"label":"Bucerías","lat":"20.75626","lng":"-105.33438"},{"label":"Buctzotz","lat":"21.20256","lng":"-88.79412"},{"label":"Buen Retiro (El Retiro)","lat":"25.46194","lng":"-108.47833"},{"label":"Buena Vista","lat":"19.04278","lng":"-96.85667"},{"label":"Buena Vista","lat":"16.9625","lng":"-98.58077"},{"label":"Buena Vista","lat":"25.85222","lng":"-100.36"},{"label":"Buena Vista","lat":"20.12767","lng":"-97.45373"},{"label":"Buena Vista (Apasco)","lat":"17.65556","lng":"-92.44389"},{"label":"Buena Vista (Puxcatán)","lat":"17.73073","lng":"-92.61996"},{"label":"Buena Vista 1ra. Sección","lat":"18.14417","lng":"-92.74972"},{"label":"Buena Vista de la Salud","lat":"17.26082","lng":"-99.50183"},{"label":"Buenavista","lat":"18.22794","lng":"-94.9329"},{"label":"Buenavista","lat":"17.91667","lng":"-92.53333"},{"label":"Buenavista","lat":"18.94556","lng":"-99.65694"},{"label":"Buenavista","lat":"18.89306","lng":"-97.03694"},{"label":"Buenavista","lat":"19.60833","lng":"-99.16944"},{"label":"Buenavista","lat":"20.82372","lng":"-100.47009"},{"label":"Buenavista","lat":"20.56811","lng":"-103.85187"},{"label":"Buenavista","lat":"20.45474","lng":"-103.52042"},{"label":"Buenavista","lat":"20.38329","lng":"-103.21536"},{"label":"Buenavista","lat":"19.91349","lng":"-100.22995"},{"label":"Buenavista","lat":"19.80082","lng":"-100.04385"},{"label":"Buenavista","lat":"16.24278","lng":"-91.98778"},{"label":"Buenavista","lat":"17.22556","lng":"-92.52667"},{"label":"Buenavista","lat":"19.25767","lng":"-97.07531"},{"label":"Buenavista (Matasanos)","lat":"17.10778","lng":"-93.06694"},{"label":"Buenavista de Allende","lat":"17.00086","lng":"-99.21325"},{"label":"Buenavista de Benito Juárez","lat":"18.46034","lng":"-98.63735"},{"label":"Buenavista de Cortés","lat":"20.37326","lng":"-101.87021"},{"label":"Buenavista de Cuéllar","lat":"18.45958","lng":"-99.40868"},{"label":"Buenavista de Juárez","lat":"18.945","lng":"-97.82778"},{"label":"Buenavista de Trujillo","lat":"23.152","lng":"-103.18767"},{"label":"Buenavista Tetela","lat":"18.91967","lng":"-98.17632"},{"label":"Buenavista Tomatlán","lat":"19.21281","lng":"-102.58735"},{"label":"Buenos Aires","lat":"14.8898","lng":"-92.48121"},{"label":"Buenos Aires","lat":"18.46463","lng":"-95.24879"},{"label":"Buenos Aires","lat":"19.61745","lng":"-99.6679"},{"label":"Buenos Aires","lat":"19.07499","lng":"-102.17999"},{"label":"Buenos Aires","lat":"18.02444","lng":"-102.28583"},{"label":"Buenos Aires","lat":"32.42278","lng":"-116.94111"},{"label":"Buenos Aires","lat":"20.15333","lng":"-97.74833"},{"label":"Buenos Aires (San Isidro)","lat":"20.84028","lng":"-97.60139"},{"label":"Burgos","lat":"24.94722","lng":"-98.79921"},{"label":"Bustamante","lat":"23.43524","lng":"-99.75875"},{"label":"Bustamante","lat":"26.53498","lng":"-100.50608"},{"label":"C-32 (Licenciado Francisco Trujillo Gurría)","lat":"17.96833","lng":"-93.50139"},{"label":"C-41 (Licenciado Carlos A. Madrazo)","lat":"17.92306","lng":"-93.44806"},{"label":"Cabecera de Indígenas","lat":"19.37213","lng":"-100.13667"},{"label":"Cabeza de Toro","lat":"15.93698","lng":"-93.78256"},{"label":"Cabezas","lat":"19.37167","lng":"-96.38278"},{"label":"Cabo San Lucas","lat":"22.89088","lng":"-109.91238"},{"label":"Cacahoatán","lat":"14.99201","lng":"-92.16376"},{"label":"Cacahuatal","lat":"18.83098","lng":"-96.84192"},{"label":"Cacalchen","lat":"20.98358","lng":"-89.22686"},{"label":"Cacalomacan","lat":"19.25311","lng":"-99.70623"},{"label":"Cacalotán","lat":"23.06779","lng":"-105.84194"},{"label":"Cacalotenango","lat":"18.54639","lng":"-99.64361"},{"label":"Cacaloxúchitl","lat":"18.78747","lng":"-98.48614"},{"label":"Cacalutla","lat":"17.12433","lng":"-100.35038"},{"label":"Cacao","lat":"18.19458","lng":"-88.69529"},{"label":"Cacaté","lat":"16.84534","lng":"-92.83485"},{"label":"Cadereyta","lat":"20.69701","lng":"-99.81624"},{"label":"Cadereyta","lat":"25.58333","lng":"-99.98333"},{"label":"Cadereyta Jiménez","lat":"25.58896","lng":"-100.00156"},{"label":"Cahuatache","lat":"17.41624","lng":"-98.53184"},{"label":"Caimanero","lat":"25.60564","lng":"-108.44247"},{"label":"Caja de Agua","lat":"19.64329","lng":"-99.36497"},{"label":"Cajelitos","lat":"17.26778","lng":"-99.49306"},{"label":"Cajititlán","lat":"20.43174","lng":"-103.3094"},{"label":"Cajonos","lat":"17.16801","lng":"-96.26174"},{"label":"Cala Norte","lat":"19.84778","lng":"-97.42306"},{"label":"Cala Sur","lat":"19.83278","lng":"-97.42111"},{"label":"Calamanda","lat":"20.54672","lng":"-100.18616"},{"label":"Calcahualco","lat":"19.12243","lng":"-97.08556"},{"label":"Calcehtok","lat":"20.5674","lng":"-89.9117"},{"label":"Calderitas","lat":"18.55564","lng":"-88.25518"},{"label":"Calera Chica","lat":"18.85833","lng":"-99.18194"},{"label":"Caleras","lat":"18.99687","lng":"-103.87898"},{"label":"Caleras de Ameche","lat":"20.56133","lng":"-100.56013"},{"label":"Calería","lat":"18.42883","lng":"-95.17737"},{"label":"Calichar Palma Sola","lat":"20.44155","lng":"-97.55103"},{"label":"Cálido","lat":"17.09889","lng":"-92.7875"},{"label":"California","lat":"25.7609","lng":"-103.37556"},{"label":"Calihualá","lat":"17.53134","lng":"-98.27792"},{"label":"Calimaya","lat":"19.16324","lng":"-99.6181"},{"label":"Calipan","lat":"18.29519","lng":"-97.16376"},{"label":"Calixtlahuaca","lat":"19.33651","lng":"-99.68923"},{"label":"Calkiní","lat":"20.36905","lng":"-90.05119"},{"label":"Calle Real","lat":"19.48858","lng":"-99.61332"},{"label":"Calmeca","lat":"18.63501","lng":"-98.63414"},{"label":"Calnali","lat":"20.89687","lng":"-98.58511"},{"label":"Calotmul","lat":"21.0205","lng":"-88.17723"},{"label":"Calpanería Atezquilla","lat":"19.65556","lng":"-97.99528"},{"label":"Calpulalpan","lat":"19.58867","lng":"-98.56972"},{"label":"Caltimacan","lat":"20.53672","lng":"-99.37"},{"label":"Caltzontzín","lat":"19.4234","lng":"-102.00673"},{"label":"Calvario Buenavista","lat":"19.70387","lng":"-99.95674"},{"label":"Calvario del Carmen","lat":"19.63562","lng":"-100.0103"},{"label":"Calvillo","lat":"21.84583","lng":"-102.71849"},{"label":"Calzada del Tepozán","lat":"20.73762","lng":"-101.88299"},{"label":"Calzada Larga","lat":"16.35115","lng":"-93.31518"},{"label":"Calzadas","lat":"18.10121","lng":"-94.45524"},{"label":"Camalotita","lat":"22.40453","lng":"-105.43156"},{"label":"Camalú","lat":"30.84222","lng":"-116.06328"},{"label":"Camargo","lat":"27.67842","lng":"-105.17136"},{"label":"Camarón de Tejeda","lat":"19.02166","lng":"-96.61513"},{"label":"Camelia (Barrio la Camelia)","lat":"20.14917","lng":"-98.72222"},{"label":"Camelia Roja","lat":"18.02833","lng":"-96.20806"},{"label":"Camémbaro","lat":"19.42722","lng":"-100.39889"},{"label":"Camichín de Jauja","lat":"21.46532","lng":"-104.8008"},{"label":"Camocuautla","lat":"20.03805","lng":"-97.75853"},{"label":"Camotepec","lat":"20.0472","lng":"-98.06825"},{"label":"Camotinchan","lat":"16.55873","lng":"-98.12433"},{"label":"Camotlán de Miraflores","lat":"19.22033","lng":"-104.23491"},{"label":"Campanario","lat":"16.83534","lng":"-99.57178"},{"label":"Campeche","lat":"19.84386","lng":"-90.52554"},{"label":"Campestre Flamboyanes","lat":"21.21","lng":"-89.65778"},{"label":"Campestre las Palomas [Fraccionamiento]","lat":"20.81778","lng":"-103.45167"},{"label":"Campestre Tarímbaro","lat":"19.775","lng":"-101.12917"},{"label":"Campestre Villas del Álamo","lat":"20.10167","lng":"-98.70722"},{"label":"Campo Acosta","lat":"19.77061","lng":"-105.24917"},{"label":"Campo Balbuena","lat":"24.74688","lng":"-107.54975"},{"label":"Campo Carretero","lat":"30.77154","lng":"-110.8538"},{"label":"Campo Chico","lat":"18.83639","lng":"-97.02802"},{"label":"Campo de Águila","lat":"18.0675","lng":"-94.98611"},{"label":"Campo Grande","lat":"18.82296","lng":"-97.01265"},{"label":"Campo la Arrocera","lat":"25.845","lng":"-108.91833"},{"label":"Campo Pesquero el Colorado","lat":"25.75828","lng":"-109.3151"},{"label":"Campo Real","lat":"20.78722","lng":"-103.44306"},{"label":"Cañada","lat":"20.17511","lng":"-99.1897"},{"label":"Cañada","lat":"19.99798","lng":"-99.23947"},{"label":"Cañada de Bustos","lat":"20.90436","lng":"-101.3126"},{"label":"Cañada de Caracheo","lat":"20.37552","lng":"-100.94549"},{"label":"Cañada de Cisneros","lat":"19.69534","lng":"-99.3357"},{"label":"Cañada de Guadarrama","lat":"19.31272","lng":"-99.78972"},{"label":"Cañada de Madero","lat":"19.96528","lng":"-99.39389"},{"label":"Cañada de Negros","lat":"20.92636","lng":"-101.92115"},{"label":"Cañada de Ramírez","lat":"20.29637","lng":"-101.9636"},{"label":"Cañada del Tabaco","lat":"21.70972","lng":"-105.35417"},{"label":"Cañadas de Obregón","lat":"21.14925","lng":"-102.68735"},{"label":"Canalejas","lat":"19.97867","lng":"-99.60548"},{"label":"Cananea","lat":"30.98699","lng":"-110.29062"},{"label":"Cañas","lat":"23.74366","lng":"-103.244"},{"label":"Canatlán","lat":"24.52576","lng":"-104.77327"},{"label":"Cancuc","lat":"16.91667","lng":"-92.48333"},{"label":"Cancún","lat":"21.17429","lng":"-86.84656"},{"label":"Candela","lat":"26.8384","lng":"-100.6663"},{"label":"Candelaria","lat":"18.18574","lng":"-91.04534"},{"label":"Candelaria Loxicha","lat":"15.92638","lng":"-96.49268"},{"label":"Candelaria Portezuelo","lat":"19.04194","lng":"-97.70083"},{"label":"Canelas","lat":"25.12341","lng":"-106.54622"},{"label":"Cañitas de Felipe Pescador","lat":"23.60371","lng":"-102.72704"},{"label":"Cansahcab","lat":"21.15749","lng":"-89.10131"},{"label":"Cantabria","lat":"19.83994","lng":"-101.72652"},{"label":"Cantamayec","lat":"20.46998","lng":"-89.08197"},{"label":"Cantera de Villagrán","lat":"19.84083","lng":"-99.30917"},{"label":"Cantinela","lat":"20.45778","lng":"-99.21028"},{"label":"Cantioc","lat":"17.26222","lng":"-92.40694"},{"label":"Cantón las Delicias","lat":"15.10245","lng":"-92.50002"},{"label":"Cantón Rancho Nuevo","lat":"15.06742","lng":"-92.52565"},{"label":"Cantón Villaflor","lat":"15.11424","lng":"-92.35261"},{"label":"Cantuna","lat":"23.6246","lng":"-103.3463"},{"label":"Caobanal 1ra. Sección (Mezcalapa)","lat":"17.64858","lng":"-93.39464"},{"label":"Caobas","lat":"18.44497","lng":"-89.10498"},{"label":"Capacho","lat":"19.96457","lng":"-101.23117"},{"label":"Capácuaro","lat":"19.54741","lng":"-102.05184"},{"label":"Caparroso","lat":"18.345","lng":"-92.80361"},{"label":"Capilla de Guadalupe","lat":"20.82739","lng":"-102.59185"},{"label":"Capilla de Milpillas","lat":"20.66331","lng":"-102.84295"},{"label":"Capitán Felipe Castellanos Díaz (San Pedro)","lat":"17.77306","lng":"-91.1475"},{"label":"Capoluca","lat":"18.80639","lng":"-97.02722"},{"label":"Capula","lat":"18.87018","lng":"-99.96075"},{"label":"Capula","lat":"19.53642","lng":"-98.04219"},{"label":"Capula","lat":"19.7","lng":"-101.8"},{"label":"Capula","lat":"19.67364","lng":"-101.39181"},{"label":"Capulhuac de Mirafuentes","lat":"19.19354","lng":"-99.46585"},{"label":"Capulín","lat":"20.47802","lng":"-103.26947"},{"label":"Capulín de Bustos","lat":"20.88242","lng":"-101.3068"},{"label":"Carácuaro","lat":"19.01966","lng":"-101.12494"},{"label":"Carapán","lat":"19.86003","lng":"-102.03644"},{"label":"Carbo","lat":"29.68306","lng":"-110.95619"},{"label":"Carbonera","lat":"20.80518","lng":"-100.17117"},{"label":"Carboneras","lat":"24.62766","lng":"-97.71755"},{"label":"Carboneras","lat":"20.09","lng":"-98.70528"},{"label":"Carboneras","lat":"20.21399","lng":"-98.69476"},{"label":"Carboneras","lat":"22.18311","lng":"-102.24601"},{"label":"Cárdenas","lat":"22.00144","lng":"-99.64247"},{"label":"Cárdenas","lat":"18.00135","lng":"-93.37559"},{"label":"Cárdenas","lat":"20.63012","lng":"-101.2204"},{"label":"Cardonal","lat":"20.05689","lng":"-99.23025"},{"label":"Carichí","lat":"27.91651","lng":"-107.05664"},{"label":"Caristay","lat":"20.64538","lng":"-97.30593"},{"label":"Carlos A. Carrillo","lat":"18.37477","lng":"-95.75444"},{"label":"Carlos A. Madrazo","lat":"18.50172","lng":"-88.52508"},{"label":"Carmen","lat":"25.9365","lng":"-100.36396"},{"label":"Carmen Serdán","lat":"19.03639","lng":"-97.81194"},{"label":"Carmen Yalchuch","lat":"16.64482","lng":"-92.36245"},{"label":"Carmen Zacatal","lat":"17.08083","lng":"-92.8025"},{"label":"Carona","lat":"19.52667","lng":"-102.45074"},{"label":"Carpinteros","lat":"20.58606","lng":"-98.53964"},{"label":"Carranco","lat":"21.82002","lng":"-101.09699"},{"label":"Carretas","lat":"28.2492","lng":"-106.51062"},{"label":"Carricitos","lat":"25.97595","lng":"-108.9313"},{"label":"Carrillo","lat":"23.204","lng":"-102.98676"},{"label":"Carrillo Puerto","lat":"15.0112","lng":"-92.19552"},{"label":"Carrillo Puerto","lat":"19.094","lng":"-90.52279"},{"label":"Carrillo Puerto","lat":"20.4189","lng":"-97.17899"},{"label":"Carrillo Puerto","lat":"22.43139","lng":"-97.96417"},{"label":"Carrizal","lat":"20.59552","lng":"-97.25676"},{"label":"Carrizal Grande","lat":"20.70634","lng":"-101.306"},{"label":"Carrizalillo","lat":"17.85077","lng":"-99.71263"},{"label":"Cartagena [Fraccionamiento]","lat":"21.95639","lng":"-102.27639"},{"label":"Casa Blanca","lat":"25.43036","lng":"-108.42308"},{"label":"Casa Blanca","lat":"19.04222","lng":"-98.11889"},{"label":"Casa Blanca","lat":"20.38658","lng":"-100.02009"},{"label":"Casa de Cerros","lat":"22.88499","lng":"-102.52124"},{"label":"Casa Nueva","lat":"19.83333","lng":"-99.20944"},{"label":"Casahuatlán","lat":"18.57271","lng":"-99.39051"},{"label":"Casas","lat":"23.72686","lng":"-98.73662"},{"label":"Casas Grandes","lat":"30.38269","lng":"-107.95628"},{"label":"Casas Viejas","lat":"19.15167","lng":"-100.10778"},{"label":"Caserío de Cortés","lat":"19.19861","lng":"-98.95444"},{"label":"Cash","lat":"16.26426","lng":"-92.09775"},{"label":"Casitas","lat":"20.25532","lng":"-96.80114"},{"label":"Castamay","lat":"19.83782","lng":"-90.43181"},{"label":"Castaños","lat":"26.78932","lng":"-101.43211"},{"label":"Castillo de Teayo","lat":"20.74927","lng":"-97.6303"},{"label":"Castro Urdiales","lat":"20.59754","lng":"-103.82046"},{"label":"Catarino Rodríguez","lat":"24.84542","lng":"-100.32046"},{"label":"Catazajá","lat":"17.72392","lng":"-92.01244"},{"label":"Catemaco","lat":"18.42131","lng":"-95.11398"},{"label":"Catishtic","lat":"16.78028","lng":"-92.73778"},{"label":"Caucel","lat":"21.01542","lng":"-89.70368"},{"label":"Caurio de Guadalupe","lat":"19.92455","lng":"-101.86067"},{"label":"Caxapa","lat":"18.43103","lng":"-96.77456"},{"label":"Caxhuacán","lat":"20.06359","lng":"-97.60688"},{"label":"Caxitepec","lat":"17.29449","lng":"-98.96741"},{"label":"Caxuxi","lat":"20.30522","lng":"-98.99067"},{"label":"Cayaco","lat":"17.04743","lng":"-100.26859"},{"label":"Cazones de Herrera","lat":"20.70423","lng":"-97.30994"},{"label":"Cebadilla 1ra. Sección","lat":"14.86381","lng":"-92.27969"},{"label":"Ceballos","lat":"26.5258","lng":"-104.1295"},{"label":"Cecilio Terán","lat":"18.8148","lng":"-97.22526"},{"label":"Cedral","lat":"23.82099","lng":"-100.72527"},{"label":"Cedro de la Manzana","lat":"19.69213","lng":"-100.11656"},{"label":"Cedros","lat":"24.67919","lng":"-101.77387"},{"label":"CEFERESO Número 3","lat":"25.84722","lng":"-97.63333"},{"label":"Ceiba 1ra. Sección (Jahuactal)","lat":"18.06222","lng":"-93.11306"},{"label":"Ceja de Bravo","lat":"20.37856","lng":"-100.39423"},{"label":"Celaya","lat":"20.52353","lng":"-100.8157"},{"label":"Celayita","lat":"20.24113","lng":"-99.86142"},{"label":"Celestún","lat":"20.85973","lng":"-90.39902"},{"label":"Cementeras del Pital","lat":"20.17694","lng":"-96.89583"},{"label":"Cenobio Aguilar (La Trinidad)","lat":"17.40472","lng":"-92.31944"},{"label":"Cenobio Moreno","lat":"19.09629","lng":"-102.50415"},{"label":"Cenotillo","lat":"20.96621","lng":"-88.60438"},{"label":"Centro de Arriba","lat":"21.73123","lng":"-102.49888"},{"label":"Centro de Readaptación Social","lat":"20.55444","lng":"-103.19361"},{"label":"Centro de Readaptación Social","lat":"19.625","lng":"-97.22028"},{"label":"Centro de Readaptación Social","lat":"18.13667","lng":"-94.51861"},{"label":"Centro de Readaptación Social","lat":"18.83806","lng":"-96.93944"},{"label":"Centro de Readaptación Social Nuevo","lat":"31.18444","lng":"-110.96778"},{"label":"Centro Familiar la Soledad","lat":"21.135","lng":"-101.74972"},{"label":"Cepeda","lat":"20.506","lng":"-90.10979"},{"label":"Cerano","lat":"20.10877","lng":"-101.3871"},{"label":"Cereso 14 (El Amate)","lat":"16.59472","lng":"-93.80278"},{"label":"Cereso del Hongo","lat":"32.48417","lng":"-116.25056"},{"label":"CERESO Nuevo","lat":"25.89139","lng":"-109.04222"},{"label":"Cerocahui","lat":"27.29906","lng":"-108.055"},{"label":"Cerrillos (Campo 35)","lat":"25.87806","lng":"-108.90139"},{"label":"Cerrito de Gasca","lat":"20.61829","lng":"-101.062"},{"label":"Cerrito de Jaral","lat":"22.22361","lng":"-101.0625"},{"label":"Cerrito de la Cruz","lat":"22.65781","lng":"-102.27263"},{"label":"Cerrito de Zavala","lat":"22.5369","lng":"-100.97683"},{"label":"Cerritos","lat":"19.13329","lng":"-96.60931"},{"label":"Cerritos","lat":"22.42835","lng":"-100.28474"},{"label":"Cerritos","lat":"20.88552","lng":"-100.5988"},{"label":"Cerritos","lat":"20.35306","lng":"-99.01222"},{"label":"Cerritos de Cárdenas","lat":"19.96942","lng":"-100.02254"},{"label":"Cerritos del Pilar","lat":"19.44508","lng":"-100.01909"},{"label":"Cerro Agudo","lat":"25.59796","lng":"-107.9631"},{"label":"Cerro Armadillo Grande","lat":"17.86611","lng":"-96.30861"},{"label":"Cerro Azul","lat":"21.192","lng":"-97.74088"},{"label":"Cerro Colorado","lat":"20.40111","lng":"-101.32451"},{"label":"Cerro Colorado de Ocampo","lat":"19.31712","lng":"-100.46538"},{"label":"Cerro de la Cruz","lat":"20.81474","lng":"-100.50109"},{"label":"Cerro de Ortega","lat":"18.7508","lng":"-103.72155"},{"label":"Cerro de Piedra","lat":"16.77646","lng":"-99.63037"},{"label":"Cerro de San Francisco","lat":"19.37038","lng":"-99.35162"},{"label":"Cerro de San Pedro","lat":"22.2178","lng":"-100.79961"},{"label":"Cerro del Aire","lat":"16.11012","lng":"-97.20438"},{"label":"Cerro del Murciélago","lat":"19.28194","lng":"-99.75472"},{"label":"Cerro Gordo","lat":"20.37329","lng":"-99.91385"},{"label":"Cerro Gordo","lat":"19.56951","lng":"-96.64835"},{"label":"Cerro Gordo","lat":"19.43336","lng":"-96.7004"},{"label":"Cerro Gordo","lat":"21.97448","lng":"-100.80661"},{"label":"Cerro Gordo","lat":"20.59294","lng":"-101.12684"},{"label":"Cerro Grande","lat":"20.23861","lng":"-97.68194"},{"label":"Cerro Guzmán","lat":"19.23543","lng":"-96.37856"},{"label":"Cerro La Calera","lat":"19.18333","lng":"-99.81667"},{"label":"Cerro las Iguanas","lat":"18.41083","lng":"-95.19972"},{"label":"Cerro Quemado","lat":"18.15417","lng":"-96.575"},{"label":"Cerro Santa Fe","lat":"20.52599","lng":"-103.08448"},{"label":"Ceuta","lat":"23.90042","lng":"-106.92847"},{"label":"Chablé","lat":"17.85895","lng":"-91.7813"},{"label":"Chablekal","lat":"21.09613","lng":"-89.57701"},{"label":"Chacala","lat":"19.32741","lng":"-104.28313"},{"label":"Chacalapa","lat":"18.0786","lng":"-94.7028"},{"label":"Chacalapa","lat":"16.80682","lng":"-98.45788"},{"label":"Chacaljocóm","lat":"16.29919","lng":"-92.18345"},{"label":"Chacaltianguis","lat":"18.30528","lng":"-95.84167"},{"label":"Chachahuantla","lat":"20.20182","lng":"-98.13261"},{"label":"Chacoma","lat":"16.87611","lng":"-92.49139"},{"label":"Chacsinkin","lat":"20.17222","lng":"-89.01654"},{"label":"Chahuite","lat":"16.3","lng":"-94.18333"},{"label":"Chahuites","lat":"16.28842","lng":"-94.19478"},{"label":"Chalahuiyapa","lat":"21.15088","lng":"-98.36429"},{"label":"Chalam","lat":"16.88771","lng":"-92.55009"},{"label":"Chalcatzingo","lat":"18.68951","lng":"-98.77434"},{"label":"Chalchihuapan","lat":"18.97694","lng":"-99.57472"},{"label":"Chalchihuapan","lat":"18.97183","lng":"-98.33698"},{"label":"Chalchihuitán","lat":"16.96445","lng":"-92.61903"},{"label":"Chalchihuites","lat":"23.47498","lng":"-103.88293"},{"label":"Chalchocoyo","lat":"21.31444","lng":"-98.79194"},{"label":"Chalco","lat":"19.26174","lng":"-98.89775"},{"label":"Chalma","lat":"21.20881","lng":"-98.39799"},{"label":"Chalma","lat":"18.93048","lng":"-99.43505"},{"label":"Chalmita","lat":"18.93433","lng":"-99.42325"},{"label":"Chamácuaro","lat":"20.10444","lng":"-100.82756"},{"label":"Chametla","lat":"22.8775","lng":"-105.9575"},{"label":"Chametla","lat":"24.09926","lng":"-110.37395"},{"label":"Champotón","lat":"19.34745","lng":"-90.72039"},{"label":"Chamula","lat":"16.78416","lng":"-92.68959"},{"label":"Chamulapita","lat":"15.06892","lng":"-92.36942"},{"label":"Chan Cenote","lat":"20.99142","lng":"-87.78564"},{"label":"Chanal","lat":"16.71667","lng":"-92.4"},{"label":"Chanal","lat":"16.6575","lng":"-92.2575"},{"label":"Changata","lat":"18.27306","lng":"-100.58528"},{"label":"Chapa","lat":"19.37976","lng":"-101.66556"},{"label":"Chapa de Mota","lat":"19.81406","lng":"-99.52615"},{"label":"Chapab","lat":"20.45911","lng":"-89.4569"},{"label":"Chapala","lat":"20.29616","lng":"-103.19123"},{"label":"Chapalilla","lat":"21.18852","lng":"-104.63783"},{"label":"Chapallal Grande","lat":"17.29631","lng":"-92.94519"},{"label":"Chapantongo","lat":"20.28635","lng":"-99.41319"},{"label":"Chaparaco","lat":"19.96061","lng":"-102.26092"},{"label":"Chaparrosa","lat":"23.08339","lng":"-102.27728"},{"label":"Chapopote Chico","lat":"21.13704","lng":"-98.2478"},{"label":"Chapopote Núñez","lat":"20.93167","lng":"-97.68274"},{"label":"Chapulco","lat":"18.62586","lng":"-97.40474"},{"label":"Chapulhuacán","lat":"21.15731","lng":"-98.90361"},{"label":"Chapulhuacanito","lat":"21.20911","lng":"-98.67016"},{"label":"Chapultenango","lat":"17.34114","lng":"-93.1303"},{"label":"Chapultepec","lat":"19.20216","lng":"-99.56176"},{"label":"Charapán","lat":"19.65112","lng":"-102.2519"},{"label":"Charapendo","lat":"19.26383","lng":"-102.0661"},{"label":"Charay","lat":"26.0214","lng":"-108.8309"},{"label":"Charcas","lat":"23.12943","lng":"-101.11346"},{"label":"Charco Blanco","lat":"20.43404","lng":"-100.47244"},{"label":"Charco Blanco","lat":"23.86306","lng":"-103.6575"},{"label":"Charco de Pantoja","lat":"20.38949","lng":"-101.35436"},{"label":"Charo","lat":"19.74966","lng":"-101.04571"},{"label":"Chatipán","lat":"21.02006","lng":"-98.52731"},{"label":"Chaucingo","lat":"18.30038","lng":"-99.11535"},{"label":"Chautla","lat":"18.96573","lng":"-98.15288"},{"label":"Chavarría","lat":"18.72575","lng":"-99.46826"},{"label":"Chavarrillo","lat":"19.42551","lng":"-96.79458"},{"label":"Chavaxtla","lat":"19.13016","lng":"-96.83054"},{"label":"Chavinda","lat":"20.00625","lng":"-102.46015"},{"label":"Chelem","lat":"21.26841","lng":"-89.74221"},{"label":"Chemax","lat":"20.65613","lng":"-87.9364"},{"label":"Chenalhó","lat":"16.89367","lng":"-92.62651"},{"label":"Cherán","lat":"19.68536","lng":"-101.95368"},{"label":"Cherán Atzicuirín (Cheranástico)","lat":"19.7","lng":"-102.01556"},{"label":"Chetumal","lat":"18.51413","lng":"-88.30381"},{"label":"Chiapa de Corzo","lat":"16.7077","lng":"-93.01184"},{"label":"Chiapilla","lat":"16.56975","lng":"-92.72037"},{"label":"Chiaucingo","lat":"17.74207","lng":"-98.6972"},{"label":"Chiautla","lat":"19.54895","lng":"-98.88236"},{"label":"Chiautla de Tapia","lat":"18.30149","lng":"-98.60339"},{"label":"Chicahua","lat":"17.63667","lng":"-97.19497"},{"label":"Chicahuaxtla","lat":"20.1425","lng":"-97.94556"},{"label":"Chicapa de Castro","lat":"16.43844","lng":"-94.82206"},{"label":"Chicavasco","lat":"20.19715","lng":"-98.95386"},{"label":"Chicbul","lat":"18.77558","lng":"-90.92429"},{"label":"Chichatla","lat":"20.95833","lng":"-98.62946"},{"label":"Chichén-Itzá","lat":"20.66667","lng":"-88.56667"},{"label":"Chichicapa","lat":"18.26228","lng":"-93.1821"},{"label":"Chichicapa","lat":"18.40056","lng":"-97.04694"},{"label":"Chichicastle 1ra. Sección","lat":"18.30417","lng":"-92.43139"},{"label":"Chichicaxtle","lat":"19.34306","lng":"-96.46861"},{"label":"Chichicuautla","lat":"19.39073","lng":"-97.39394"},{"label":"Chichihualco","lat":"17.65902","lng":"-99.67624"},{"label":"Chichimequillas","lat":"23.23894","lng":"-102.5785"},{"label":"Chichimequillas","lat":"21.03716","lng":"-101.44274"},{"label":"Chichimequillas","lat":"20.76512","lng":"-100.33588"},{"label":"Chichimila","lat":"20.63176","lng":"-88.21689"},{"label":"Chichiquila","lat":"19.20073","lng":"-97.06691"},{"label":"Chicoasén","lat":"16.96633","lng":"-93.10486"},{"label":"Chicola","lat":"18.90139","lng":"-97.10806"},{"label":"Chicoloapan","lat":"19.41687","lng":"-98.90202"},{"label":"Chicomuselo","lat":"15.7442","lng":"-92.2833"},{"label":"Chiconamel","lat":"21.2305","lng":"-98.46024"},{"label":"Chiconamel","lat":"21.36806","lng":"-98.71917"},{"label":"Chiconcuac","lat":"19.55939","lng":"-98.89884"},{"label":"Chiconcuac","lat":"18.78278","lng":"-99.20722"},{"label":"Chiconcuautla","lat":"20.09517","lng":"-97.93896"},{"label":"Chiconquiaco","lat":"19.74208","lng":"-96.81851"},{"label":"Chicontepec","lat":"20.97214","lng":"-98.17239"},{"label":"Chicontla","lat":"20.24402","lng":"-97.83063"},{"label":"Chicualoque","lat":"20.38272","lng":"-97.66163"},{"label":"Chicuasen","lat":"19.52785","lng":"-96.67224"},{"label":"Chicumtantic","lat":"16.86556","lng":"-92.60528"},{"label":"Chicxulub Pueblo","lat":"21.13614","lng":"-89.51612"},{"label":"Chicxulub Puerto","lat":"21.29618","lng":"-89.59867"},{"label":"Chiepetepec","lat":"17.56568","lng":"-98.73364"},{"label":"Chietla","lat":"18.52028","lng":"-98.57889"},{"label":"Chigmecatitlán","lat":"18.64634","lng":"-98.07203"},{"label":"Chignahuapan","lat":"19.83866","lng":"-98.03171"},{"label":"Chihuahua","lat":"16.02966","lng":"-91.97331"},{"label":"Chihuahua","lat":"28.63528","lng":"-106.08889"},{"label":"Chihuahuita","lat":"26.15469","lng":"-109.05496"},{"label":"Chikindzonot","lat":"20.33436","lng":"-88.4863"},{"label":"Chila","lat":"17.96962","lng":"-97.86072"},{"label":"Chila de Juárez","lat":"20.28113","lng":"-98.20937"},{"label":"Chila de la Sal","lat":"18.10975","lng":"-98.48574"},{"label":"Chilacachapa","lat":"18.27394","lng":"-99.76177"},{"label":"Chilapa","lat":"18.98861","lng":"-97.15417"},{"label":"Chilapa","lat":"22.03138","lng":"-105.23057"},{"label":"Chilapa de Álvarez","lat":"17.59917","lng":"-99.17389"},{"label":"Chilchota","lat":"19.84654","lng":"-102.11716"},{"label":"Chilcuautla","lat":"20.33059","lng":"-99.23117"},{"label":"Chililico","lat":"21.13444","lng":"-98.43556"},{"label":"Chiloljá","lat":"16.88528","lng":"-92.42472"},{"label":"Chilón","lat":"17.23333","lng":"-92.41667"},{"label":"Chilón","lat":"17.10566","lng":"-92.27292"},{"label":"Chilpancingo","lat":"17.5506","lng":"-99.50578"},{"label":"Chiltepec de Hidalgo","lat":"18.91266","lng":"-99.8345"},{"label":"Chiltoyac","lat":"19.57708","lng":"-96.8666"},{"label":"Chimalapa","lat":"20.18806","lng":"-98.16"},{"label":"Chimalpa Viejo","lat":"19.44956","lng":"-99.34435"},{"label":"Chimalpa y Tlalayote","lat":"19.66522","lng":"-98.51224"},{"label":"Chimaltitán","lat":"21.77977","lng":"-103.78071"},{"label":"Chimhucum","lat":"16.89","lng":"-92.53139"},{"label":"China","lat":"25.69997","lng":"-99.23454"},{"label":"Chiná","lat":"19.76993","lng":"-90.49595"},{"label":"Chinameca","lat":"18.6222","lng":"-98.99766"},{"label":"Chinameca","lat":"18.02195","lng":"-94.67945"},{"label":"Chinampa de Gorostiza","lat":"21.35959","lng":"-97.73484"},{"label":"Chinampas","lat":"21.83686","lng":"-101.81564"},{"label":"Chinantla","lat":"18.2014","lng":"-98.26426"},{"label":"Chinautla","lat":"19.81996","lng":"-97.38859"},{"label":"Chínipas","lat":"27.39502","lng":"-108.5373"},{"label":"Chinobampo","lat":"26.39","lng":"-108.3644"},{"label":"Chipahuatlán","lat":"20.06111","lng":"-97.68861"},{"label":"Chipilo de Francisco Javier Mina","lat":"19.00611","lng":"-98.33056"},{"label":"Chiquihuitlán de Benito Juárez","lat":"17.99582","lng":"-96.74474"},{"label":"Chiquilá","lat":"21.43273","lng":"-87.33559"},{"label":"Chiquilistlán","lat":"20.2","lng":"-103.81667"},{"label":"Chiquilistlán","lat":"20.08776","lng":"-103.86071"},{"label":"Chiquimitío","lat":"19.79507","lng":"-101.25208"},{"label":"Chiquinival","lat":"16.99111","lng":"-91.96028"},{"label":"Chiquinshulum","lat":"17.07194","lng":"-92.59806"},{"label":"Chirimoya (Estación Chirimoya)","lat":"21.59278","lng":"-101.09139"},{"label":"Chitejé de Garabato","lat":"20.10111","lng":"-100.18899"},{"label":"Chixtontic","lat":"16.8908","lng":"-92.45793"},{"label":"Chocamán","lat":"19.01214","lng":"-97.03291"},{"label":"Chocholá","lat":"20.75087","lng":"-89.83041"},{"label":"Choix","lat":"26.70901","lng":"-108.32545"},{"label":"Cholul","lat":"21.0431","lng":"-89.55952"},{"label":"Cholul Cantón","lat":"21.01078","lng":"-89.29147"},{"label":"Cholula","lat":"19.06406","lng":"-98.30352"},{"label":"Chonegal","lat":"18.57523","lng":"-95.39347"},{"label":"Chontalcoatlán","lat":"18.65421","lng":"-99.5738"},{"label":"Chontalpa","lat":"17.66614","lng":"-93.48115"},{"label":"Chontla","lat":"21.2958","lng":"-97.92419"},{"label":"Chosto de los Jarros","lat":"19.86333","lng":"-99.91"},{"label":"Chuburná","lat":"21.25722","lng":"-89.79793"},{"label":"Chucándiro","lat":"19.90008","lng":"-101.3338"},{"label":"Chucarit","lat":"27.03157","lng":"-109.58421"},{"label":"Chula Vista","lat":"27.04083","lng":"-103.36611"},{"label":"Chulum Cárdenas","lat":"17.38417","lng":"-92.57389"},{"label":"Chulum Juárez","lat":"17.33194","lng":"-92.53389"},{"label":"Chumatlán","lat":"20.20574","lng":"-97.59402"},{"label":"Chumayel","lat":"20.42833","lng":"-89.30111"},{"label":"Chunchintok","lat":"19.36145","lng":"-89.58218"},{"label":"Chunchucmil","lat":"20.64303","lng":"-90.21413"},{"label":"Chunhuhub","lat":"19.58533","lng":"-88.5922"},{"label":"Chuniapan de Arriba","lat":"18.34803","lng":"-95.18156"},{"label":"Chupaderos","lat":"23.15883","lng":"-102.32535"},{"label":"Chupio","lat":"19.17836","lng":"-101.44599"},{"label":"Churintzio","lat":"20.15056","lng":"-102.06469"},{"label":"Churipitzeo","lat":"20.41185","lng":"-101.74206"},{"label":"Churumuco de Morelos","lat":"18.66333","lng":"-101.64741"},{"label":"Cicacalco","lat":"21.71575","lng":"-103.31286"},{"label":"Ciénega de Flores","lat":"25.95467","lng":"-100.16695"},{"label":"Ciénega de Nuestra Señora de Guadalupe","lat":"25.06223","lng":"-106.329"},{"label":"Ciénega de Zimatlán","lat":"16.89343","lng":"-96.76756"},{"label":"Ciénega Grande","lat":"22.19434","lng":"-102.0194"},{"label":"Cieneguilla","lat":"16.32353","lng":"-97.31762"},{"label":"Cieneguilla","lat":"21.24833","lng":"-100.27389"},{"label":"Cieneguillas","lat":"24.05472","lng":"-104.05186"},{"label":"Cieneguillas","lat":"22.75698","lng":"-102.66267"},{"label":"Cieneguitas","lat":"22.71363","lng":"-102.49317"},{"label":"Cihuatlán","lat":"19.2366","lng":"-104.56512"},{"label":"Cima del Sol (Fraccionamiento Cima del Sol)","lat":"20.46889","lng":"-103.41722"},{"label":"Cinco de Febrero","lat":"24.07657","lng":"-104.50467"},{"label":"Cinco de Mayo","lat":"24.10181","lng":"-104.57449"},{"label":"Cinco de Mayo","lat":"20.13167","lng":"-97.63"},{"label":"Cintalapa","lat":"16.92361","lng":"-91.36152"},{"label":"Cintalapa de Figueroa","lat":"16.68393","lng":"-93.71814"},{"label":"Cipreses","lat":"20.05889","lng":"-98.7675"},{"label":"Cítala","lat":"20.10409","lng":"-103.26181"},{"label":"Citilcum","lat":"20.95146","lng":"-89.11805"},{"label":"Citlaltépec","lat":"21.32912","lng":"-97.87861"},{"label":"Ciudad Acuña","lat":"29.32322","lng":"-100.95217"},{"label":"Ciudad Altamirano","lat":"18.3582","lng":"-100.66965"},{"label":"Ciudad Apodaca","lat":"25.78195","lng":"-100.18839"},{"label":"Ciudad Ayala","lat":"18.76694","lng":"-98.98222"},{"label":"Ciudad Benito Juárez","lat":"25.64724","lng":"-100.09582"},{"label":"Ciudad Camargo","lat":"26.31437","lng":"-98.83378"},{"label":"Ciudad Cerralvo","lat":"26.08499","lng":"-99.61508"},{"label":"Ciudad Chemuyil","lat":"20.34861","lng":"-87.35306"},{"label":"Ciudad Coahuila (Kilómetro Cincuenta y Siete)","lat":"32.19556","lng":"-115.0025"},{"label":"Ciudad Constitución","lat":"25.0321","lng":"-111.66256"},{"label":"Ciudad Cuauhtémoc","lat":"22.18439","lng":"-97.83472"},{"label":"Ciudad Cuauhtémoc","lat":"15.66587","lng":"-92.00388"},{"label":"Ciudad de Allende","lat":"25.27673","lng":"-100.01442"},{"label":"Ciudad de Armería","lat":"18.9378","lng":"-103.96417"},{"label":"Ciudad de Atlixco","lat":"18.90372","lng":"-98.43922"},{"label":"Ciudad de Chiautla de Tapia","lat":"18.3","lng":"-98.60389"},{"label":"Ciudad de Cuetzalan","lat":"20.01861","lng":"-97.52111"},{"label":"Ciudad de Huajuapan de León","lat":"17.80787","lng":"-97.77956"},{"label":"Ciudad de Huitzuco","lat":"18.30334","lng":"-99.33376"},{"label":"Ciudad de Nanacamilpa","lat":"19.49339","lng":"-98.53665"},{"label":"Ciudad de Tlatlauquitepec","lat":"19.85278","lng":"-97.49528"},{"label":"Ciudad de Villa de Álvarez","lat":"19.26722","lng":"-103.73778"},{"label":"Ciudad de Villaldama","lat":"26.49952","lng":"-100.42508"},{"label":"Ciudad del Carmen","lat":"18.64592","lng":"-91.82991"},{"label":"Ciudad del Maíz","lat":"22.40187","lng":"-99.60468"},{"label":"Ciudad Delicias","lat":"28.19013","lng":"-105.47012"},{"label":"Ciudad Fernández","lat":"21.94045","lng":"-100.01153"},{"label":"Ciudad General Escobedo","lat":"25.79698","lng":"-100.31791"},{"label":"Ciudad General Terán","lat":"25.25857","lng":"-99.68371"},{"label":"Ciudad Guadalupe Victoria","lat":"24.44401","lng":"-104.12156"},{"label":"Ciudad Gustavo Díaz Ordaz","lat":"26.23186","lng":"-98.5956"},{"label":"Ciudad Guzmán","lat":"19.70466","lng":"-103.4617"},{"label":"Ciudad Guzmán [CERESO]","lat":"19.65194","lng":"-103.5"},{"label":"Ciudad Hidalgo","lat":"14.68148","lng":"-92.15217"},{"label":"Ciudad Hidalgo","lat":"19.6927","lng":"-100.55445"},{"label":"Ciudad Insurgentes","lat":"25.26345","lng":"-111.77444"},{"label":"Ciudad Juárez","lat":"31.72024","lng":"-106.46084"},{"label":"Ciudad Lázaro Cárdenas","lat":"17.97066","lng":"-102.22124"},{"label":"Ciudad Lerdo","lat":"25.53718","lng":"-103.52456"},{"label":"Ciudad López Mateos","lat":"19.55793","lng":"-99.25675"},{"label":"Ciudad Madero","lat":"22.27228","lng":"-97.83623"},{"label":"Ciudad Mante","lat":"22.74304","lng":"-98.9739"},{"label":"Ciudad Manuel Doblado","lat":"20.72888","lng":"-101.95226"},{"label":"Ciudad Melchor Múzquiz","lat":"27.87933","lng":"-101.51615"},{"label":"Ciudad Mendoza","lat":"18.80645","lng":"-97.1787"},{"label":"Ciudad Miguel Alemán","lat":"26.39952","lng":"-99.02836"},{"label":"Ciudad Morelos","lat":"32.34389","lng":"-117.01056"},{"label":"Ciudad Nezahualcoyotl","lat":"19.40061","lng":"-99.01483"},{"label":"Ciudad Obregón","lat":"27.48642","lng":"-109.94083"},{"label":"Ciudad Pemex","lat":"17.88268","lng":"-92.48406"},{"label":"Ciudad Río Bravo","lat":"25.98729","lng":"-98.09414"},{"label":"Ciudad Sabinas Hidalgo","lat":"26.50358","lng":"-100.18187"},{"label":"Ciudad Sahagun","lat":"19.77557","lng":"-98.57471"},{"label":"Ciudad Satélite","lat":"22.11083","lng":"-100.79583"},{"label":"Ciudad Satélite del Norte","lat":"25.91448","lng":"-100.26542"},{"label":"Ciudad Serdán","lat":"18.98856","lng":"-97.44643"},{"label":"Ciudad Tula","lat":"22.99732","lng":"-99.71101"},{"label":"Ciudad Valles","lat":"21.99631","lng":"-99.01093"},{"label":"Ciudad Victoria","lat":"23.74174","lng":"-99.14599"},{"label":"Cliserio Alanís (San Gaspar)","lat":"18.86111","lng":"-99.16"},{"label":"Cloete","lat":"27.92347","lng":"-101.17597"},{"label":"Coacalco","lat":"19.62923","lng":"-99.10689"},{"label":"Coachimalco","lat":"17.62523","lng":"-98.68122"},{"label":"Coachiti","lat":"20.55944","lng":"-100.58944"},{"label":"Coacoatzintla","lat":"19.65163","lng":"-96.94043"},{"label":"Coacotla","lat":"17.93656","lng":"-94.66711"},{"label":"Coacoyula de Álvarez","lat":"18.07635","lng":"-99.6305"},{"label":"Coacoyulichán","lat":"16.79484","lng":"-98.93551"},{"label":"Coacoyulillo","lat":"17.33471","lng":"-99.64859"},{"label":"Coacuilco","lat":"21.10377","lng":"-98.58643"},{"label":"Coahuayana de Hidalgo","lat":"18.70224","lng":"-103.66145"},{"label":"Coahuayana Viejo","lat":"18.75119","lng":"-103.66798"},{"label":"Coahuayutla de Guerrero","lat":"18.31469","lng":"-101.73574"},{"label":"Coahuitlán","lat":"20.26064","lng":"-97.72934"},{"label":"Coahuixco","lat":"19.80556","lng":"-97.41028"},{"label":"Coahuixtla","lat":"18.57417","lng":"-99.37"},{"label":"Coajomulco","lat":"19.03375","lng":"-99.20428"},{"label":"Coalcomán de Vázquez Pallares","lat":"18.7775","lng":"-103.16"},{"label":"Coamilpa de Juárez","lat":"19.19778","lng":"-99.44361"},{"label":"Coapilla","lat":"17.13137","lng":"-93.15946"},{"label":"Coatecas Altas","lat":"16.53926","lng":"-96.66878"},{"label":"Coatepec","lat":"19.13735","lng":"-99.42948"},{"label":"Coatepec","lat":"19.45229","lng":"-96.96148"},{"label":"Coatepec","lat":"18.66754","lng":"-98.55987"},{"label":"Coatepec","lat":"19.38485","lng":"-98.84546"},{"label":"Coatepec Costales","lat":"18.33922","lng":"-99.7214"},{"label":"Coatepec Harinas","lat":"18.89492","lng":"-99.72153"},{"label":"Coatetelco","lat":"18.72963","lng":"-99.32605"},{"label":"Coatlán del Río","lat":"18.74423","lng":"-99.43324"},{"label":"Coatzacoalcos","lat":"18.14905","lng":"-94.4447"},{"label":"Coatzingo","lat":"18.61199","lng":"-98.17267"},{"label":"Coatzintla","lat":"20.48699","lng":"-97.46823"},{"label":"Coba","lat":"20.48298","lng":"-87.73888"},{"label":"Cochoapa","lat":"16.7219","lng":"-98.37196"},{"label":"Cochoapa el Grande","lat":"17.1928","lng":"-98.45592"},{"label":"Cocohital","lat":"18.39527","lng":"-93.34527"},{"label":"Cocorit","lat":"27.57519","lng":"-109.9591"},{"label":"Cocotitlán","lat":"19.23336","lng":"-98.86596"},{"label":"Cocoyoc","lat":"18.88417","lng":"-98.98194"},{"label":"Cocoyol","lat":"18.16448","lng":"-88.6908"},{"label":"Cocoyotla","lat":"18.75445","lng":"-99.45075"},{"label":"Cocucho","lat":"19.69477","lng":"-102.18925"},{"label":"Cocula","lat":"18.24116","lng":"-99.66202"},{"label":"Cocula","lat":"20.36517","lng":"-103.82215"},{"label":"Coeneo de la Libertad","lat":"19.82195","lng":"-101.5847"},{"label":"Coetzala","lat":"18.78521","lng":"-96.91697"},{"label":"Cofradia","lat":"20.4732","lng":"-103.55808"},{"label":"Cofradía","lat":"19.43333","lng":"-103.55"},{"label":"Cofradía de Juárez","lat":"18.96261","lng":"-103.95549"},{"label":"Cofradía de Morelos","lat":"18.86785","lng":"-103.83668"},{"label":"Cofradía de Navolato (Cofradía de los Rocha)","lat":"24.76806","lng":"-107.64806"},{"label":"Cofradía de Suchitlán","lat":"19.40954","lng":"-103.70043"},{"label":"Cohuecán","lat":"18.78268","lng":"-98.72085"},{"label":"Coixtlahuaca","lat":"17.72021","lng":"-97.3188"},{"label":"Cojumatlán de Régules","lat":"20.11729","lng":"-102.85171"},{"label":"Col. Bosques de las Lomas","lat":"19.37893","lng":"-99.26587"},{"label":"Colatlán","lat":"20.81642","lng":"-98.09697"},{"label":"Colima","lat":"19.24997","lng":"-103.72714"},{"label":"Colinas de Plata","lat":"20.07833","lng":"-98.72667"},{"label":"Colinas de Santa Cruz Segunda Sección","lat":"20.62361","lng":"-100.46667"},{"label":"Colinas del Aeropuerto","lat":"25.81705","lng":"-100.10258"},{"label":"Colinas del Roble","lat":"20.50417","lng":"-103.39833"},{"label":"Colinas del Sol","lat":"32.40306","lng":"-117.03056"},{"label":"Colinas del Sol","lat":"32.46583","lng":"-117.03694"},{"label":"Colipa","lat":"19.92323","lng":"-96.72713"},{"label":"Collantes","lat":"16.1881","lng":"-97.97184"},{"label":"Colombia de Guadalupe","lat":"17.0884","lng":"-98.75901"},{"label":"Colón","lat":"20.78323","lng":"-100.05149"},{"label":"Colonia 18 de Marzo","lat":"20.55556","lng":"-101.03556"},{"label":"Colonia 2 de Septiembre","lat":"19.70056","lng":"-99.11667"},{"label":"Colonia 24 de Febrero","lat":"25.64722","lng":"-108.64917"},{"label":"Colonia 28 de Mayo (Santa Rosa)","lat":"20.16611","lng":"-98.39"},{"label":"Colonia 3 de Mayo","lat":"18.82726","lng":"-99.69304"},{"label":"Colonia 3 de Mayo (La Cruz)","lat":"19.98083","lng":"-99.16361"},{"label":"Colonia Abraham González (La Quemada)","lat":"28.20667","lng":"-105.4075"},{"label":"Colonia Adolfo López Mateos","lat":"19.40056","lng":"-99.45944"},{"label":"Colonia Adolfo Ruiz Cortines (Colonia Obrera)","lat":"18.25694","lng":"-96.16139"},{"label":"Colonia Aeropuerto","lat":"17.62028","lng":"-101.45889"},{"label":"Colonia Agrícola Álvaro Obregón","lat":"19.22806","lng":"-99.55583"},{"label":"Colonia Agrícola Analco","lat":"19.34972","lng":"-99.475"},{"label":"Colonia Agrícola de Ocotepec (Colonia San José)","lat":"18.92972","lng":"-98.54444"},{"label":"Colonia Agrícola México (Palmitas)","lat":"25.10972","lng":"-107.94472"},{"label":"Colonia Alborada","lat":"16.88151","lng":"-99.81779"},{"label":"Colonia Álvaro Obregón","lat":"22.25183","lng":"-99.67416"},{"label":"Colonia Álvaro Obregón","lat":"19.37691","lng":"-99.49484"},{"label":"Colonia Ángel Bocanegra (Adolfo López Mateos)","lat":"18.92639","lng":"-99.02972"},{"label":"Colonia Antorcha Campesina (Santa Rosa)","lat":"19.68","lng":"-100.52611"},{"label":"Colonia Aquiles Córdoba Morán","lat":"19.70667","lng":"-100.53528"},{"label":"Colonia Arboledas (San Andrés)","lat":"19.2025","lng":"-99.58083"},{"label":"Colonia Aviación Autopan","lat":"19.37917","lng":"-99.69278"},{"label":"Colonia Azteca","lat":"19.07806","lng":"-99.65417"},{"label":"Colonia Bellavista","lat":"19.2982","lng":"-99.80879"},{"label":"Colonia Benito Juárez","lat":"19.88985","lng":"-98.80661"},{"label":"Colonia Campesina","lat":"28.14028","lng":"-105.52667"},{"label":"Colonia Chalchihuecan","lat":"19.21417","lng":"-96.21444"},{"label":"Colonia Constitución","lat":"17.53667","lng":"-98.59944"},{"label":"Colonia Cuauhtémoc","lat":"19.33182","lng":"-97.96487"},{"label":"Colonia Cuauhtémoc","lat":"19.25122","lng":"-99.79717"},{"label":"Colonia Cuauhtémoc","lat":"19.77656","lng":"-100.13155"},{"label":"Colonia de Guadalupe","lat":"19.80083","lng":"-100.91556"},{"label":"Colonia del Sol","lat":"22.91273","lng":"-109.92655"},{"label":"Colonia del Valle","lat":"19.38611","lng":"-99.16204"},{"label":"Colonia Diana Laura Riojas de Colosio","lat":"26.97722","lng":"-101.48083"},{"label":"Colonia Doctor Gustavo Baz","lat":"19.41056","lng":"-99.92167"},{"label":"Colonia Doctor Gustavo Baz","lat":"19.01306","lng":"-99.39667"},{"label":"Colonia Ecológica Asociación de Lucha Social (Lucha Social)","lat":"19.68833","lng":"-100.60917"},{"label":"Colonia el Florido","lat":"18.73833","lng":"-99.36722"},{"label":"Colonia el Mirador","lat":"19.67167","lng":"-99.35722"},{"label":"Colonia el Mirador (Llano del Ejido)","lat":"19.67583","lng":"-100.55361"},{"label":"Colonia el Pedregal","lat":"18.34961","lng":"-99.85642"},{"label":"Colonia el Pirame","lat":"19.24083","lng":"-99.47194"},{"label":"Colonia el Refugio","lat":"19.22694","lng":"-99.69417"},{"label":"Colonia el Renacimiento","lat":"19.21889","lng":"-96.21639"},{"label":"Colonia el Salado","lat":"19.58389","lng":"-98.99139"},{"label":"Colonia Emiliano Zapata","lat":"18.66504","lng":"-92.31088"},{"label":"Colonia Emiliano Zapata","lat":"21.82861","lng":"-105.21972"},{"label":"Colonia Emiliano Zapata","lat":"19.39111","lng":"-99.52528"},{"label":"Colonia Emiliano Zapata","lat":"19.12417","lng":"-99.58083"},{"label":"Colonia Emiliano Zapata (San Juan Zitácuaro)","lat":"19.44778","lng":"-100.30583"},{"label":"Colonia Emiliano Zapata Ejido de Tenancingo","lat":"18.95361","lng":"-99.55889"},{"label":"Colonia Felipe Ángeles","lat":"22.54872","lng":"-102.79243"},{"label":"Colonia Felipe Ángeles","lat":"28.3855","lng":"-105.51184"},{"label":"Colonia Felipe Ángeles","lat":"20.05417","lng":"-98.41861"},{"label":"Colonia Fraccionamiento el Puente","lat":"20.52361","lng":"-100.89667"},{"label":"Colonia Francisco García Salinas","lat":"23.81084","lng":"-103.1818"},{"label":"Colonia Francisco Javier Mina","lat":"20.97944","lng":"-101.41639"},{"label":"Colonia Gómez Morín","lat":"31.88167","lng":"-116.54389"},{"label":"Colonia Guadalupana","lat":"20.56667","lng":"-103.21889"},{"label":"Colonia Guadalupe","lat":"19.93917","lng":"-98.76556"},{"label":"Colonia Guadalupe","lat":"19.71306","lng":"-99.24972"},{"label":"Colonia Guadalupe Victoria","lat":"19.49917","lng":"-98.91917"},{"label":"Colonia Guadalupe Victoria (La Capilla)","lat":"19.40222","lng":"-99.45417"},{"label":"Colonia Gustavo Baz Prada","lat":"19.42139","lng":"-99.01361"},{"label":"Colonia Hidalgo (El Tecolote)","lat":"22.32972","lng":"-102.03583"},{"label":"Colonia Ignacio Allende","lat":"19.35667","lng":"-97.78389"},{"label":"Colonia Independencia","lat":"19.61556","lng":"-100.32389"},{"label":"Colonia Isidro Fabela","lat":"19.30056","lng":"-99.52278"},{"label":"Colonia Jordán","lat":"16.38893","lng":"-95.20203"},{"label":"Colonia José María Morelos","lat":"22.36794","lng":"-101.79449"},{"label":"Colonia Juárez","lat":"16.20967","lng":"-95.02722"},{"label":"Colonia Juárez","lat":"19.2855","lng":"-99.46652"},{"label":"Colonia Juárez","lat":"19.99583","lng":"-99.14944"},{"label":"Colonia la Asunción","lat":"19.69083","lng":"-99.06417"},{"label":"Colonia la Calzada (La Olla)","lat":"20.50278","lng":"-100.95889"},{"label":"Colonia la Central","lat":"18.08666","lng":"-96.51619"},{"label":"Colonia la Libertad","lat":"19.18528","lng":"-99.50278"},{"label":"Colonia las Arboledas","lat":"18.78528","lng":"-98.93972"},{"label":"Colonia las Flores","lat":"21.36167","lng":"-97.69306"},{"label":"Colonia las Malvinas (Colonia Antorcha)","lat":"19.87833","lng":"-102.22583"},{"label":"Colonia Latinoamericana","lat":"21.03028","lng":"-101.70583"},{"label":"Colonia Lázaro Cárdenas","lat":"19.51306","lng":"-98.92"},{"label":"Colonia Lázaro Cárdenas","lat":"19.44611","lng":"-98.90472"},{"label":"Colonia Lázaro Cárdenas (Los Hornos)","lat":"19.63167","lng":"-99.15333"},{"label":"Colonia Lealtad","lat":"17.96306","lng":"-94.9025"},{"label":"Colonia Libertad","lat":"19.67734","lng":"-97.21262"},{"label":"Colonia Lindavista","lat":"19.49156","lng":"-99.12475"},{"label":"Colonia Lomas de San Ramón (Triquis)","lat":"30.70167","lng":"-116.00278"},{"label":"Colonia los Aguiluchos","lat":"19.72611","lng":"-99.09028"},{"label":"Colonia los Ángeles","lat":"20.53523","lng":"-100.48828"},{"label":"Colonia los Cedros","lat":"19.31167","lng":"-99.54111"},{"label":"Colonia los Cerritos","lat":"18.95389","lng":"-99.1925"},{"label":"Colonia los Remedios","lat":"19.73444","lng":"-98.79111"},{"label":"Colonia Luces en el Mar","lat":"16.92162","lng":"-100.01526"},{"label":"Colonia Manuel González","lat":"19.11495","lng":"-96.85939"},{"label":"Colonia Michoacana","lat":"24.72476","lng":"-107.63201"},{"label":"Colonia Miguel Hidalgo","lat":"19.78583","lng":"-101.10139"},{"label":"Colonia Militar","lat":"20.11139","lng":"-98.70306"},{"label":"Colonia Montemariana (Colonia Mariana)","lat":"23.32639","lng":"-103.11222"},{"label":"Colonia Morelos","lat":"20.36832","lng":"-101.89937"},{"label":"Colonia Morelos","lat":"19.63778","lng":"-99.33917"},{"label":"Colonia Morelos","lat":"19.89056","lng":"-98.81667"},{"label":"Colonia Morelos","lat":"19.24647","lng":"-99.74599"},{"label":"Colonia Morelos (El Nueve)","lat":"20.225","lng":"-99.14111"},{"label":"Colonia Morelos de Guadalupe de Rivera","lat":"20.59556","lng":"-101.44833"},{"label":"Colonia Nativitas","lat":"19.38119","lng":"-99.13685"},{"label":"Colonia Nicolás Bravo (Kilómetro Noventa y Dos)","lat":"28.09222","lng":"-105.52778"},{"label":"Colonia Nueva Era","lat":"30.50667","lng":"-115.9225"},{"label":"Colonia Nueva Revolución","lat":"16.89833","lng":"-99.80583"},{"label":"Colonia Nuevo México","lat":"20.98475","lng":"-101.48502"},{"label":"Colonia Obrera","lat":"15.09806","lng":"-92.49806"},{"label":"Colonia Obrera","lat":"18.93167","lng":"-99.03889"},{"label":"Colonia Obrera","lat":"19.22944","lng":"-97.7975"},{"label":"Colonia Padre Hidalgo","lat":"21.17056","lng":"-100.93556"},{"label":"Colonia Palma","lat":"19.56444","lng":"-99.42417"},{"label":"Colonia Palo Prieto (Chipitongo)","lat":"18.70417","lng":"-99.11278"},{"label":"Colonia Paraíso Escondido","lat":"21.05333","lng":"-105.23833"},{"label":"Colonia Patria Nueva","lat":"20.52833","lng":"-100.87944"},{"label":"Colonia Pedro María Anaya","lat":"20.52611","lng":"-100.87778"},{"label":"Colonia Plenitud","lat":"23.2325","lng":"-103.075"},{"label":"Colonia Progreso","lat":"16.80111","lng":"-95.07972"},{"label":"Colonia Rafael Corrales Ayala","lat":"20.90194","lng":"-101.51611"},{"label":"Colonia Reforma Tlalmimilolpan","lat":"19.38806","lng":"-99.48889"},{"label":"Colonia Renacimiento","lat":"16.76278","lng":"-98.18222"},{"label":"Colonia Revolución","lat":"28.24167","lng":"-105.44361"},{"label":"Colonia Ricardo Flores Magón","lat":"19.26833","lng":"-99.75833"},{"label":"Colonia Rincón Viejo","lat":"16.88678","lng":"-95.04731"},{"label":"Colonia Rincón Villa del Valle","lat":"19.20966","lng":"-100.11917"},{"label":"Colonia Río Lerma (Tic Ti)","lat":"19.80556","lng":"-99.89722"},{"label":"Colonia San Francisco","lat":"18.89611","lng":"-98.90361"},{"label":"Colonia San Francisco (San Francisco)","lat":"22.30361","lng":"-101.82056"},{"label":"Colonia San Francisco de Asís","lat":"19.57861","lng":"-99.75444"},{"label":"Colonia San Isidro","lat":"19.41167","lng":"-98.11278"},{"label":"Colonia San Juan","lat":"20.19028","lng":"-99.28278"},{"label":"Colonia San Luis","lat":"16.38","lng":"-95.24111"},{"label":"Colonia San Luis Rey","lat":"20.93556","lng":"-100.73611"},{"label":"Colonia San Ramón","lat":"18.96833","lng":"-99.57222"},{"label":"Colonia Santa Bárbara","lat":"19.50191","lng":"-96.87817"},{"label":"Colonia Santa Cecilia (La Sauceda)","lat":"21.2525","lng":"-102.35139"},{"label":"Colonia Sesenta y Dos","lat":"20.00528","lng":"-99.34583"},{"label":"Colonia Teñhe","lat":"20.19291","lng":"-99.17866"},{"label":"Colonia Terrazas","lat":"28.23795","lng":"-105.46527"},{"label":"Colonia Tulteca Teopan","lat":"19.56139","lng":"-98.84417"},{"label":"Colonia Úrsulo Galván","lat":"19.42862","lng":"-96.97842"},{"label":"Colonia Veinte de Noviembre","lat":"21.97917","lng":"-100.04981"},{"label":"Colonia Veintitrés de Mayo","lat":"21.01","lng":"-102.19778"},{"label":"Colonia Venustiano Carranza","lat":"19.40005","lng":"-98.05822"},{"label":"Colonia Venustiano Carranza","lat":"32.237","lng":"-115.16656"},{"label":"Colonia Venustiano Carranza","lat":"28.63861","lng":"-100.55667"},{"label":"Colonia Vista Bella (Lomas del Peaje)","lat":"19.49083","lng":"-101.59389"},{"label":"Colonia Wenceslao Labra","lat":"19.82773","lng":"-99.12435"},{"label":"Colonia Yucatán","lat":"21.21305","lng":"-87.72416"},{"label":"Colonias Pedernales","lat":"20.04583","lng":"-97.05139"},{"label":"Colorines","lat":"19.17829","lng":"-100.21817"},{"label":"Colorines","lat":"18.88472","lng":"-96.97833"},{"label":"Colotepec","lat":"17.04104","lng":"-99.21273"},{"label":"Colotlán","lat":"22.11299","lng":"-103.26707"},{"label":"Colotlipa","lat":"17.41242","lng":"-99.16711"},{"label":"Colucan","lat":"18.50905","lng":"-98.48078"},{"label":"Comachuén","lat":"19.57132","lng":"-101.90433"},{"label":"Comala","lat":"19.32717","lng":"-103.75926"},{"label":"Comalapa","lat":"15.65924","lng":"-92.14237"},{"label":"Comalcalco","lat":"18.26316","lng":"-93.22397"},{"label":"Comales","lat":"26.18187","lng":"-98.92037"},{"label":"Comaltepec","lat":"19.85893","lng":"-97.59938"},{"label":"Comanjá","lat":"19.74696","lng":"-101.6908"},{"label":"Comanjilla","lat":"21.0651","lng":"-101.47303"},{"label":"Comapa","lat":"19.16404","lng":"-96.8866"},{"label":"Comején","lat":"18.06126","lng":"-94.88552"},{"label":"Comitán","lat":"16.2471","lng":"-92.13515"},{"label":"Comoapan","lat":"18.40684","lng":"-95.17415"},{"label":"Comonfort","lat":"20.72278","lng":"-100.75946"},{"label":"Compostela","lat":"21.23777","lng":"-104.9001"},{"label":"Compuertas","lat":"25.74681","lng":"-103.3025"},{"label":"Concá","lat":"21.44477","lng":"-99.63582"},{"label":"Concentración 5 de Febrero","lat":"25.85639","lng":"-108.62944"},{"label":"Concepción","lat":"16.80908","lng":"-92.96526"},{"label":"Concepción Capulac (La Ex-Hacienda)","lat":"19.09444","lng":"-98.06139"},{"label":"Concepción Caro","lat":"19.77139","lng":"-99.90917"},{"label":"Concepción Chimalpa","lat":"19.21639","lng":"-98.19806"},{"label":"Concepción Cuautla","lat":"18.86722","lng":"-97.98475"},{"label":"Concepción de Buenos Aires","lat":"19.97822","lng":"-103.25981"},{"label":"Concepción del Monte","lat":"19.65128","lng":"-100.1544"},{"label":"Concepción del Oro","lat":"24.61326","lng":"-101.41844"},{"label":"Concepción Hidalgo","lat":"19.3981","lng":"-97.81951"},{"label":"Concepción Jolalpan","lat":"19.58399","lng":"-98.84643"},{"label":"Concepción la Venta","lat":"19.69144","lng":"-100.15181"},{"label":"Conchos","lat":"27.58745","lng":"-105.33358"},{"label":"Concordia","lat":"23.28694","lng":"-106.06389"},{"label":"Concordia","lat":"25.77982","lng":"-103.11696"},{"label":"Condémbaro","lat":"19.29292","lng":"-102.30401"},{"label":"Conejeras","lat":"20.01271","lng":"-99.96202"},{"label":"Conejos","lat":"19.9757","lng":"-99.24337"},{"label":"Coneto de Comonfort","lat":"24.98089","lng":"-104.77055"},{"label":"Congregación Calles","lat":"25.22528","lng":"-99.93472"},{"label":"Congregación el Tajín","lat":"20.43047","lng":"-97.38183"},{"label":"Congregación Hidalgo","lat":"17.9375","lng":"-94.97056"},{"label":"Congregación Ortíz","lat":"28.25375","lng":"-105.51922"},{"label":"Congregación Reforma","lat":"14.78208","lng":"-92.31424"},{"label":"Conjunto Habitacional Ecológico SUTEYM","lat":"19.36889","lng":"-99.77861"},{"label":"Conjunto Habitacional el Trébol","lat":"19.76694","lng":"-101.15472"},{"label":"Conjunto Habitacional Villas del Pedregal","lat":"19.68361","lng":"-101.30361"},{"label":"Conjunto Urbano la Loma I","lat":"19.32639","lng":"-99.73194"},{"label":"Conkal","lat":"21.07355","lng":"-89.51963"},{"label":"Constancia","lat":"25.96219","lng":"-108.89937"},{"label":"Constancia del Rosario","lat":"17.0382","lng":"-97.94125"},{"label":"Constancio Farfán (La Pascuala)","lat":"18.74194","lng":"-98.95389"},{"label":"Constitución","lat":"18.62675","lng":"-90.13584"},{"label":"Constitución","lat":"18.07278","lng":"-92.87194"},{"label":"Constitución","lat":"17.07556","lng":"-92.52417"},{"label":"Constitución Mexicana","lat":"17.34102","lng":"-95.37326"},{"label":"Contepec","lat":"19.95432","lng":"-100.16385"},{"label":"Contla","lat":"19.32932","lng":"-98.1664"},{"label":"Copainalá","lat":"17.09366","lng":"-93.21059"},{"label":"Copala","lat":"16.60774","lng":"-98.97821"},{"label":"Copala","lat":"19.61123","lng":"-103.77188"},{"label":"Copalillo","lat":"18.03427","lng":"-99.04124"},{"label":"Copanatoyac","lat":"17.46335","lng":"-98.71362"},{"label":"Copándaro (Copándaro del Cuatro)","lat":"19.90057","lng":"-101.65945"},{"label":"Copándaro de Galeana","lat":"19.89254","lng":"-101.21394"},{"label":"Copila","lat":"20.273","lng":"-98.08294"},{"label":"Copoya","lat":"16.71191","lng":"-93.12089"},{"label":"Coquimatlán","lat":"19.20625","lng":"-103.80952"},{"label":"Corcovado","lat":"22.39517","lng":"-100.69337"},{"label":"Córdoba","lat":"18.8842","lng":"-96.92559"},{"label":"Córdoba (Santa Leticia)","lat":"18.90861","lng":"-96.97889"},{"label":"Corerepe","lat":"25.62786","lng":"-108.71488"},{"label":"Coronado","lat":"26.73839","lng":"-105.15902"},{"label":"Coronango","lat":"19.1209","lng":"-98.30594"},{"label":"Coronel Tito Hernández","lat":"20.45642","lng":"-97.73607"},{"label":"Coroneo","lat":"20.20001","lng":"-100.36546"},{"label":"Corozal","lat":"21.54627","lng":"-98.55444"},{"label":"Corral de Barrancos","lat":"21.95028","lng":"-102.33222"},{"label":"Corral de Piedra","lat":"18.24528","lng":"-96.30556"},{"label":"Corral de Piedras de Arriba","lat":"20.97577","lng":"-100.59474"},{"label":"Corral del Risco (Punta de Mita)","lat":"20.77361","lng":"-105.51667"},