[{"label":"Alto Molocue","lat":"-15.63556","lng":"37.68833"},{"label":"Angoche","lat":"-16.2325","lng":"39.90861"},{"label":"Bairro 25 de Junho A","lat":"-25.90028","lng":"32.55556"},{"label":"Bairro 25 de Junho B","lat":"-25.90111","lng":"32.5775"},{"label":"Beira","lat":"-19.84361","lng":"34.83889"},{"label":"Bela Vista","lat":"-26.34065","lng":"32.66746"},{"label":"Bilene","lat":"-25.27264","lng":"33.24205"},{"label":"Boane","lat":"-26.04236","lng":"32.33027"},{"label":"Búzi","lat":"-19.86439","lng":"34.46735"},{"label":"Caia","lat":"-17.82028","lng":"35.34417"},{"label":"Caniçado","lat":"-24.41703","lng":"32.94287"},{"label":"Catandica","lat":"-18.0575","lng":"33.17361"},{"label":"Chibuto","lat":"-24.68667","lng":"33.53056"},{"label":"Chimoio","lat":"-19.11639","lng":"33.48333"},{"label":"Chinde","lat":"-18.58111","lng":"36.45861"},{"label":"Chiúre","lat":"-13.3825","lng":"39.78167"},{"label":"Chokwé","lat":"-24.53333","lng":"32.98333"},{"label":"Cuamba","lat":"-14.80306","lng":"36.53722"},{"label":"Dondo","lat":"-19.60944","lng":"34.74306"},{"label":"Gondola","lat":"-19.08833","lng":"33.64861"},{"label":"Gorongosa","lat":"-18.67556","lng":"34.07278"},{"label":"Gurúè","lat":"-15.46694","lng":"36.97778"},{"label":"Homoíne","lat":"-23.88444","lng":"35.15139"},{"label":"Iapala","lat":"-15.025","lng":"38.0425"},{"label":"Ibo","lat":"-12.3426","lng":"40.5859"},{"label":"Inhambane","lat":"-23.865","lng":"35.38333"},{"label":"Inhaminga","lat":"-18.41528","lng":"35.0225"},{"label":"Inharrime","lat":"-24.47694","lng":"35.03028"},{"label":"Inhassoro","lat":"-21.53472","lng":"35.20222"},{"label":"Insaca","lat":"-15.19783","lng":"35.87091"},{"label":"Lichinga","lat":"-13.31278","lng":"35.24056"},{"label":"Luabo","lat":"-18.39278","lng":"36.10528"},{"label":"Machipanda","lat":"-18.98604","lng":"32.73553"},{"label":"Macia","lat":"-25.02694","lng":"33.09889"},{"label":"Macomia","lat":"-12.24667","lng":"40.12083"},{"label":"Maganja","lat":"-17.31197","lng":"37.50784"},{"label":"Magude","lat":"-25.02306","lng":"32.64806"},{"label":"Malema","lat":"-14.94747","lng":"37.41591"},{"label":"Mandimba","lat":"-14.3525","lng":"35.65056"},{"label":"Manhiça","lat":"-25.40222","lng":"32.80722"},{"label":"Manica","lat":"-18.93444","lng":"32.87556"},{"label":"Manjacaze","lat":"-24.72389","lng":"33.85639"},{"label":"Maputo","lat":"-25.96553","lng":"32.58322"},{"label":"Marracuene","lat":"-25.73694","lng":"32.67639"},{"label":"Marromeu","lat":"-18.29083","lng":"35.94528"},{"label":"Marrupa","lat":"-13.18877","lng":"37.50453"},{"label":"Massinga","lat":"-23.32917","lng":"35.38139"},{"label":"Matola","lat":"-25.96222","lng":"32.45889"},{"label":"Maxixe","lat":"-23.85972","lng":"35.34722"},{"label":"Meconta","lat":"-14.9925","lng":"39.84667"},{"label":"Messica","lat":"-18.99161","lng":"33.08226"},{"label":"Metangula","lat":"-12.695","lng":"34.81583"},{"label":"Micolene","lat":"-16.73333","lng":"39.23333"},{"label":"Milange","lat":"-16.09861","lng":"35.77"},{"label":"Moamba","lat":"-25.60268","lng":"32.24607"},{"label":"Moatize","lat":"-16.11528","lng":"33.72944"},{"label":"Mocímboa","lat":"-11.31667","lng":"40.35"},{"label":"Mocímboa da Praia","lat":"-11.35172","lng":"40.35158"},{"label":"Mocuba","lat":"-16.8375","lng":"36.98556"},{"label":"Monapo","lat":"-14.91694","lng":"40.30222"},{"label":"Montepuez","lat":"-13.12556","lng":"38.99972"},{"label":"Morrumbala","lat":"-17.32694","lng":"35.58417"},{"label":"Morrumbene","lat":"-23.65778","lng":"35.345"},{"label":"Mossuril","lat":"-14.96778","lng":"40.66389"},{"label":"Mozambique","lat":"-15.03466","lng":"40.73447"},{"label":"Mueda","lat":"-11.66278","lng":"39.55056"},{"label":"Murrupula","lat":"-15.45694","lng":"38.67722"},{"label":"Mutuáli","lat":"-14.87056","lng":"37.00444"},{"label":"Nacala","lat":"-14.56257","lng":"40.68538"},{"label":"Namaacha","lat":"-25.97502","lng":"32.01897"},{"label":"Namacurra","lat":"-17.49194","lng":"37.02889"},{"label":"Namapa-erati","lat":"-13.71302","lng":"39.83151"},{"label":"Nametil","lat":"-15.72028","lng":"39.3425"},{"label":"Namialo","lat":"-14.92056","lng":"39.98361"},{"label":"Nampula","lat":"-15.11646","lng":"39.2666"},{"label":"Nhamatanda","lat":"-19.26917","lng":"34.21278"},{"label":"Nhamayabué","lat":"-17.42056","lng":"35.06583"},{"label":"Nova Mambone","lat":"-20.98806","lng":"35.02222"},{"label":"Pebane","lat":"-17.26417","lng":"38.135"},{"label":"Pemba","lat":"-12.97395","lng":"40.51775"},{"label":"Quelimane","lat":"-17.87861","lng":"36.88833"},{"label":"Quissico","lat":"-24.72028","lng":"34.7425"},{"label":"Ressano Garcia","lat":"-25.44278","lng":"31.99528"},{"label":"Ribáuè","lat":"-14.94473","lng":"38.32362"},{"label":"Sanga","lat":"-12.90597","lng":"35.05008"},{"label":"Songo","lat":"-15.59583","lng":"32.76472"},{"label":"Tete","lat":"-16.15639","lng":"33.58667"},{"label":"Ulongué","lat":"-14.72278","lng":"34.36083"},{"label":"Vila Eduardo Mondlane","lat":"-22.07917","lng":"31.67861"},{"label":"Vilankulo","lat":"-22","lng":"35.31667"},{"label":"Xilembene","lat":"-24.68941","lng":"33.25844"},{"label":"Xinavane","lat":"-25.16047","lng":"32.80038"}]