[{"label":"António Enes","lat":"-16.2325","lng":"39.90861"},{"label":"Bairro 25 de Junho A","lat":"-25.90028","lng":"32.55556"},{"label":"Bairro 25 de Junho B","lat":"-25.90111","lng":"32.5775"},{"label":"Beira","lat":"-19.84361","lng":"34.83889"},{"label":"Chibuto","lat":"-24.68667","lng":"33.53056"},{"label":"Chimoio","lat":"-19.11639","lng":"33.48333"},{"label":"Chinde","lat":"-18.58111","lng":"36.45861"},{"label":"Chokwé","lat":"-24.53333","lng":"32.98333"},{"label":"Cuamba","lat":"-14.80306","lng":"36.53722"},{"label":"Dondo","lat":"-19.60944","lng":"34.74306"},{"label":"Inhambane","lat":"-23.865","lng":"35.38333"},{"label":"Lichinga","lat":"-13.31278","lng":"35.24056"},{"label":"Macia","lat":"-25.02694","lng":"33.09889"},{"label":"Mandimba","lat":"-14.3525","lng":"35.65056"},{"label":"Manhiça","lat":"-25.40222","lng":"32.80722"},{"label":"Maputo","lat":"-25.96553","lng":"32.58322"},{"label":"Matola","lat":"-25.96222","lng":"32.45889"},{"label":"Maxixe","lat":"-23.85972","lng":"35.34722"},{"label":"Mocímboa","lat":"-11.31667","lng":"40.35"},{"label":"Montepuez","lat":"-13.12556","lng":"38.99972"},{"label":"Mozambique","lat":"-15.03466","lng":"40.73447"},{"label":"Mutuáli","lat":"-14.87056","lng":"37.00444"},{"label":"Nacala","lat":"-14.56257","lng":"40.68538"},{"label":"Nampula","lat":"-15.11646","lng":"39.2666"},{"label":"Pemba","lat":"-12.97395","lng":"40.51775"},{"label":"Quelimane","lat":"-17.87861","lng":"36.88833"},{"label":"Ressano Garcia","lat":"-25.44278","lng":"31.99528"},{"label":"Tete","lat":"-16.15639","lng":"33.58667"}]