[{"label":"Aba","lat":"5.10658","lng":"7.36667"},{"label":"Abagana","lat":"6.19031","lng":"6.99357"},{"label":"Abaji","lat":"8.47581","lng":"6.94321"},{"label":"Abak","lat":"4.98236","lng":"7.78922"},{"label":"Abakaliki","lat":"6.32485","lng":"8.11368"},{"label":"Abat","lat":"4.61712","lng":"7.86639"},{"label":"Abejukolo","lat":"7.86808","lng":"7.50907"},{"label":"Abeokuta","lat":"7.15571","lng":"3.34509"},{"label":"Abigi","lat":"6.48676","lng":"4.39531"},{"label":"Abocho","lat":"7.5677","lng":"6.9863"},{"label":"Aboh","lat":"5.54781","lng":"6.52588"},{"label":"Aboh","lat":"5.47569","lng":"7.27161"},{"label":"Abonnema","lat":"4.73171","lng":"6.77223"},{"label":"Abraka","lat":"5.79023","lng":"6.10473"},{"label":"Abua","lat":"4.85763","lng":"6.64519"},{"label":"Abudu","lat":"6.29489","lng":"6.02995"},{"label":"Abuja","lat":"9.05785","lng":"7.49508"},{"label":"Abuochiche","lat":"6.69132","lng":"8.94337"},{"label":"Achalla","lat":"6.33465","lng":"6.98863"},{"label":"Adani","lat":"6.73971","lng":"7.01117"},{"label":"Adikpo","lat":"6.89002","lng":"9.23351"},{"label":"Ado-Ekiti","lat":"7.62329","lng":"5.22087"},{"label":"Ado-Odo","lat":"6.59546","lng":"2.94176"},{"label":"Adogo","lat":"7.51004","lng":"6.4798"},{"label":"Adoru","lat":"6.97694","lng":"7.16262"},{"label":"Afaha Ikot Ebak","lat":"5.12504","lng":"7.65716"},{"label":"Afaha Offiong","lat":"4.86226","lng":"7.90626"},{"label":"Afam","lat":"4.79004","lng":"7.31187"},{"label":"Afikpo","lat":"5.89258","lng":"7.93534"},{"label":"Afon","lat":"8.31313","lng":"4.52738"},{"label":"Afor-Oru","lat":"5.5411","lng":"7.26845"},{"label":"Afuze","lat":"6.96945","lng":"6.04254"},{"label":"Agaie","lat":"9.0085","lng":"6.31821"},{"label":"Agbabu","lat":"6.58862","lng":"4.8343"},{"label":"Agbani","lat":"6.30669","lng":"7.54862"},{"label":"Agbor","lat":"6.25375","lng":"6.1942"},{"label":"Agege","lat":"6.61563","lng":"3.33337"},{"label":"Agenebode","lat":"7.10512","lng":"6.69381"},{"label":"Ago-Amodu","lat":"8.62314","lng":"3.61419"},{"label":"Ago-Are","lat":"8.50498","lng":"3.42125"},{"label":"Aguata","lat":"6.01634","lng":"7.08782"},{"label":"Agulu","lat":"6.10045","lng":"7.061"},{"label":"Aguobu-Owa","lat":"6.37229","lng":"7.27178"},{"label":"Agwara","lat":"10.70611","lng":"4.58125"},{"label":"Ahoada","lat":"5.0828","lng":"6.64981"},{"label":"Aiyetoro","lat":"6.45917","lng":"3.3425"},{"label":"Ajaawa","lat":"7.93118","lng":"4.12654"},{"label":"Ajaka","lat":"7.17416","lng":"6.82535"},{"label":"Ajalli","lat":"6.04427","lng":"7.20864"},{"label":"Ajaokuta","lat":"7.56229","lng":"6.65497"},{"label":"Ajasse Ipo","lat":"8.23333","lng":"4.81667"},{"label":"Ajegunle","lat":"6.45197","lng":"3.33115"},{"label":"Ajingi","lat":"11.96826","lng":"9.03679"},{"label":"Akamkpa","lat":"5.31246","lng":"8.35515"},{"label":"Akankpa","lat":"5.1264","lng":"8.1898"},{"label":"Akanran","lat":"7.28075","lng":"4.02557"},{"label":"Ake-Eze","lat":"5.91677","lng":"7.67615"},{"label":"Akinima","lat":"5.08536","lng":"6.46633"},{"label":"Akko","lat":"10.28899","lng":"10.9732"},{"label":"Akodo","lat":"6.43787","lng":"3.9309"},{"label":"Akowonjo","lat":"6.61012","lng":"3.30968"},{"label":"Akpafa","lat":"7.47192","lng":"6.14979"},{"label":"Akpet Central","lat":"5.62105","lng":"8.10163"},{"label":"Aku","lat":"6.70902","lng":"7.31826"},{"label":"Akure","lat":"7.25256","lng":"5.19312"},{"label":"Akwanga","lat":"8.91077","lng":"8.40655"},{"label":"Akwete","lat":"4.88688","lng":"7.35686"},{"label":"Akwukwu-Igbo","lat":"6.35753","lng":"6.59066"},{"label":"Alapa","lat":"8.61667","lng":"4.38333"},{"label":"Albasu","lat":"11.67403","lng":"9.14059"},{"label":"Aliade","lat":"7.29627","lng":"8.48278"},{"label":"Aliayabiagba","lat":"6.45","lng":"3.33333"},{"label":"Aliero","lat":"12.28835","lng":"4.47139"},{"label":"Alimosho","lat":"6.60656","lng":"3.30235"},{"label":"Alkaleri","lat":"10.26688","lng":"10.33238"},{"label":"Amagunze","lat":"6.33063","lng":"7.65247"},{"label":"Amaigbo","lat":"5.73016","lng":"7.1151"},{"label":"Amaigbo","lat":"5.78917","lng":"7.83829"},{"label":"Amassoma","lat":"4.97032","lng":"6.10915"},{"label":"Amper","lat":"9.35509","lng":"9.70121"},{"label":"Anaku","lat":"6.46875","lng":"6.92893"},{"label":"Anchau","lat":"10.96245","lng":"8.39233"},{"label":"Angware","lat":"9.99105","lng":"9.10811"},{"label":"Anka","lat":"12.11347","lng":"5.92681"},{"label":"Ankpa","lat":"7.40249","lng":"7.63196"},{"label":"Apapa","lat":"6.4488","lng":"3.35901"},{"label":"Apomu","lat":"7.35156","lng":"4.18335"},{"label":"Aramoko-Ekiti","lat":"7.70483","lng":"5.04054"},{"label":"Araromi-Opin","lat":"8.0652","lng":"5.25575"},{"label":"Argungu","lat":"12.74482","lng":"4.52514"},{"label":"Arochukwu","lat":"5.38941","lng":"7.91235"},{"label":"Asaba","lat":"6.19824","lng":"6.73187"},{"label":"Askira","lat":"10.65086","lng":"12.90883"},{"label":"Atan","lat":"6.89456","lng":"4.00715"},{"label":"Atani","lat":"6.01277","lng":"6.74768"},{"label":"Auchi","lat":"7.06756","lng":"6.2636"},{"label":"Augie","lat":"12.89027","lng":"4.59965"},{"label":"Auna","lat":"10.18805","lng":"4.72318"},{"label":"Auyo","lat":"12.33338","lng":"9.93891"},{"label":"Awe","lat":"8.10445","lng":"9.14011"},{"label":"Awgu","lat":"6.07278","lng":"7.47739"},{"label":"Awka","lat":"6.21269","lng":"7.07199"},{"label":"Awo","lat":"7.76767","lng":"4.39528"},{"label":"Awo-Idemili","lat":"5.82648","lng":"6.93374"},{"label":"Ayete","lat":"7.54363","lng":"3.22304"},{"label":"Ayetoro","lat":"7.24281","lng":"3.02639"},{"label":"Azare","lat":"11.67478","lng":"10.19069"},{"label":"Azare","lat":"10.52583","lng":"12.29115"},{"label":"Baap","lat":"8.94321","lng":"9.24126"},{"label":"Babana","lat":"10.42949","lng":"3.81495"},{"label":"Babban Gida","lat":"12.15482","lng":"11.7709"},{"label":"Babura","lat":"12.77256","lng":"9.01525"},{"label":"Badagry","lat":"6.41502","lng":"2.88132"},{"label":"Badeggi","lat":"9.0563","lng":"6.143"},{"label":"Bagudo","lat":"11.40351","lng":"4.22571"},{"label":"Bagwai","lat":"12.1577","lng":"8.1358"},{"label":"Baissa","lat":"7.23087","lng":"10.62444"},{"label":"Bajoga","lat":"10.85152","lng":"11.43169"},{"label":"Bakori","lat":"11.55559","lng":"7.42419"},{"label":"Bakura","lat":"12.71141","lng":"5.87367"},{"label":"Balle","lat":"13.47029","lng":"4.68119"},{"label":"Bama","lat":"11.52134","lng":"13.68952"},{"label":"Bangi","lat":"10.83368","lng":"5.82688"},{"label":"Bara","lat":"10.93605","lng":"11.68242"},{"label":"Bara","lat":"10.37444","lng":"10.72884"},{"label":"Barkin Ladi","lat":"9.53812","lng":"8.8927"},{"label":"Baro","lat":"8.61565","lng":"6.4185"},{"label":"Bassa","lat":"9.94249","lng":"8.74042"},{"label":"Batagarawa","lat":"12.90611","lng":"7.60586"},{"label":"Batsari","lat":"12.75551","lng":"7.24809"},{"label":"Bauchi","lat":"10.31032","lng":"9.84388"},{"label":"Baure","lat":"12.83772","lng":"8.74513"},{"label":"Bebeji","lat":"11.66768","lng":"8.262"},{"label":"Beli","lat":"7.85868","lng":"10.97187"},{"label":"Bena","lat":"11.28444","lng":"5.93472"},{"label":"Bende","lat":"5.55874","lng":"7.63359"},{"label":"Benin City","lat":"6.33815","lng":"5.62575"},{"label":"Benisheikh","lat":"11.80919","lng":"12.49151"},{"label":"Besse","lat":"11.26676","lng":"4.43114"},{"label":"Bichi","lat":"12.23385","lng":"8.24063"},{"label":"Bida","lat":"9.08044","lng":"6.0099"},{"label":"Biliri","lat":"9.86709","lng":"11.22594"},{"label":"Billiri","lat":"9.89024","lng":"11.21794"},{"label":"Bin Yauri","lat":"10.7823","lng":"4.81135"},{"label":"Bindawa","lat":"12.66987","lng":"7.80865"},{"label":"Binji","lat":"13.22294","lng":"4.90888"},{"label":"Birnin Gwari","lat":"10.66374","lng":"6.54003"},{"label":"Birnin Kebbi","lat":"12.45389","lng":"4.1975"},{"label":"Birnin Kudu","lat":"11.45207","lng":"9.47856"},{"label":"Birnin Magaji","lat":"12.5592","lng":"6.89459"},{"label":"Birniwa","lat":"12.7907","lng":"10.23614"},{"label":"Biu","lat":"10.61285","lng":"12.19458"},{"label":"Bode Osi","lat":"7.74874","lng":"4.22833"},{"label":"Bode Saadu","lat":"8.939","lng":"4.78227"},{"label":"Bodinga","lat":"12.84413","lng":"5.15001"},{"label":"Bogoro","lat":"9.66904","lng":"9.60528"},{"label":"Boh","lat":"9.78187","lng":"11.27882"},{"label":"Boi","lat":"9.56109","lng":"9.50154"},{"label":"Boje","lat":"6.28428","lng":"8.92062"},{"label":"Boju","lat":"7.35572","lng":"7.89303"},{"label":"Bokani","lat":"9.43333","lng":"5.2"},{"label":"Bokkos","lat":"9.29921","lng":"8.99467"},{"label":"Bolorunduro","lat":"7.16586","lng":"4.9637"},{"label":"Bomadi","lat":"5.16073","lng":"5.92375"},{"label":"Bonny","lat":"4.4516","lng":"7.17074"},{"label":"Bori","lat":"4.67629","lng":"7.36519"},{"label":"Bornu Yassu","lat":"12.27503","lng":"12.56856"},{"label":"Briyel","lat":"10.34764","lng":"11.6099"},{"label":"Buga","lat":"8.4834","lng":"7.32612"},{"label":"Bugana","lat":"7.99917","lng":"7.58361"},{"label":"Buguma","lat":"4.73614","lng":"6.86236"},{"label":"Bukkuyum","lat":"12.1372","lng":"5.46821"},{"label":"Bukuru","lat":"9.79399","lng":"8.86397"},{"label":"Bungudu","lat":"12.26848","lng":"6.55288"},{"label":"Buni Yadi","lat":"11.27441","lng":"12.00852"},{"label":"Bunkure","lat":"11.69924","lng":"8.54127"},{"label":"Bununu","lat":"9.88224","lng":"9.68058"},{"label":"Bunza","lat":"12.08821","lng":"4.0152"},{"label":"Buruku","lat":"7.45961","lng":"9.20455"},{"label":"Burumburum","lat":"11.39106","lng":"8.72341"},{"label":"Burutu","lat":"5.35328","lng":"5.50826"},{"label":"Bwari","lat":"9.27995","lng":"7.38045"},{"label":"Calabar","lat":"4.95893","lng":"8.32695"},{"label":"Chakwama","lat":"11.55965","lng":"9.66407"},{"label":"Charanchi","lat":"12.67155","lng":"7.72929"},{"label":"Chibok","lat":"10.86949","lng":"12.84657"},{"label":"Dabai","lat":"11.47651","lng":"5.20625"},{"label":"Dadiya","lat":"9.61947","lng":"11.44118"},{"label":"Dakingari","lat":"11.64809","lng":"4.06177"},{"label":"Damagum","lat":"11.67824","lng":"11.33517"},{"label":"Damasak","lat":"13.10518","lng":"12.50854"},{"label":"Damaturu","lat":"11.74697","lng":"11.96083"},{"label":"Dambam","lat":"11.67893","lng":"10.70792"},{"label":"Dambatta","lat":"12.435","lng":"8.51531"},{"label":"Damboa","lat":"11.15534","lng":"12.75638"},{"label":"Dan Gora","lat":"11.53485","lng":"8.15224"},{"label":"Dan Musa","lat":"12.26157","lng":"7.33409"},{"label":"Dan Sadau","lat":"11.29621","lng":"6.4952"},{"label":"Dandume","lat":"11.4588","lng":"7.12602"},{"label":"Dange","lat":"12.85313","lng":"5.34572"},{"label":"Danja","lat":"11.3771","lng":"7.56097"},{"label":"Dankalwa","lat":"11.74449","lng":"12.18545"},{"label":"Dankama","lat":"13.29782","lng":"7.79492"},{"label":"Dapchi","lat":"12.49536","lng":"11.49977"},{"label":"Darazo","lat":"10.9992","lng":"10.41062"},{"label":"Dass","lat":"10.00065","lng":"9.51596"},{"label":"Daura","lat":"13.03299","lng":"8.32351"},{"label":"Daura","lat":"11.5541","lng":"11.406"},{"label":"Dawakin Kudu","lat":"11.83727","lng":"8.59699"},{"label":"Dawakin Tofa","lat":"12.10452","lng":"8.32999"},{"label":"Deba","lat":"10.21187","lng":"11.3871"},{"label":"Degema","lat":"4.74807","lng":"6.76618"},{"label":"Degema Hulk","lat":"4.76145","lng":"6.74957"},{"label":"Dekina","lat":"7.68967","lng":"7.0438"},{"label":"Demsa","lat":"9.45566","lng":"12.15249"},{"label":"Dengi","lat":"9.36872","lng":"9.96223"},{"label":"Dikenafai","lat":"5.77015","lng":"7.15473"},{"label":"Dikwa","lat":"12.03609","lng":"13.91815"},{"label":"Dindima","lat":"10.22629","lng":"10.15132"},{"label":"Disina","lat":"11.48135","lng":"9.91903"},{"label":"Doma","lat":"8.39307","lng":"8.35544"},{"label":"Donga","lat":"7.72175","lng":"10.04526"},{"label":"Dukku","lat":"10.82379","lng":"10.77221"},{"label":"Duku","lat":"11.2361","lng":"4.90727"},{"label":"Dutse","lat":"11.75618","lng":"9.33896"},{"label":"Dutsen Wai","lat":"10.85009","lng":"8.199"},{"label":"Dutsi","lat":"12.82862","lng":"8.1398"},{"label":"Dutsin-Ma","lat":"12.45392","lng":"7.49723"},{"label":"Ebem Ohafia","lat":"5.63108","lng":"7.83024"},{"label":"Eberi","lat":"5.09117","lng":"7.2337"},{"label":"Ebute Ikorodu","lat":"6.60086","lng":"3.48818"},{"label":"Ebute-Metta","lat":"6.48799","lng":"3.38166"},{"label":"Ede","lat":"7.73635","lng":"4.43536"},{"label":"Effium","lat":"6.63105","lng":"8.05814"},{"label":"Effraya","lat":"5.85926","lng":"8.72301"},{"label":"Effurun","lat":"5.55629","lng":"5.78459"},{"label":"Efon-Alaaye","lat":"7.65649","lng":"4.92235"},{"label":"Egbe","lat":"8.21896","lng":"5.50757"},{"label":"Egbeda","lat":"7.3772","lng":"4.04975"},{"label":"Egbema","lat":"5.54435","lng":"6.7609"},{"label":"Eha Amufu","lat":"6.65915","lng":"7.75961"},{"label":"Ehor","lat":"6.6155","lng":"5.98238"},{"label":"Ejigbo","lat":"7.90303","lng":"4.31364"},{"label":"Ejirin","lat":"6.61423","lng":"3.90019"},{"label":"Ekeremor","lat":"5.05805","lng":"5.78048"},{"label":"Eket","lat":"4.64231","lng":"7.92438"},{"label":"Ekpoma","lat":"6.743","lng":"6.14029"},{"label":"Elele","lat":"5.1009","lng":"6.81411"},{"label":"Emuoha","lat":"4.884","lng":"6.8601"},{"label":"Emure-Ekiti","lat":"7.43636","lng":"5.45925"},{"label":"Enagi","lat":"9.12734","lng":"5.54387"},{"label":"Enugu","lat":"6.44132","lng":"7.49883"},{"label":"Enugu-Ezike","lat":"6.9827","lng":"7.45534"},{"label":"Enugu-Ukwu","lat":"6.17146","lng":"7.00525"},{"label":"Enwang","lat":"4.65643","lng":"8.25206"},{"label":"Epe","lat":"6.58412","lng":"3.98336"},{"label":"Eruwa","lat":"7.53906","lng":"3.42453"},{"label":"Esuk Oron","lat":"4.80293","lng":"8.25341"},{"label":"Ete","lat":"7.08956","lng":"7.45341"},{"label":"Eti-Osa","lat":"6.53094","lng":"3.32648"},{"label":"Etinan","lat":"4.84262","lng":"7.85252"},{"label":"Eyofin","lat":"4.7516","lng":"8.23056"},{"label":"Ezillo","lat":"6.4293","lng":"7.81787"},{"label":"Ezza-Ohu","lat":"6.44094","lng":"8.08432"},{"label":"Ezzamgbo","lat":"6.39895","lng":"7.96155"},{"label":"Faskari","lat":"11.72108","lng":"7.02991"},{"label":"Festac Town","lat":"6.4697","lng":"3.28299"},{"label":"Fiditi","lat":"7.71393","lng":"3.91665"},{"label":"Fika","lat":"11.28674","lng":"11.30772"},{"label":"Fufore","lat":"9.22175","lng":"12.64975"},{"label":"Fufu","lat":"8.44838","lng":"4.72077"},{"label":"Fugar","lat":"7.09076","lng":"6.49828"},{"label":"Funtua","lat":"11.52351","lng":"7.31174"},{"label":"Gabarin","lat":"11.1093","lng":"10.4441"},{"label":"Gada","lat":"13.7543","lng":"5.65723"},{"label":"Gagarawa","lat":"12.40848","lng":"9.52881"},{"label":"Gajiram","lat":"12.49149","lng":"13.21191"},{"label":"Gakem","lat":"6.76963","lng":"8.9912"},{"label":"Gamawa","lat":"12.13379","lng":"10.53785"},{"label":"Gamboru","lat":"12.37299","lng":"14.2069"},{"label":"Gandi","lat":"12.96358","lng":"5.74337"},{"label":"Gantsa","lat":"11.66312","lng":"9.72639"},{"label":"Ganye","lat":"8.43497","lng":"12.05107"},{"label":"Garaku","lat":"8.84717","lng":"8.13021"},{"label":"Garki","lat":"12.43456","lng":"9.19028"},{"label":"Garko","lat":"11.64974","lng":"8.80328"},{"label":"Garko","lat":"10.17506","lng":"11.16458"},{"label":"Garun Malam","lat":"11.68566","lng":"8.36986"},{"label":"Gashua","lat":"12.87398","lng":"11.04057"},{"label":"Gassol","lat":"8.53535","lng":"10.44615"},{"label":"Gawu Babangida","lat":"9.27827","lng":"6.99335"},{"label":"Gaya","lat":"11.86064","lng":"9.0027"},{"label":"Gbajimba","lat":"7.8204","lng":"8.85955"},{"label":"Gboko","lat":"7.32275","lng":"9.00108"},{"label":"Gbongan","lat":"7.47734","lng":"4.35351"},{"label":"Geidam","lat":"12.89439","lng":"11.92649"},{"label":"Gella","lat":"10.15738","lng":"13.30004"},{"label":"Gembu","lat":"6.72556","lng":"11.25652"},{"label":"Gezawa","lat":"12.10157","lng":"8.75029"},{"label":"Giade","lat":"11.39083","lng":"10.19987"},{"label":"Gidan Madi","lat":"13.29575","lng":"4.97467"},{"label":"Girei","lat":"9.36526","lng":"12.54621"},{"label":"Giwa","lat":"11.31568","lng":"7.44957"},{"label":"Gombe","lat":"10.28969","lng":"11.16729"},{"label":"Gombi","lat":"10.16756","lng":"12.73684"},{"label":"Goniri","lat":"11.48451","lng":"12.31264"},{"label":"Gora","lat":"11.91294","lng":"7.66531"},{"label":"Gorgoram","lat":"12.63958","lng":"10.70422"},{"label":"Goronyo","lat":"13.44226","lng":"5.67234"},{"label":"Gubio","lat":"12.49749","lng":"12.78089"},{"label":"Gudumbali","lat":"12.94284","lng":"13.17831"},{"label":"Gujba","lat":"11.49959","lng":"11.93396"},{"label":"Gulak","lat":"10.8053","lng":"13.45824"},{"label":"Gulma","lat":"12.64231","lng":"4.35545"},{"label":"Gumel","lat":"12.6269","lng":"9.38807"},{"label":"Gummi","lat":"12.14484","lng":"5.11776"},{"label":"Guri","lat":"12.7281","lng":"10.41989"},{"label":"Gusau","lat":"12.17024","lng":"6.66412"},{"label":"Guyuk","lat":"9.90663","lng":"11.92753"},{"label":"Gwadabawa","lat":"13.35819","lng":"5.23812"},{"label":"Gwagwalada","lat":"8.94342","lng":"7.08165"},{"label":"Gwandu","lat":"12.50204","lng":"4.64295"},{"label":"Gwantu","lat":"9.22899","lng":"8.45807"},{"label":"Gwaram","lat":"11.27727","lng":"9.88385"},{"label":"Gwaram","lat":"10.23295","lng":"10.28572"},{"label":"Gwarzo","lat":"11.91597","lng":"7.9337"},{"label":"Gwasoro","lat":"9.48733","lng":"3.50771"},{"label":"Gwio Kura","lat":"12.67479","lng":"11.0669"},{"label":"Gwiwa","lat":"12.78169","lng":"8.33722"},{"label":"Gwoza","lat":"11.08313","lng":"13.69595"},{"label":"Hadejia","lat":"12.45347","lng":"10.04115"},{"label":"Hinna","lat":"10.30426","lng":"11.49905"},{"label":"Holma","lat":"9.89863","lng":"13.0545"},{"label":"Hong","lat":"10.23305","lng":"12.92805"},{"label":"Hunkuyi","lat":"11.2668","lng":"7.64916"},{"label":"Ibadan","lat":"7.37756","lng":"3.90591"},{"label":"Ibagwa-Aka","lat":"6.91854","lng":"7.39895"},{"label":"Ibeto","lat":"10.48536","lng":"5.14501"},{"label":"Ibi","lat":"8.18122","lng":"9.74431"},{"label":"Ibiaku Ntok Okpo","lat":"5.30857","lng":"7.71106"},{"label":"Iboko","lat":"6.40655","lng":"8.23329"},{"label":"Ibokun","lat":"7.78737","lng":"4.72958"},{"label":"Icheu","lat":"7.7067","lng":"6.7718"},{"label":"Idah","lat":"7.11345","lng":"6.73866"},{"label":"Idanre","lat":"7.1127","lng":"5.1159"},{"label":"Idi-Ayunre","lat":"7.23292","lng":"3.86152"},{"label":"Idiroko","lat":"6.63187","lng":"2.7472"},{"label":"Ido","lat":"7.47103","lng":"3.7574"},{"label":"Ido-Ekiti","lat":"7.84598","lng":"5.18314"},{"label":"Idogbo","lat":"6.26812","lng":"5.71296"},{"label":"Idu","lat":"5.03005","lng":"8.01716"},{"label":"Ifaki","lat":"7.78942","lng":"5.24852"},{"label":"Ifako","lat":"6.64423","lng":"3.32488"},{"label":"Ifetedo","lat":"7.18419","lng":"4.70046"},{"label":"Ifo","lat":"6.81491","lng":"3.19518"},{"label":"Ifon","lat":"7.86079","lng":"4.4795"},{"label":"Ifon","lat":"6.92973","lng":"5.77368"},{"label":"Igabi","lat":"10.80603","lng":"7.71443"},{"label":"Igarra","lat":"7.29366","lng":"6.10432"},{"label":"Igbara-Odo","lat":"7.50251","lng":"5.06258"},{"label":"Igbara-Oke","lat":"7.41172","lng":"5.05805"},{"label":"Igbekebo","lat":"6.35894","lng":"4.8652"},{"label":"Igbeti","lat":"8.74921","lng":"4.13113"},{"label":"Igbo-Ora","lat":"7.43383","lng":"3.28788"},{"label":"Igbo-Ukwu","lat":"6.01798","lng":"7.02027"},{"label":"Igboho","lat":"8.83784","lng":"3.75628"},{"label":"Igbokoda","lat":"6.34842","lng":"4.81135"},{"label":"Igbor","lat":"7.45123","lng":"8.60805"},{"label":"Igede-Ekiti","lat":"7.6685","lng":"5.12627"},{"label":"Igueben","lat":"6.60183","lng":"6.24276"},{"label":"Igumale","lat":"6.79792","lng":"7.96794"},{"label":"Iguobazuwa","lat":"6.56585","lng":"5.35455"},{"label":"Ihiala","lat":"5.85475","lng":"6.85944"},{"label":"Iho","lat":"5.58225","lng":"7.09896"},{"label":"Ijebu Ode","lat":"6.81944","lng":"3.91731"},{"label":"Ijebu-Ife","lat":"6.77837","lng":"4.03386"},{"label":"Ijebu-Igbo","lat":"6.97198","lng":"3.99938"},{"label":"Ijebu-Jesa","lat":"7.68287","lng":"4.81769"},{"label":"Ijero-Ekiti","lat":"7.81514","lng":"5.06716"},{"label":"Ikang","lat":"4.78978","lng":"8.5316"},{"label":"Ikara","lat":"11.17511","lng":"8.22466"},{"label":"Ikare","lat":"7.52591","lng":"5.75342"},{"label":"Ikeja","lat":"6.59651","lng":"3.34205"},{"label":"Ikem","lat":"6.77993","lng":"7.71484"},{"label":"Ikenne","lat":"6.86579","lng":"3.71518"},{"label":"Ikere-Ekiti","lat":"7.49748","lng":"5.23041"},{"label":"Ikire","lat":"7.36983","lng":"4.1863"},{"label":"Ikirun","lat":"7.91283","lng":"4.66741"},{"label":"Ikole-Ekiti","lat":"7.79148","lng":"5.50865"},{"label":"Ikom","lat":"5.96669","lng":"8.70632"},{"label":"Ikorodu","lat":"6.61526","lng":"3.5069"},{"label":"Ikot Abasi","lat":"4.56851","lng":"7.55262"},{"label":"Ikot Akpa Nkuk","lat":"4.87231","lng":"7.56459"},{"label":"Ikot Edibon","lat":"4.77022","lng":"7.931"},{"label":"Ikot Ekpene","lat":"5.18194","lng":"7.71481"},{"label":"Ikot Ibritam","lat":"4.81171","lng":"7.61401"},{"label":"Ikot Nakanda","lat":"4.88426","lng":"8.48379"},{"label":"Ikotun","lat":"6.54433","lng":"3.26379"},{"label":"Ikoyi","lat":"6.45254","lng":"3.43584"},{"label":"Ikoyi-Ile","lat":"8.2444","lng":"4.17181"},{"label":"Ila Orangun","lat":"8.01714","lng":"4.90421"},{"label":"Ilare","lat":"7.35067","lng":"5.11333"},{"label":"Ilaro","lat":"6.88901","lng":"3.01416"},{"label":"Ilawe-Ekiti","lat":"7.59881","lng":"5.1047"},{"label":"Ile-Ife","lat":"7.4824","lng":"4.56032"},{"label":"Ile-Ogbo","lat":"7.62129","lng":"4.24531"},{"label":"Ile-Oluji","lat":"7.21309","lng":"4.86902"},{"label":"Ilemona","lat":"8.10992","lng":"4.66059"},{"label":"Ilesa","lat":"7.62789","lng":"4.74161"},{"label":"Illela","lat":"13.73064","lng":"5.29777"},{"label":"Illushi","lat":"6.67033","lng":"6.62907"},{"label":"Ilobu","lat":"7.83879","lng":"4.48672"},{"label":"Iloffa","lat":"8.09321","lng":"5.14258"},{"label":"Ilorin","lat":"8.49664","lng":"4.54214"},{"label":"Imeko","lat":"7.44888","lng":"2.84289"},{"label":"Imota","lat":"6.66362","lng":"3.66945"},{"label":"Ingawa","lat":"12.64138","lng":"8.05162"},{"label":"Inisa","lat":"7.84855","lng":"4.32981"},{"label":"Iperindo","lat":"7.50212","lng":"4.82582"},{"label":"Iperu","lat":"6.91002","lng":"3.66557"},{"label":"Ipetumodu","lat":"7.52152","lng":"4.44477"},{"label":"Ipokia","lat":"6.52499","lng":"2.84246"},{"label":"Ipoti","lat":"7.87377","lng":"5.07691"},{"label":"Iragbiji","lat":"7.904","lng":"4.68705"},{"label":"Iresa-Adu","lat":"8.08747","lng":"4.39264"},{"label":"Irewe","lat":"6.41692","lng":"3.14058"},{"label":"Irrua","lat":"6.73634","lng":"6.21984"},{"label":"Isa","lat":"13.20066","lng":"6.40487"},{"label":"Isanlu","lat":"8.28823","lng":"5.81837"},{"label":"Isanlu-Itedoijowa","lat":"8.27338","lng":"5.83526"},{"label":"Isara","lat":"6.98896","lng":"3.68244"},{"label":"Ise-Ekiti","lat":"7.46478","lng":"5.42333"},{"label":"Iseyin","lat":"7.97022","lng":"3.59626"},{"label":"Isiaka","lat":"5.86265","lng":"7.54622"},{"label":"Isiala Oboro","lat":"5.40632","lng":"7.56816"},{"label":"Isieke","lat":"6.38186","lng":"8.03736"},{"label":"Isinweke","lat":"5.62048","lng":"7.34985"},{"label":"Isiokolo","lat":"5.59586","lng":"6.00028"},{"label":"Isiokpo","lat":"5.00243","lng":"6.87262"},{"label":"Issele-Uku","lat":"6.31584","lng":"6.47599"},{"label":"Isu","lat":"6.15002","lng":"7.80131"},{"label":"Isua","lat":"7.45361","lng":"5.91047"},{"label":"Ita-Ogbolu","lat":"7.36838","lng":"5.24684"},{"label":"Itas","lat":"11.8575","lng":"9.96394"},{"label":"Itigidi","lat":"5.89147","lng":"8.02187"},{"label":"Itori","lat":"6.93123","lng":"3.22147"},{"label":"Itu","lat":"5.46395","lng":"7.33078"},{"label":"Itu","lat":"5.20131","lng":"7.98373"},{"label":"Iwere-Ile","lat":"7.99925","lng":"3.08877"},{"label":"Iwo","lat":"7.63527","lng":"4.18156"},{"label":"Iyana-Ofa","lat":"7.50174","lng":"4.08164"},{"label":"Iyara","lat":"7.84325","lng":"5.97061"},{"label":"Iye-Ekiti","lat":"7.95457","lng":"5.23314"},{"label":"Jada","lat":"8.75682","lng":"12.15537"},{"label":"Jahun","lat":"12.07629","lng":"9.62757"},{"label":"Jajimaji","lat":"12.8985","lng":"10.80688"},{"label":"Jakusko","lat":"12.37093","lng":"10.77373"},{"label":"Jalingo","lat":"8.89367","lng":"11.3596"},{"label":"Jama’are","lat":"11.6698","lng":"9.928"},{"label":"Jebba","lat":"9.11972","lng":"4.8236"},{"label":"Jega","lat":"12.22336","lng":"4.37971"},{"label":"Jibia","lat":"13.09378","lng":"7.22624"},{"label":"Jikamshi","lat":"12.17328","lng":"7.77424"},{"label":"Jimeta","lat":"9.27949","lng":"12.45819"},{"label":"Jobele","lat":"7.76373","lng":"3.91985"},{"label":"Jos","lat":"9.92849","lng":"8.89212"},{"label":"Kabba","lat":"7.82719","lng":"6.07502"},{"label":"Kabo","lat":"11.85606","lng":"8.1702"},{"label":"Kachia","lat":"9.87342","lng":"7.95407"},{"label":"Kaduna","lat":"10.52641","lng":"7.43879"},{"label":"Kafanchan","lat":"9.58126","lng":"8.2926"},{"label":"Kafarati","lat":"10.38304","lng":"11.09567"},{"label":"Kafin Hausa","lat":"12.23933","lng":"9.91105"},{"label":"Kafin Madaki","lat":"10.68856","lng":"9.76051"},{"label":"Kafur","lat":"11.64589","lng":"7.69068"},{"label":"Kagara","lat":"10.18662","lng":"6.25485"},{"label":"Kagarko","lat":"9.4911","lng":"7.69771"},{"label":"Kagoro","lat":"9.60776","lng":"8.39043"},{"label":"Kaiama","lat":"9.6053","lng":"3.94101"},{"label":"Kaiama","lat":"5.1197","lng":"6.30101"},{"label":"Kaita","lat":"13.08346","lng":"7.74092"},{"label":"Kajuru","lat":"10.32281","lng":"7.68462"},{"label":"Kalgo","lat":"12.32666","lng":"4.2004"},{"label":"Kaltungo","lat":"9.81998","lng":"11.30871"},{"label":"Kamba","lat":"11.85172","lng":"3.65478"},{"label":"Kanamma","lat":"13.09969","lng":"12.1079"},{"label":"Kangiwa","lat":"12.55339","lng":"3.81814"},{"label":"Kankara","lat":"11.93114","lng":"7.41115"},{"label":"Kankia","lat":"12.54637","lng":"7.82254"},{"label":"Kano","lat":"12.00012","lng":"8.51672"},{"label":"Karaye","lat":"11.7836","lng":"8.01504"},{"label":"Kari","lat":"11.2471","lng":"10.561"},{"label":"Karim Lamido","lat":"9.3143","lng":"11.18731"},{"label":"Karkarna","lat":"12.76653","lng":"8.50981"},{"label":"Karu","lat":"9.00943","lng":"7.66147"},{"label":"Katagum","lat":"12.28507","lng":"10.35027"},{"label":"Katcha","lat":"8.76076","lng":"6.312"},{"label":"Katsina","lat":"12.99082","lng":"7.60177"},{"label":"Katsina-Ala","lat":"7.16938","lng":"9.28465"},{"label":"Kaugama","lat":"12.47431","lng":"9.73671"},{"label":"Kaura","lat":"9.66812","lng":"8.45825"},{"label":"Kaura Namoda","lat":"12.59371","lng":"6.58648"},{"label":"Kauru","lat":"10.57601","lng":"8.15096"},{"label":"Kazaure","lat":"12.64846","lng":"8.41178"},{"label":"Keana","lat":"8.14724","lng":"8.79601"},{"label":"Kebbe","lat":"12.12861","lng":"4.73433"},{"label":"Keffi","lat":"8.84651","lng":"7.87354"},{"label":"Kende","lat":"11.51966","lng":"4.2603"},{"label":"Khaddamari","lat":"11.92589","lng":"13.23062"},{"label":"Kibiya","lat":"11.528","lng":"8.66108"},{"label":"Kirfi","lat":"10.40556","lng":"10.40451"},{"label":"Kiri Kasamma","lat":"12.69273","lng":"10.25456"},{"label":"Kiru","lat":"11.7021","lng":"8.13481"},{"label":"Kisi","lat":"9.08297","lng":"3.85196"},{"label":"Kiyawa","lat":"11.78442","lng":"9.6069"},{"label":"Koguna","lat":"12.38137","lng":"8.45733"},{"label":"Koko","lat":"6.00084","lng":"5.45523"},{"label":"Konduga","lat":"11.65331","lng":"13.41787"},{"label":"Konkwesso","lat":"10.84686","lng":"4.09835"},{"label":"Kontagora","lat":"10.40319","lng":"5.4708"},{"label":"Kosubosu","lat":"9.55107","lng":"3.22841"},{"label":"Koton-Karfe","lat":"8.08834","lng":"6.79876"},{"label":"Kpor","lat":"4.65265","lng":"7.28397"},{"label":"Kujama","lat":"10.45767","lng":"7.63808"},{"label":"Kuje","lat":"8.87952","lng":"7.22756"},{"label":"Kukawa","lat":"12.92475","lng":"13.56617"},{"label":"Kumagunnam","lat":"13.15498","lng":"10.63468"},{"label":"Kumbotso","lat":"11.89002","lng":"8.503"},{"label":"Kumo","lat":"10.04807","lng":"11.21055"},{"label":"Kunchi","lat":"12.5026","lng":"8.27092"},{"label":"Kura","lat":"11.77232","lng":"8.42631"},{"label":"Kurfi","lat":"12.6663","lng":"7.48478"},{"label":"Kusada","lat":"12.4656","lng":"7.97848"},{"label":"Kusheriki","lat":"10.53283","lng":"6.44222"},{"label":"Kuta","lat":"9.86864","lng":"6.71042"},{"label":"Kutigi","lat":"9.20103","lng":"5.59498"},{"label":"Kwal","lat":"9.37128","lng":"9.6192"},{"label":"Kwale","lat":"5.70773","lng":"6.43402"},{"label":"Kwali","lat":"8.88346","lng":"7.01858"},{"label":"Kware","lat":"13.21969","lng":"5.26596"},{"label":"Kwatarkwashi","lat":"12.14082","lng":"6.82196"},{"label":"Kwaya Kusar","lat":"10.50296","lng":"11.84331"},{"label":"Kwoi","lat":"9.45745","lng":"8.00684"},{"label":"Kwolla","lat":"8.90361","lng":"9.29086"},{"label":"Lafia","lat":"8.4939","lng":"8.51532"},{"label":"Lafiagi","lat":"8.85299","lng":"5.41641"},{"label":"Lagos","lat":"6.45407","lng":"3.39467"},{"label":"Lagos Island","lat":"6.46614","lng":"3.41838"},{"label":"Lajere","lat":"11.98022","lng":"11.44002"},{"label":"Lalupon","lat":"7.46791","lng":"4.06594"},{"label":"Lame","lat":"10.44154","lng":"9.23955"},{"label":"Lamurde","lat":"9.60816","lng":"11.79315"},{"label":"Langtang","lat":"9.14164","lng":"9.79101"},{"label":"Lapai","lat":"9.04439","lng":"6.57089"},{"label":"Lau","lat":"9.20827","lng":"11.27541"},{"label":"Lekki","lat":"6.41222","lng":"4.0947"},{"label":"Lemu","lat":"9.39637","lng":"6.02791"},{"label":"Lere","lat":"10.38584","lng":"8.57286"},{"label":"Lere","lat":"9.71052","lng":"9.34029"},{"label":"Lessel","lat":"7.12729","lng":"9.01981"},{"label":"Lissam","lat":"7.1961","lng":"10.0462"},{"label":"Lokoja","lat":"7.79688","lng":"6.74048"},{"label":"Mabudi","lat":"8.73037","lng":"9.78512"},{"label":"Machina","lat":"13.13639","lng":"10.04924"},{"label":"Madagali","lat":"10.88942","lng":"13.62832"},{"label":"Madala","lat":"9.10444","lng":"7.21333"},{"label":"Madara","lat":"11.7798","lng":"10.4479"},{"label":"Madobi","lat":"11.77725","lng":"8.28801"},{"label":"Mafa","lat":"11.92417","lng":"13.60066"},{"label":"Magumeri","lat":"12.11451","lng":"12.8262"},{"label":"Mahuta","lat":"11.55338","lng":"4.98138"},{"label":"Mai’Adua","lat":"13.17986","lng":"8.2304"},{"label":"Maiduguri","lat":"11.84692","lng":"13.15712"},{"label":"Maigana","lat":"11.02707","lng":"7.93844"},{"label":"Maigatari","lat":"12.80783","lng":"9.44516"},{"label":"Maiha","lat":"9.99672","lng":"13.21665"},{"label":"Maikunkele","lat":"9.6843","lng":"6.47889"},{"label":"Maiyama","lat":"12.08225","lng":"4.36907"},{"label":"Makarfi","lat":"11.37734","lng":"7.88098"},{"label":"Makera","lat":"10.4714","lng":"7.41026"},{"label":"Makoko","lat":"6.49611","lng":"3.38778"},{"label":"Makurdi","lat":"7.73375","lng":"8.52139"},{"label":"Malam Madori","lat":"12.56473","lng":"9.88084"},{"label":"Mallam Fatori","lat":"13.6746","lng":"13.33952"},{"label":"Mallam Sidi","lat":"10.4683","lng":"11.29294"},{"label":"Mallammaduri","lat":"12.56427","lng":"9.95727"},{"label":"Malumfashi","lat":"11.78935","lng":"7.62061"},{"label":"Mando","lat":"10.71667","lng":"6.56667"},{"label":"Mangu","lat":"9.5206","lng":"9.09769"},{"label":"Mani","lat":"12.85426","lng":"7.87526"},{"label":"Maradun","lat":"12.56704","lng":"6.24407"},{"label":"Marte","lat":"12.36532","lng":"13.8293"},{"label":"Maru","lat":"12.3336","lng":"6.40372"},{"label":"Mashegu","lat":"9.97213","lng":"5.77886"},{"label":"Mashi","lat":"12.98044","lng":"7.94703"},{"label":"Matazu","lat":"12.23549","lng":"7.67426"},{"label":"Mayo-Belwa","lat":"9.05421","lng":"12.05794"},{"label":"Mbalano","lat":"5.73432","lng":"7.50238"},{"label":"Mberubu","lat":"6.1731","lng":"7.63017"},{"label":"Mgbidi","lat":"5.73236","lng":"6.88869"},{"label":"Michika","lat":"10.62042","lng":"13.38928"},{"label":"Miga","lat":"12.2388","lng":"9.71362"},{"label":"Minjibir","lat":"12.17765","lng":"8.65782"},{"label":"Minna","lat":"9.61524","lng":"6.54776"},{"label":"Miringa","lat":"10.73115","lng":"12.14626"},{"label":"Misau","lat":"11.3137","lng":"10.46664"},{"label":"Mkpat Enin","lat":"4.73478","lng":"7.74897"},{"label":"Modakeke","lat":"7.38299","lng":"4.26031"},{"label":"Mokwa","lat":"9.29482","lng":"5.05412"},{"label":"Monguno","lat":"12.67059","lng":"13.61224"},{"label":"Moniya","lat":"7.5283","lng":"3.91156"},{"label":"Mopa","lat":"8.10076","lng":"5.89314"},{"label":"Moriki","lat":"12.87405","lng":"6.48754"},{"label":"Mubi","lat":"10.26858","lng":"13.26701"},{"label":"Musawa","lat":"12.12949","lng":"7.67023"},{"label":"Mushin","lat":"6.52799","lng":"3.35411"},{"label":"Mutum Biyu","lat":"8.64138","lng":"10.77355"},{"label":"Nafada","lat":"11.09596","lng":"11.33261"},{"label":"Naka","lat":"7.58331","lng":"8.2044"},{"label":"Nasarawa","lat":"8.53895","lng":"7.70821"},{"label":"Nasarawa Egon","lat":"8.71226","lng":"8.5406"},{"label":"Nasko","lat":"10.49539","lng":"4.89904"},{"label":"Nchia","lat":"4.79309","lng":"7.12061"},{"label":"Ndeaboh","lat":"6.03405","lng":"7.56843"},{"label":"Nembe","lat":"4.53673","lng":"6.40332"},{"label":"Neni","lat":"6.09511","lng":"7.02426"},{"label":"New Bussa","lat":"9.88644","lng":"4.50854"},{"label":"New Shagunnu","lat":"10.33957","lng":"4.4688"},{"label":"Ngala","lat":"12.34053","lng":"14.1867"},{"label":"Ngo","lat":"4.48388","lng":"7.41446"},{"label":"Ngurore","lat":"9.28871","lng":"12.24026"},{"label":"Nguru","lat":"12.87695","lng":"10.45536"},{"label":"Nguzu Edda","lat":"5.75543","lng":"7.81721"},{"label":"Ningi","lat":"11.07837","lng":"9.56886"},{"label":"Nkpor","lat":"6.15038","lng":"6.83042"},{"label":"Nkwerre","lat":"5.75917","lng":"7.10384"},{"label":"Nkwo Nike","lat":"6.50921","lng":"7.51006"},{"label":"Nkwoagu Isuochi","lat":"5.99125","lng":"7.39445"},{"label":"Nnenasa","lat":"5.73262","lng":"7.01364"},{"label":"Nnewi","lat":"6.01962","lng":"6.91729"},{"label":"Nsukka","lat":"6.85783","lng":"7.39577"},{"label":"Nteje","lat":"6.2681","lng":"6.92062"},{"label":"Nto Edino","lat":"5.25704","lng":"7.57569"},{"label":"Numan","lat":"9.46374","lng":"12.03062"},{"label":"Nung Udoe","lat":"4.91657","lng":"7.96314"},{"label":"Nwaorieubi","lat":"5.58182","lng":"7.01651"},{"label":"Nzam","lat":"6.45296","lng":"6.72882"},{"label":"Obagaji","lat":"7.89169","lng":"7.90938"},{"label":"Obalende","lat":"6.44694","lng":"3.41528"},{"label":"Obangede","lat":"7.62066","lng":"6.19928"},{"label":"Obarike-Ito","lat":"7.0245","lng":"8.32358"},{"label":"Obi","lat":"8.36922","lng":"8.77383"},{"label":"Obiaruku","lat":"5.84672","lng":"6.1529"},{"label":"Obiozara","lat":"6.04644","lng":"7.77273"},{"label":"Obollo-Afor","lat":"6.91624","lng":"7.51849"},{"label":"Obolo-Eke (1)","lat":"6.88333","lng":"7.63333"},{"label":"Obonoma","lat":"4.71131","lng":"6.79084"},{"label":"Obubra","lat":"6.07672","lng":"8.33241"},{"label":"Obudu","lat":"6.66819","lng":"9.16453"},{"label":"Ochobo","lat":"7.18045","lng":"7.9824"},{"label":"Ode","lat":"7.7899","lng":"5.7117"},{"label":"Ode-Ekiti","lat":"7.64813","lng":"5.54948"},{"label":"Ode-Irele","lat":"6.49418","lng":"4.87036"},{"label":"Odeda","lat":"7.2313","lng":"3.5246"},{"label":"Odo-Ere","lat":"8.25091","lng":"5.55122"},{"label":"Odogbolu","lat":"6.84035","lng":"3.76285"},{"label":"Odoro Ikpe","lat":"5.35835","lng":"7.75184"},{"label":"Odot","lat":"4.83095","lng":"8.03839"},{"label":"Odukpani","lat":"5.13375","lng":"8.33814"},{"label":"Offa","lat":"8.14911","lng":"4.72074"},{"label":"Ogaminana","lat":"7.59383","lng":"6.21798"},{"label":"Ogbede","lat":"6.67295","lng":"7.37441"},{"label":"Ogbere","lat":"6.73948","lng":"4.16102"},{"label":"Ogbia","lat":"4.68836","lng":"6.31525"},{"label":"Ogbomoso","lat":"8.13373","lng":"4.24014"},{"label":"Oghara","lat":"5.93554","lng":"5.6661"},{"label":"Ogidi","lat":"6.15209","lng":"6.86343"},{"label":"Ogoja","lat":"6.6584","lng":"8.79923"},{"label":"Ogu","lat":"4.72247","lng":"7.19859"},{"label":"Oguma","lat":"7.89635","lng":"7.06229"},{"label":"Ogurugu","lat":"6.78636","lng":"6.95017"},{"label":"Oguta","lat":"5.71044","lng":"6.80936"},{"label":"Ogwashi-Uku","lat":"6.17811","lng":"6.52461"},{"label":"Ohafia-Ifigh","lat":"5.61455","lng":"7.81191"},{"label":"Oji River","lat":"6.25563","lng":"7.27025"},{"label":"Ojota","lat":"6.57806","lng":"3.38686"},{"label":"Ojoto","lat":"6.05842","lng":"6.86124"},{"label":"Oju","lat":"6.84526","lng":"8.41914"},{"label":"Oka","lat":"7.46012","lng":"5.80174"},{"label":"Okada","lat":"6.73488","lng":"5.39447"},{"label":"Oke Ila","lat":"7.95","lng":"4.98333"},{"label":"Oke Mesi","lat":"7.81667","lng":"4.91667"},{"label":"Oke-Agbe","lat":"7.64314","lng":"5.75943"},{"label":"Oke-Ikpe","lat":"4.91301","lng":"7.31936"},{"label":"Oke-Oyi","lat":"8.58263","lng":"4.71622"},{"label":"Okehi","lat":"5.13895","lng":"7.13915"},{"label":"Okeho","lat":"8.03453","lng":"3.34759"},{"label":"Okene","lat":"7.55122","lng":"6.23589"},{"label":"Okigwe","lat":"5.82917","lng":"7.35056"},{"label":"Oko Ita","lat":"5.192","lng":"7.89531"},{"label":"Okopedi","lat":"4.84918","lng":"8.12564"},{"label":"Okoroete","lat":"4.54077","lng":"7.74858"},{"label":"Okpo","lat":"7.21626","lng":"7.56022"},{"label":"Okpoga","lat":"7.03911","lng":"7.81225"},{"label":"Okpoma","lat":"6.59679","lng":"8.63728"},{"label":"Okpuala-Ngwa","lat":"5.3571","lng":"7.38765"},{"label":"Okrika","lat":"4.74215","lng":"7.08368"},{"label":"Okuku","lat":"8.01807","lng":"4.67253"},{"label":"Okuta","lat":"9.21866","lng":"3.20117"},{"label":"Okwe","lat":"5.77743","lng":"7.21794"},{"label":"Oleh","lat":"5.46186","lng":"6.20624"},{"label":"Olupona","lat":"7.60039","lng":"4.19264"},{"label":"Omoba","lat":"5.24268","lng":"7.40623"},{"label":"Omoku","lat":"5.34388","lng":"6.65684"},{"label":"Omu-Aran","lat":"8.13385","lng":"5.10029"},{"label":"Omuo-Ekiti","lat":"7.75833","lng":"5.72227"},{"label":"Ondo","lat":"7.09316","lng":"4.83528"},{"label":"Onitsha","lat":"6.14978","lng":"6.78569"},{"label":"Onuebonyi Echara","lat":"6.0954","lng":"8.15157"},{"label":"Onueke","lat":"6.15537","lng":"8.03735"},{"label":"Onyedega","lat":"6.88209","lng":"6.67585"},{"label":"Opi","lat":"6.78223","lng":"7.43319"},{"label":"Opobo","lat":"4.51388","lng":"7.53794"},{"label":"Oporoma","lat":"4.80604","lng":"6.08016"},{"label":"Ore","lat":"6.74716","lng":"4.8761"},{"label":"Orerokpe","lat":"5.63747","lng":"5.89013"},{"label":"Orita-Eruwa","lat":"7.55632","lng":"3.44107"},{"label":"Orlu","lat":"5.79565","lng":"7.03513"},{"label":"Orodo","lat":"5.61667","lng":"7.03333"},{"label":"Oron","lat":"4.82171","lng":"8.23504"},{"label":"Oshodi","lat":"6.55504","lng":"3.34363"},{"label":"Osisioma","lat":"5.15979","lng":"7.32235"},{"label":"Osogbo","lat":"7.77104","lng":"4.55698"},{"label":"Osu","lat":"7.58538","lng":"4.62263"},{"label":"Ota","lat":"6.68867","lng":"3.23202"},{"label":"Otan Ayegbaju","lat":"7.94783","lng":"4.78836"},{"label":"Otor-Udu","lat":"5.45341","lng":"5.8693"},{"label":"Otu","lat":"8.20639","lng":"3.40786"},{"label":"Otu-Jeremi","lat":"5.43818","lng":"5.87829"},{"label":"Otukpa","lat":"7.10168","lng":"7.65945"},{"label":"Otun-Ekiti","lat":"7.98858","lng":"5.12291"},{"label":"Otuocha","lat":"6.33908","lng":"6.84636"},{"label":"Owa-Oyibu","lat":"6.18267","lng":"6.19902"},{"label":"Owerri","lat":"5.48363","lng":"7.03325"},{"label":"Owo","lat":"7.1962","lng":"5.58681"},{"label":"Owode","lat":"6.94851","lng":"3.50561"},{"label":"Owu-Isin","lat":"8.2809","lng":"5.0194"},{"label":"Oyan","lat":"8.05","lng":"4.76667"},{"label":"Oye-Ekiti","lat":"7.79976","lng":"5.33242"},{"label":"Oyo","lat":"7.85367","lng":"3.93235"},{"label":"Ozoro","lat":"5.54692","lng":"6.22649"},{"label":"Ozubulu","lat":"5.95753","lng":"6.85305"},{"label":"Paiko","lat":"9.43685","lng":"6.63357"},{"label":"Pankshin","lat":"9.32541","lng":"9.4352"},{"label":"Pantisawa","lat":"8.94504","lng":"11.51176"},{"label":"Panyam","lat":"9.40756","lng":"9.21481"},{"label":"Patani","lat":"5.22885","lng":"6.19139"},{"label":"Patigi","lat":"8.72851","lng":"5.75561"},{"label":"Pindiga","lat":"9.98433","lng":"10.95229"},{"label":"Port Harcourt","lat":"4.77742","lng":"7.0134"},{"label":"Potiskum","lat":"11.71391","lng":"11.08108"},{"label":"Rabah","lat":"13.12257","lng":"5.50762"},{"label":"Rann","lat":"12.26938","lng":"14.46552"},{"label":"Rano","lat":"11.55684","lng":"8.58065"},{"label":"Ribah","lat":"11.39637","lng":"5.48631"},{"label":"Rijau","lat":"11.10389","lng":"5.25556"},{"label":"Rimi","lat":"12.8503","lng":"7.70974"},{"label":"Rimin Gado","lat":"11.9672","lng":"8.2476"},{"label":"Ringim","lat":"12.15143","lng":"9.16216"},{"label":"Ririwai","lat":"10.74025","lng":"8.74128"},{"label":"Riti","lat":"7.90844","lng":"9.61688"},{"label":"Riyom","lat":"9.63681","lng":"8.75694"},{"label":"Rogo","lat":"11.55237","lng":"7.82253"},{"label":"Roni","lat":"12.65862","lng":"8.26505"},{"label":"Ruma","lat":"12.8626","lng":"7.23469"},{"label":"Rumuodomaya","lat":"4.89333","lng":"7.00228"},{"label":"Runka","lat":"12.44788","lng":"7.30918"},{"label":"Saakpenwa","lat":"4.71677","lng":"7.263"},{"label":"Sabon Birni","lat":"13.56387","lng":"6.32355"},{"label":"Sabon Garin Nangere","lat":"11.84945","lng":"11.0733"},{"label":"Sabon Wuse","lat":"9.33424","lng":"7.26114"},{"label":"Sabongida-Ora","lat":"6.90231","lng":"5.93117"},{"label":"Sabuwa","lat":"11.17372","lng":"7.12113"},{"label":"Sade","lat":"11.3595","lng":"10.6732"},{"label":"Safana","lat":"12.41075","lng":"7.41456"},{"label":"Sagbama","lat":"5.15915","lng":"6.19666"},{"label":"Sakaba","lat":"11.06513","lng":"5.5961"},{"label":"Saki","lat":"8.66762","lng":"3.39393"},{"label":"Samamiya","lat":"11.34873","lng":"9.63989"},{"label":"Saminaka","lat":"10.41227","lng":"8.68748"},{"label":"Sandamu","lat":"12.96163","lng":"8.36017"},{"label":"Sankera","lat":"7.5353","lng":"9.65223"},{"label":"Sankwala","lat":"6.54753","lng":"9.22258"},{"label":"Sapele","lat":"5.89405","lng":"5.67666"},{"label":"Sarkin Pawa","lat":"10.02094","lng":"7.11244"},{"label":"Sauri","lat":"11.72655","lng":"6.78374"},{"label":"Serti","lat":"7.50574","lng":"11.3631"},{"label":"Shaffa","lat":"10.50673","lng":"12.33315"},{"label":"Shagamu","lat":"6.8485","lng":"3.64633"},{"label":"Shagari","lat":"12.62727","lng":"4.99295"},{"label":"Shanga","lat":"11.21374","lng":"4.57941"},{"label":"Shani","lat":"10.21824","lng":"12.06059"},{"label":"Shanono","lat":"12.05154","lng":"7.992"},{"label":"Share","lat":"8.82329","lng":"4.97637"},{"label":"Shelleng","lat":"9.89647","lng":"12.00572"},{"label":"Shendam","lat":"8.87866","lng":"9.53464"},{"label":"Shinkafi","lat":"13.07296","lng":"6.50574"},{"label":"Shomolu","lat":"6.53891","lng":"3.3742"},{"label":"Silame","lat":"13.03921","lng":"4.84593"},{"label":"Siluko","lat":"6.53589","lng":"5.16005"},{"label":"Soba","lat":"10.98133","lng":"8.05749"},{"label":"Sofo-Birnin-Gwari","lat":"11.01537","lng":"6.78036"},{"label":"Sokoto","lat":"13.06269","lng":"5.24322"},{"label":"Song","lat":"9.82675","lng":"12.6238"},{"label":"Sule Tankarkar","lat":"12.66686","lng":"9.22828"},{"label":"Suleja","lat":"9.18059","lng":"7.17939"},{"label":"Sumaila","lat":"11.53011","lng":"8.95593"},{"label":"Sunkani","lat":"8.70298","lng":"11.25757"},{"label":"Surulere","lat":"6.50153","lng":"3.35808"},{"label":"Suya","lat":"9.4688","lng":"3.18333"},{"label":"Tafawa Balewa","lat":"9.76017","lng":"9.55172"},{"label":"Takai","lat":"11.57569","lng":"9.1088"},{"label":"Takum","lat":"7.26667","lng":"9.98333"},{"label":"Talasse","lat":"9.96843","lng":"11.67945"},{"label":"Talata Mafara","lat":"12.56841","lng":"6.06225"},{"label":"Tambuwal","lat":"12.40592","lng":"4.64605"},{"label":"Taura","lat":"12.22712","lng":"9.28306"},{"label":"Tede","lat":"8.55336","lng":"3.44654"},{"label":"Tegina","lat":"10.0706","lng":"6.1906"},{"label":"Tofa","lat":"12.05789","lng":"8.27309"},{"label":"Tokombere","lat":"11.22135","lng":"13.48783"},{"label":"Toro","lat":"10.05889","lng":"9.0691"},{"label":"Toto","lat":"8.3876","lng":"7.07751"},{"label":"Toungo","lat":"8.11733","lng":"12.04611"},{"label":"Tsafe","lat":"11.95775","lng":"6.92083"},{"label":"Tsanyawa","lat":"12.29559","lng":"7.98654"},{"label":"Tse-Agberagba","lat":"7.07668","lng":"8.66551"},{"label":"Tudun Wada","lat":"11.24848","lng":"8.40109"},{"label":"Tunkus","lat":"9.02167","lng":"9.61384"},{"label":"Tureta","lat":"12.59367","lng":"5.54391"},{"label":"Twon-Brass","lat":"4.31231","lng":"6.24091"},{"label":"Uba","lat":"10.45509","lng":"13.22233"},{"label":"Ubiaja","lat":"6.65581","lng":"6.38494"},{"label":"Udi","lat":"6.31592","lng":"7.42086"},{"label":"Uga","lat":"5.93576","lng":"7.0793"},{"label":"Ugba","lat":"7.507","lng":"9.34804"},{"label":"Ugbodo","lat":"6.51155","lng":"8.12984"},{"label":"Ugbokpo","lat":"7.65321","lng":"7.8841"},{"label":"Ugep","lat":"5.80865","lng":"8.08098"},{"label":"Ughelli","lat":"5.48956","lng":"6.00407"},{"label":"Ugwolawo","lat":"7.23672","lng":"6.92302"},{"label":"Ukata","lat":"10.83122","lng":"5.82494"},{"label":"Ukpo","lat":"6.21407","lng":"6.96657"},{"label":"Ukpor","lat":"5.94211","lng":"6.92931"},{"label":"Umuahia","lat":"5.52491","lng":"7.49461"},{"label":"Umuelemai","lat":"5.68786","lng":"7.24334"},{"label":"Umuguma","lat":"5.46783","lng":"6.96594"},{"label":"Umulona","lat":"6.50789","lng":"7.09743"},{"label":"Umumma","lat":"5.7569","lng":"6.94613"},{"label":"Umundugba","lat":"5.67597","lng":"7.07184"},{"label":"Umunede","lat":"6.26549","lng":"6.30962"},{"label":"Umuneke-Ngor","lat":"5.33558","lng":"7.15187"},{"label":"Umunze","lat":"5.96694","lng":"7.23664"},{"label":"Ungogo","lat":"12.09171","lng":"8.49531"},{"label":"Upenekang","lat":"4.57064","lng":"7.97955"},{"label":"Uquo","lat":"4.65832","lng":"8.05868"},{"label":"Uromi","lat":"6.7","lng":"6.33333"},{"label":"Urua Inyang","lat":"5.02309","lng":"7.53895"},{"label":"Urualla","lat":"5.85397","lng":"7.09906"},{"label":"Urue Offong","lat":"4.75275","lng":"8.1677"},{"label":"Uruobo-Okija","lat":"5.90016","lng":"6.84312"},{"label":"Uselu","lat":"6.38429","lng":"5.60984"},{"label":"Utu Etim Ekpo","lat":"5.00485","lng":"7.61028"},{"label":"Uyo","lat":"5.05127","lng":"7.9335"},{"label":"Vandeikya","lat":"6.78481","lng":"9.06799"},{"label":"Vom","lat":"9.7291","lng":"8.79138"},{"label":"Wagini","lat":"12.68781","lng":"7.19579"},{"label":"Wamako","lat":"13.03054","lng":"5.10433"},{"label":"Wamba","lat":"8.94153","lng":"8.60315"},{"label":"Wannune","lat":"7.56384","lng":"8.88534"},{"label":"Wara","lat":"10.22884","lng":"4.62363"},{"label":"Warji","lat":"11.17756","lng":"9.75241"},{"label":"Warri","lat":"5.51737","lng":"5.75006"},{"label":"Wasagu","lat":"11.3764","lng":"5.79536"},{"label":"Wase","lat":"9.09424","lng":"9.95605"},{"label":"Wawa","lat":"9.90347","lng":"4.40816"},{"label":"Wudil","lat":"11.80937","lng":"8.84422"},{"label":"Wukari","lat":"7.87139","lng":"9.77786"},{"label":"Wurno","lat":"13.29048","lng":"5.42373"},{"label":"Wushishi","lat":"9.73035","lng":"6.07305"},{"label":"Wuyo","lat":"10.38522","lng":"11.69678"},{"label":"Yabo","lat":"12.72217","lng":"5.01329"},{"label":"Yajiwa","lat":"11.38623","lng":"12.71992"},{"label":"Yamrat","lat":"10.11161","lng":"9.82604"},{"label":"Yana","lat":"11.40724","lng":"10.01345"},{"label":"Yanda Bayo","lat":"11.5071","lng":"10.7459"},{"label":"Yandev","lat":"7.36308","lng":"9.04235"},{"label":"Yashikira","lat":"9.76794","lng":"3.398"},{"label":"Yelwa","lat":"10.83505","lng":"4.74244"},{"label":"Yelwa","lat":"8.83333","lng":"9.63333"},{"label":"Yenagoa","lat":"4.92675","lng":"6.26764"},{"label":"Yola","lat":"9.20839","lng":"12.48146"},{"label":"Yuli","lat":"9.69707","lng":"10.2735"},{"label":"Zadawa","lat":"11.4496","lng":"10.3672"},{"label":"Zaki Biam","lat":"7.50671","lng":"9.6104"},{"label":"Zakirai","lat":"12.10033","lng":"8.88524"},{"label":"Zalanga","lat":"10.61432","lng":"10.17647"},{"label":"Zango","lat":"13.05313","lng":"8.48574"},{"label":"Zaria","lat":"11.11128","lng":"7.7227"},{"label":"Zing","lat":"8.99064","lng":"11.74763"},{"label":"Zonkwa","lat":"9.78453","lng":"8.29056"},{"label":"Zungeru","lat":"9.80726","lng":"6.15238"},{"label":"Zurmi","lat":"12.77675","lng":"6.78404"}]