[{"label":"Achhām","lat":"29.05","lng":"81.3"},{"label":"Amargaḍhi̇̄","lat":"29.29922","lng":"80.58333"},{"label":"Bāgluṅ","lat":"28.26728","lng":"83.59956"},{"label":"Banepā","lat":"27.6327","lng":"85.52201"},{"label":"Bardiyā","lat":"28.30058","lng":"81.3536"},{"label":"Besisahar","lat":"28.23111","lng":"84.3775"},{"label":"Bhadrapur","lat":"26.54404","lng":"88.09436"},{"label":"Bhaktapur","lat":"27.67298","lng":"85.43005"},{"label":"Bharatpur","lat":"27.6768","lng":"84.43589"},{"label":"Bhattarai Danda","lat":"27.88333","lng":"83.93333"},{"label":"Bhimdatta","lat":"28.96399","lng":"80.17715"},{"label":"Bhojpur","lat":"28.0353","lng":"82.29552"},{"label":"Bhojpur","lat":"27.1715","lng":"87.04607"},{"label":"Biratnagar","lat":"26.45505","lng":"87.27007"},{"label":"Birendranagar","lat":"28.59669","lng":"81.61658"},{"label":"Birgañj","lat":"27.01709","lng":"84.8808"},{"label":"Butwāl","lat":"27.70055","lng":"83.44836"},{"label":"Chainpur","lat":"29.55637","lng":"81.19858"},{"label":"Chapali̇̄ Bhaḍrakāli̇̄","lat":"27.7821","lng":"85.37426"},{"label":"Chitre","lat":"28.42673","lng":"83.69076"},{"label":"Dailekh","lat":"28.84434","lng":"81.71011"},{"label":"Dārchulā","lat":"29.83","lng":"80.55"},{"label":"Dhangaḍhi̇̄","lat":"28.70159","lng":"80.58991"},{"label":"Dhankutā","lat":"26.98333","lng":"87.33333"},{"label":"Dharān","lat":"26.81436","lng":"87.27972"},{"label":"Dhulikhel","lat":"27.6221","lng":"85.54281"},{"label":"Dihi","lat":"27.87552","lng":"83.92759"},{"label":"Dipayal","lat":"29.26083","lng":"80.94"},{"label":"Gaur","lat":"26.76448","lng":"85.27841"},{"label":"Ghorahi","lat":"28.04324","lng":"82.48625"},{"label":"Gulariyā","lat":"28.2058","lng":"81.34532"},{"label":"Hari Bdr Tamang House","lat":"27.6289","lng":"85.45893"},{"label":"Hetauda","lat":"27.42839","lng":"85.03219"},{"label":"Ilām","lat":"26.90943","lng":"87.92824"},{"label":"Inaruwa","lat":"26.60675","lng":"87.1478"},{"label":"Īṭahari̇̄","lat":"26.66371","lng":"87.27403"},{"label":"Jaleshwar","lat":"26.64921","lng":"85.80017"},{"label":"Janakpur","lat":"26.72882","lng":"85.92628"},{"label":"Jumla","lat":"29.27472","lng":"82.18383"},{"label":"Kālikā Bajār","lat":"29.10201","lng":"81.67982"},{"label":"kankrabari Dovan","lat":"27.62881","lng":"85.45934"},{"label":"Kathmandu","lat":"27.70169","lng":"85.3206"},{"label":"Khā̃dbāri̇̄","lat":"27.37647","lng":"87.20773"},{"label":"Ki̇̄rtipur","lat":"27.67851","lng":"85.27574"},{"label":"Kodāri̇̄","lat":"27.96228","lng":"85.95167"},{"label":"Lahān","lat":"26.72022","lng":"86.48258"},{"label":"Lamjung","lat":"28.20992","lng":"84.3638"},{"label":"Lobuche","lat":"27.94806","lng":"86.81017"},{"label":"Madhyapur Thimi","lat":"27.68056","lng":"85.3875"},{"label":"Malaṅgawā","lat":"26.85658","lng":"85.5594"},{"label":"Nagarkot","lat":"27.71522","lng":"85.52075"},{"label":"Namche Bazaar","lat":"27.80528","lng":"86.71058"},{"label":"Nepalgunj","lat":"28.05","lng":"81.61667"},{"label":"Panauti","lat":"27.58466","lng":"85.52122"},{"label":"Panauti̇̄","lat":"27.58447","lng":"85.51487"},{"label":"Pātan","lat":"27.67658","lng":"85.31417"},{"label":"Pokhara","lat":"28.26689","lng":"83.96851"},{"label":"Pyūthān","lat":"28.08867","lng":"82.88427"},{"label":"Rājbirāj","lat":"26.53968","lng":"86.74796"},{"label":"Rāmechhāp","lat":"27.3256","lng":"86.08768"},{"label":"Salyān","lat":"28.37858","lng":"82.1703"},{"label":"Siddharthanagar","lat":"27.5","lng":"83.45"},{"label":"Silgaḍhi̇̄","lat":"29.2668","lng":"80.9841"},{"label":"Siraha","lat":"26.65422","lng":"86.20795"},{"label":"Surkhet","lat":"28.51746","lng":"81.7787"},{"label":"Tānsen","lat":"27.86655","lng":"83.54587"},{"label":"Ṭikāpur","lat":"28.52819","lng":"81.11828"},{"label":"Triyuga","lat":"26.7919","lng":"86.699"},{"label":"Tulsi̇̄pur","lat":"28.13328","lng":"82.29803"}]