[{"label":"Anabar","lat":"-0.50845","lng":"166.95326"},{"label":"Anibare","lat":"-0.52792","lng":"166.95249"},{"label":"Arijejen","lat":"-0.52545","lng":"166.91247"},{"label":"Baiti","lat":"-0.50803","lng":"166.92945"},{"label":"Denigomodu","lat":"-0.52574","lng":"166.91259"},{"label":"Ijuw","lat":"-0.521","lng":"166.95813"},{"label":"Menen","lat":"-0.54539","lng":"166.94871"},{"label":"Uaboe","lat":"-0.51393","lng":"166.92384"},{"label":"Yaren","lat":"-0.55085","lng":"166.9252"}]