[{"label":"Aitape","lat":"-3.13697","lng":"142.34913"},{"label":"Alotau","lat":"-10.31509","lng":"150.45742"},{"label":"Ambunti","lat":"-4.21717","lng":"142.81832"},{"label":"Angoram","lat":"-4.06253","lng":"144.06609"},{"label":"Arawa","lat":"-6.22977","lng":"155.56598"},{"label":"Buka","lat":"-5.43261","lng":"154.67098"},{"label":"Bulolo","lat":"-7.2036","lng":"146.64014"},{"label":"Daru","lat":"-9.07786","lng":"143.20893"},{"label":"Finschhafen","lat":"-6.604","lng":"147.848"},{"label":"Goroka","lat":"-6.085","lng":"145.38667"},{"label":"Ialibu","lat":"-6.28208","lng":"143.99354"},{"label":"Ihu","lat":"-7.89569","lng":"145.39405"},{"label":"Kainantu","lat":"-6.28872","lng":"145.86548"},{"label":"Kandrian","lat":"-6.20655","lng":"149.54744"},{"label":"Kavieng","lat":"-2.57337","lng":"150.79516"},{"label":"Kerema","lat":"-7.96028","lng":"145.77278"},{"label":"Kieta","lat":"-6.21462","lng":"155.63251"},{"label":"Kimbe","lat":"-5.55085","lng":"150.13766"},{"label":"Kiunga","lat":"-6.12193","lng":"141.29061"},{"label":"Kokoda","lat":"-8.87778","lng":"147.73642"},{"label":"Kokopo","lat":"-4.3432","lng":"152.26867"},{"label":"Kundiawa","lat":"-6.01972","lng":"144.96917"},{"label":"Kurumul","lat":"-5.855","lng":"144.63111"},{"label":"Kwikila","lat":"-9.81847","lng":"147.65968"},{"label":"Lae","lat":"-6.72333","lng":"146.99611"},{"label":"Lorengau","lat":"-2.0341","lng":"147.27173"},{"label":"Madang","lat":"-5.22152","lng":"145.78695"},{"label":"Mendi","lat":"-6.14755","lng":"143.65633"},{"label":"Minj","lat":"-5.90752","lng":"144.69159"},{"label":"Morehead","lat":"-8.71065","lng":"141.63668"},{"label":"Mount Hagen","lat":"-5.85746","lng":"144.23058"},{"label":"Panguna","lat":"-6.31639","lng":"155.48483"},{"label":"Popondetta","lat":"-8.76536","lng":"148.23252"},{"label":"Porgera","lat":"-5.463","lng":"143.148"},{"label":"Port Moresby","lat":"-9.47723","lng":"147.15089"},{"label":"Rabaul","lat":"-4.20037","lng":"152.16297"},{"label":"Rauna","lat":"-5.7359","lng":"144.28834"},{"label":"Samarai","lat":"-10.61038","lng":"150.66207"},{"label":"Tari","lat":"-5.845","lng":"142.94667"},{"label":"Vanimo","lat":"-2.68372","lng":"141.30195"},{"label":"Wabag","lat":"-5.49119","lng":"143.72151"},{"label":"Wau","lat":"-7.342","lng":"146.724"}]