[{"label":"Aanislag","lat":"13.0748","lng":"123.703"},{"label":"Abaca","lat":"11.1342","lng":"122.7156"},{"label":"Abaca","lat":"9.9204","lng":"124.5051"},{"label":"Abangay","lat":"10.96667","lng":"122.65"},{"label":"Abiera","lat":"11.5749","lng":"122.09"},{"label":"Abilay","lat":"10.73333","lng":"122.5"},{"label":"Abis","lat":"9.7173","lng":"122.9438"},{"label":"Aborlan","lat":"9.43361","lng":"118.54879"},{"label":"Abra de Ilog","lat":"13.4437","lng":"120.7291"},{"label":"Abucay","lat":"14.73347","lng":"120.53358"},{"label":"Abucay","lat":"12.982","lng":"123.6492"},{"label":"Abucayan","lat":"9.929","lng":"123.9146"},{"label":"Abulug","lat":"18.44528","lng":"121.45333"},{"label":"Abut","lat":"17.35423","lng":"121.60138"},{"label":"Abuyog","lat":"12.9461","lng":"124.0519"},{"label":"Abuyog","lat":"10.747","lng":"125.0107"},{"label":"Abuyon","lat":"13.6226","lng":"122.5191"},{"label":"Acao","lat":"16.52556","lng":"120.37639"},{"label":"Accusilian","lat":"17.74791","lng":"121.46254"},{"label":"Acli","lat":"15.12279","lng":"120.6447"},{"label":"Adams","lat":"18.46667","lng":"120.9"},{"label":"Adela","lat":"12.44164","lng":"120.97291"},{"label":"Adlaon","lat":"10.3","lng":"123.9"},{"label":"Adlay","lat":"9.40972","lng":"125.8975"},{"label":"Adtugan","lat":"7.81194","lng":"124.85444"},{"label":"Afusing Centro","lat":"17.8526","lng":"121.6269"},{"label":"Ag-ambulong","lat":"11.3684","lng":"122.5094"},{"label":"Aga","lat":"14.0965","lng":"120.80217"},{"label":"Aganan","lat":"10.78333","lng":"122.53333"},{"label":"Agay","lat":"9.05361","lng":"125.58667"},{"label":"Agbannawag","lat":"17.37641","lng":"121.5478"},{"label":"Agbannawag","lat":"15.6792","lng":"121.0833"},{"label":"Agcogon","lat":"12.06146","lng":"121.95911"},{"label":"Agdangan","lat":"13.8771","lng":"121.91305"},{"label":"Aggugaddah","lat":"17.70016","lng":"121.8025"},{"label":"Aglalana","lat":"11.1803","lng":"122.6574"},{"label":"Aglayan","lat":"8.055","lng":"125.13417"},{"label":"Aglipay","lat":"16.4889","lng":"121.645"},{"label":"Agno","lat":"16.1161","lng":"119.7993"},{"label":"Agoncillo","lat":"13.93556","lng":"120.93261"},{"label":"Agoo","lat":"16.3228","lng":"120.3666"},{"label":"Agoo","lat":"16.08333","lng":"120.1"},{"label":"Agos","lat":"13.3434","lng":"123.3983"},{"label":"Agpangi","lat":"10.57716","lng":"123.4232"},{"label":"Agsungot","lat":"10.43444","lng":"123.90611"},{"label":"Aguada","lat":"12.81667","lng":"123.83333"},{"label":"Aguilar","lat":"15.8884","lng":"120.2378"},{"label":"Aguining","lat":"10.0861","lng":"124.5944"},{"label":"Aguisan","lat":"10.1603","lng":"122.8615"},{"label":"Agupit","lat":"13.4225","lng":"123.32472"},{"label":"Agusan","lat":"8.49056","lng":"124.73722"},{"label":"Agutaya","lat":"11.148","lng":"120.9417"},{"label":"Ajuy","lat":"11.1724","lng":"123.0197"},{"label":"Akle","lat":"15.0482","lng":"121.0733"},{"label":"Alabat","lat":"14.101","lng":"122.0125"},{"label":"Alabel","lat":"6.10179","lng":"125.29048"},{"label":"Alabug","lat":"17.73261","lng":"121.46773"},{"label":"Alac","lat":"15.9877","lng":"120.8065"},{"label":"Alacaygan","lat":"10.84014","lng":"123.0583"},{"label":"Alad","lat":"12.61682","lng":"122.24751"},{"label":"Alae","lat":"8.42444","lng":"124.81278"},{"label":"Alamada","lat":"7.33333","lng":"124.56667"},{"label":"Alaminos","lat":"16.15611","lng":"119.98111"},{"label":"Alaminos","lat":"14.06391","lng":"121.24649"},{"label":"Alangalang","lat":"11.20611","lng":"124.84667"},{"label":"Alangilan","lat":"9.2793","lng":"122.8789"},{"label":"Alangilanan","lat":"9.642","lng":"123.1059"},{"label":"Alanib","lat":"8.02778","lng":"124.98611"},{"label":"Alannay","lat":"18.06114","lng":"121.58616"},{"label":"Alayao","lat":"14.2818","lng":"122.5524"},{"label":"Albuera","lat":"10.9158","lng":"124.6945"},{"label":"Alburquerque","lat":"9.60806","lng":"123.95806"},{"label":"Alcala","lat":"17.9021","lng":"121.65595"},{"label":"Alcala","lat":"15.84722","lng":"120.52417"},{"label":"Alcantara","lat":"12.2589","lng":"122.0544"},{"label":"Alcantara","lat":"9.97556","lng":"123.40611"},{"label":"Alcoy","lat":"9.7102","lng":"123.5067"},{"label":"Alegria","lat":"12.3984","lng":"124.3261"},{"label":"Alegria","lat":"10.64345","lng":"123.0836"},{"label":"Alegria","lat":"9.7289","lng":"123.3398"},{"label":"Alegria","lat":"9.46694","lng":"125.57722"},{"label":"Alegria","lat":"8.50667","lng":"126.01194"},{"label":"Alejal","lat":"7.38417","lng":"125.66"},{"label":"Alemanguan","lat":"10.61177","lng":"119.3268"},{"label":"Alfonso","lat":"14.14083","lng":"120.85389"},{"label":"Algeciras","lat":"11.4154","lng":"120.8168"},{"label":"Aliaga","lat":"15.5","lng":"120.843"},{"label":"Aliang","lat":"14.28333","lng":"120.88333"},{"label":"Alibago","lat":"17.11667","lng":"121.86667"},{"label":"Alibug","lat":"12.22906","lng":"121.22811"},{"label":"Alibunan","lat":"11.14652","lng":"122.45911"},{"label":"Alicante","lat":"10.89704","lng":"123.0185"},{"label":"Alicia","lat":"16.77936","lng":"121.69734"},{"label":"Alicia","lat":"9.8949","lng":"124.4422"},{"label":"Alicia","lat":"7.51389","lng":"122.93"},{"label":"Alijis","lat":"10.4583","lng":"122.8348"},{"label":"Alilem","lat":"16.8861","lng":"120.5304"},{"label":"Alim","lat":"9.5649","lng":"122.4876"},{"label":"Alimodian","lat":"10.82139","lng":"122.43111"},{"label":"Alimono","lat":"11.1855","lng":"122.7129"},{"label":"Alitagtag","lat":"13.8645","lng":"121.0041"},{"label":"Allacapan","lat":"18.22598","lng":"121.55615"},{"label":"Allangigan Primero","lat":"17.17393","lng":"120.49195"},{"label":"Allen","lat":"12.5006","lng":"124.2849"},{"label":"Almagro","lat":"11.9109","lng":"124.2858"},{"label":"Almaguer North","lat":"16.3497","lng":"121.0926"},{"label":"Almendras","lat":"15.27576","lng":"120.69873"},{"label":"Almeria","lat":"11.62028","lng":"124.38167"},{"label":"Aloguinsan","lat":"10.2219","lng":"123.5483"},{"label":"Aloleng","lat":"16.1307","lng":"119.7824"},{"label":"Alpaco","lat":"10.24378","lng":"123.6825"},{"label":"Altavas","lat":"11.538","lng":"122.487"},{"label":"Alua","lat":"15.31154","lng":"120.89433"},{"label":"Alubijid","lat":"8.57333","lng":"124.47361"},{"label":"Alubijid","lat":"8.96278","lng":"125.42583"},{"label":"Alugan","lat":"12.2188","lng":"125.4808"},{"label":"Alupay","lat":"13.84696","lng":"121.30719"},{"label":"Amacalan","lat":"15.5815","lng":"120.6112"},{"label":"Amadeo","lat":"14.17056","lng":"120.92361"},{"label":"Amaga","lat":"8.53083","lng":"126.07028"},{"label":"Amagbagan","lat":"16.0914","lng":"120.5232"},{"label":"Amas","lat":"7.05694","lng":"124.98389"},{"label":"Ambuclao","lat":"16.48333","lng":"120.75"},{"label":"Ambulong","lat":"14.08804","lng":"121.06127"},{"label":"Ambulong","lat":"11.5793","lng":"122.4987"},{"label":"Amdos","lat":"9.8821","lng":"123.0972"},{"label":"Amio","lat":"9.3571","lng":"122.9413"},{"label":"Amlimay","lat":"16.69377","lng":"120.83704"},{"label":"Ampatuan","lat":"6.86667","lng":"124.46667"},{"label":"Ampusungan","lat":"16.7804","lng":"120.7247"},{"label":"Amucao","lat":"15.46405","lng":"120.68643"},{"label":"Amulung","lat":"17.8357","lng":"121.72375"},{"label":"Amuñgan","lat":"15.3652","lng":"119.9582"},{"label":"Anahawan","lat":"10.3429","lng":"124.8782"},{"label":"Anahawan","lat":"10.27722","lng":"125.2625"},{"label":"Anakan","lat":"8.84778","lng":"125.15139"},{"label":"Anambongan","lat":"15.86634","lng":"120.38858"},{"label":"Anao","lat":"15.7291","lng":"120.6253"},{"label":"Anao","lat":"15.1415","lng":"120.69136"},{"label":"Anda","lat":"16.2892","lng":"119.95"},{"label":"Anda","lat":"9.746","lng":"124.5767"},{"label":"Andalan","lat":"5.95944","lng":"121.39028"},{"label":"Andili","lat":"7.462","lng":"125.9701"},{"label":"Andop","lat":"7.86111","lng":"125.75389"},{"label":"Andres Bonifacio","lat":"10.91667","lng":"123.25"},{"label":"Angad","lat":"17.5849","lng":"120.6257"},{"label":"Angadanan","lat":"16.75526","lng":"121.74834"},{"label":"Angat","lat":"14.9285","lng":"121.03"},{"label":"Angatel","lat":"15.80589","lng":"120.34326"},{"label":"Angeles City","lat":"15.15","lng":"120.58333"},{"label":"Angono","lat":"14.5266","lng":"121.1536"},{"label":"Ani-e","lat":"8.61361","lng":"124.87056"},{"label":"Anibongan","lat":"7.39333","lng":"125.71889"},{"label":"Anilao","lat":"12.71402","lng":"121.51242"},{"label":"Anilao","lat":"10.97778","lng":"122.75222"},{"label":"Anini-y","lat":"10.4312","lng":"121.927"},{"label":"Anito","lat":"12.44972","lng":"125.28861"},{"label":"Anonang","lat":"11","lng":"124.03333"},{"label":"Anopog","lat":"10.25","lng":"123.25"},{"label":"Anoring","lat":"11.25","lng":"123.03333"},{"label":"Antagan Segunda","lat":"17.28268","lng":"121.87153"},{"label":"Antequera","lat":"9.7809","lng":"123.8988"},{"label":"Anticala","lat":"9.00444","lng":"125.64528"},{"label":"Antipolo","lat":"15.6181","lng":"121.19"},{"label":"Antipolo","lat":"14.62578","lng":"121.12251"},{"label":"Antipolo","lat":"13.5286","lng":"123.1622"},{"label":"Antipolo","lat":"13.3927","lng":"123.5231"},{"label":"Antipolo","lat":"11.16667","lng":"123.95"},{"label":"Antipolo","lat":"10.3565","lng":"122.9646"},{"label":"Anulid","lat":"15.82563","lng":"120.48834"},{"label":"Anuling","lat":"14.12388","lng":"120.8922"},{"label":"Anuling","lat":"6.03556","lng":"121.00667"},{"label":"Anuling","lat":"13.2093","lng":"123.6761"},{"label":"Apad","lat":"13.815","lng":"122.7664"},{"label":"Apalit","lat":"14.95333","lng":"120.77"},{"label":"Aparri","lat":"18.3566","lng":"121.6406"},{"label":"Apas","lat":"10.34076","lng":"123.90261"},{"label":"Apitong","lat":"13.2391","lng":"121.2075"},{"label":"Aplaya","lat":"14.32106","lng":"121.11369"},{"label":"Aplaya","lat":"8.60861","lng":"124.76806"},{"label":"Apoya","lat":"9.2207","lng":"122.9053"},{"label":"Apud","lat":"13.13928","lng":"123.29164"},{"label":"Apurawan","lat":"9.5994","lng":"118.3489"},{"label":"Aquino","lat":"11.8221","lng":"122.1088"},{"label":"Araal","lat":"10.4195","lng":"123.0437"},{"label":"Araceli","lat":"10.5529","lng":"119.9913"},{"label":"Aramawayan","lat":"9.34247","lng":"118.1623"},{"label":"Aramayuan","lat":"9.17008","lng":"118.1872"},{"label":"Aranas Sur","lat":"11.5635","lng":"122.3901"},{"label":"Aranda","lat":"10.2365","lng":"122.9467"},{"label":"Aras-asan","lat":"8.88781","lng":"126.3112"},{"label":"Arayat","lat":"15.1505","lng":"120.7697"},{"label":"Arcangel","lat":"11.5395","lng":"122.3455"},{"label":"Arenas","lat":"15.17042","lng":"120.68571"},{"label":"Argao","lat":"9.87944","lng":"123.59556"},{"label":"Aringay","lat":"16.394","lng":"120.3545"},{"label":"Aritao","lat":"16.2979","lng":"121.0345"},{"label":"Armenia","lat":"12.25324","lng":"123.74361"},{"label":"Arminia","lat":"15.43563","lng":"120.56379"},{"label":"Aroroy","lat":"12.5111","lng":"123.3977"},{"label":"Arteche","lat":"12.2645","lng":"125.4048"},{"label":"Asia","lat":"9.5506","lng":"122.5164"},{"label":"Asingan","lat":"16.0051","lng":"120.6695"},{"label":"Astorga","lat":"6.90722","lng":"125.45583"},{"label":"Asturga","lat":"11.25449","lng":"122.8018"},{"label":"Asturias","lat":"10.5669","lng":"123.7161"},{"label":"Atabayan","lat":"10.68333","lng":"122.41667"},{"label":"Atimonan","lat":"14.0027","lng":"121.92078"},{"label":"Atipuluhan","lat":"10.51336","lng":"122.9621"},{"label":"Atok","lat":"16.58355","lng":"120.69949"},{"label":"Atop-atop","lat":"11.2322","lng":"123.7602"},{"label":"Atulayan","lat":"17.6648","lng":"121.6937"},{"label":"Aumbay","lat":"7.1026","lng":"125.7837"},{"label":"Aurelliana","lat":"10.8849","lng":"121.9769"},{"label":"Aurora","lat":"13.3476","lng":"122.5195"},{"label":"Aurora","lat":"16.99065","lng":"121.63664"},{"label":"Aurora","lat":"13.2322","lng":"121.1203"},{"label":"Aurora","lat":"8.59306","lng":"125.8375"},{"label":"Aurora","lat":"7.9506","lng":"123.5826"},{"label":"Avila","lat":"10.692","lng":"122.709"},{"label":"Awallan","lat":"17.92439","lng":"121.91305"},{"label":"Awang","lat":"7.15306","lng":"124.22111"},{"label":"Aya","lat":"13.8945","lng":"121.1139"},{"label":"Ayala Alabang","lat":"14.40599","lng":"121.02222"},{"label":"Ayugan","lat":"13.5469","lng":"123.3217"},{"label":"Ayungon","lat":"9.8589","lng":"123.1444"},{"label":"Ayusan Uno","lat":"13.95609","lng":"121.30765"},{"label":"Azagra","lat":"9.4779","lng":"123.1367"},{"label":"Baao","lat":"13.4549","lng":"123.3653"},{"label":"Baay","lat":"18.1188","lng":"120.5753"},{"label":"Babag","lat":"7.73309","lng":"126.0713"},{"label":"Babak","lat":"7.13639","lng":"125.6875"},{"label":"Babatngon","lat":"11.4238","lng":"124.8449"},{"label":"Babo-Pangulo","lat":"15.08333","lng":"120.51667"},{"label":"Babug","lat":"12.37325","lng":"121.04171"},{"label":"Bacabac","lat":"15.72477","lng":"120.42816"},{"label":"Bacacay","lat":"13.2934","lng":"123.7919"},{"label":"Bacag","lat":"15.93","lng":"120.58222"},{"label":"Bacalan","lat":"11.5464","lng":"122.0849"},{"label":"Bacarra","lat":"18.2529","lng":"120.6125"},{"label":"Bacayawan","lat":"7.76667","lng":"124.23333"},{"label":"Bachauan","lat":"11.2067","lng":"123.9634"},{"label":"Baclaran","lat":"14.53194","lng":"120.99417"},{"label":"Baclayon","lat":"9.62639","lng":"123.89417"},{"label":"Bacnar","lat":"15.88641","lng":"120.34419"},{"label":"Bacnor East","lat":"17.03449","lng":"121.70375"},{"label":"Bacnotan","lat":"16.72222","lng":"120.3525"},{"label":"Baco","lat":"13.3573","lng":"121.0983"},{"label":"Bacolod","lat":"12.22854","lng":"123.50851"},{"label":"Bacolod","lat":"8.93167","lng":"126.28944"},{"label":"Bacolod","lat":"8.11667","lng":"123.91667"},{"label":"Bacolod City","lat":"10.66667","lng":"122.95"},{"label":"Bacolor","lat":"15.0003","lng":"120.652"},{"label":"Bacon","lat":"13.03778","lng":"124.04111"},{"label":"Bacong","lat":"9.74056","lng":"124.56896"},{"label":"Bacong","lat":"9.2464","lng":"123.2956"},{"label":"Bacoor","lat":"14.45896","lng":"120.93851"},{"label":"Bacsay","lat":"15.62063","lng":"120.34341"},{"label":"Bactad Proper","lat":"15.97842","lng":"120.61026"},{"label":"Bacuag","lat":"9.60806","lng":"125.63889"},{"label":"Baculin","lat":"7.4525","lng":"126.58417"},{"label":"Baculongan","lat":"16.8","lng":"120.8333"},{"label":"Bacundao Weste","lat":"15.91536","lng":"120.47668"},{"label":"Bacungan","lat":"9.91056","lng":"118.70222"},{"label":"Bacuyangan","lat":"9.637","lng":"122.4721"},{"label":"Badak","lat":"6.84722","lng":"124.72056"},{"label":"Badian","lat":"13.03167","lng":"123.30778"},{"label":"Badian","lat":"9.86472","lng":"123.39639"},{"label":"Badiangan","lat":"11.00573","lng":"122.50051"},{"label":"Badlan","lat":"11.1414","lng":"122.52"},{"label":"Badoc","lat":"17.9265","lng":"120.4764"},{"label":"Bagabag","lat":"16.6068","lng":"121.2542"},{"label":"Bagac","lat":"14.5962","lng":"120.3928"},{"label":"Bagacay","lat":"13.777","lng":"123.3032"},{"label":"Bagacay","lat":"12.9821","lng":"124.1415"},{"label":"Bagacay","lat":"10.15209","lng":"124.25857"},{"label":"Bagacay","lat":"9.8664","lng":"123.918"},{"label":"Bagahanlad","lat":"12.5797","lng":"123.6688"},{"label":"Bagakay","lat":"8.1454","lng":"123.8157"},{"label":"Bagalangit","lat":"13.71041","lng":"120.88467"},{"label":"Bagamanoc","lat":"13.9404","lng":"124.28962"},{"label":"Bagan","lat":"6.92556","lng":"124.42028"},{"label":"Baganga","lat":"7.57389","lng":"126.56"},{"label":"Bagay","lat":"11.1964","lng":"124.035"},{"label":"Baggabag B","lat":"16.50588","lng":"121.19014"},{"label":"Bago City","lat":"10.53333","lng":"122.83333"},{"label":"Bagombong","lat":"14.3413","lng":"121.3775"},{"label":"Bagong Barrio","lat":"14.88993","lng":"120.94095"},{"label":"Bagong Pagasa","lat":"14.6627","lng":"121.0328"},{"label":"Bagong Sikat","lat":"12.36745","lng":"121.06171"},{"label":"Bagong Silangan","lat":"14.706","lng":"121.108"},{"label":"Bagong Tanza","lat":"16.98269","lng":"121.61109"},{"label":"Bagong-Sikat","lat":"15.4801","lng":"121.3073"},{"label":"Bagontapay","lat":"6.85889","lng":"124.90889"},{"label":"Bagroy","lat":"10.2031","lng":"122.9362"},{"label":"Bagtic","lat":"9.6864","lng":"123.0122"},{"label":"Bagu","lat":"18.42441","lng":"121.35573"},{"label":"Baguer","lat":"7.25611","lng":"124.50417"},{"label":"Baguinge","lat":"16.77767","lng":"121.10624"},{"label":"Baguio","lat":"16.41639","lng":"120.59306"},{"label":"Bagulin","lat":"16.60833","lng":"120.43944"},{"label":"Bagumbayan","lat":"18.1939","lng":"121.66302"},{"label":"Bagumbayan","lat":"17.72271","lng":"121.44695"},{"label":"Bagumbayan","lat":"13.45","lng":"123.66667"},{"label":"Bagumbayan","lat":"13.4653","lng":"123.3899"},{"label":"Bagumbayan","lat":"10.446","lng":"122.8348"},{"label":"Bagupaye","lat":"13.565","lng":"122.3902"},{"label":"Bah-Bah","lat":"8.60722","lng":"125.91444"},{"label":"Bahay","lat":"13.5437","lng":"123.0407"},{"label":"Bahay Pare","lat":"15.03238","lng":"120.88083"},{"label":"Baheli","lat":"10.01369","lng":"118.77294"},{"label":"Baikingon","lat":"8.47222","lng":"124.55361"},{"label":"Bail","lat":"16.2867","lng":"120.4004"},{"label":"Bailan","lat":"11.4584","lng":"122.8301"},{"label":"Bairan","lat":"10.19718","lng":"123.7271"},{"label":"Bais","lat":"9.59111","lng":"123.12278"},{"label":"Baka","lat":"7.27611","lng":"124.26417"},{"label":"Bakulong","lat":"15.5379","lng":"120.6385"},{"label":"Bakun","lat":"16.7895","lng":"120.6631"},{"label":"Bakung","lat":"4.89111","lng":"119.79417"},{"label":"Bal-os","lat":"9.4416","lng":"122.6257"},{"label":"Balabac","lat":"7.98363","lng":"117.04868"},{"label":"Balabag","lat":"11.97","lng":"121.91917"},{"label":"Balabag","lat":"10.76333","lng":"122.49306"},{"label":"Balabagan","lat":"7.52639","lng":"124.11417"},{"label":"Balading","lat":"13.3906","lng":"123.7121"},{"label":"Balagon","lat":"8.0063","lng":"123.2396"},{"label":"Balagtas","lat":"11.1333","lng":"124.5192"},{"label":"Balagtas","lat":"14.81667","lng":"120.86667"},{"label":"Balagtasin","lat":"13.9018","lng":"121.0889"},{"label":"Balagui","lat":"11.4752","lng":"124.5324"},{"label":"Balagunan","lat":"7.49222","lng":"125.52111"},{"label":"Balamban","lat":"10.5039","lng":"123.7156"},{"label":"Balanacan","lat":"13.5289","lng":"121.8677"},{"label":"Balanga","lat":"14.67611","lng":"120.53611"},{"label":"Balangbalang","lat":"9.05694","lng":"125.62278"},{"label":"Balangiga","lat":"11.10972","lng":"125.3875"},{"label":"Balangkayan","lat":"11.47139","lng":"125.51056"},{"label":"Balangonan","lat":"5.57333","lng":"125.35389"},{"label":"Balaoan","lat":"16.8219","lng":"120.4045"},{"label":"Balaoang","lat":"15.6633","lng":"120.5147"},{"label":"Balaogan","lat":"13.4328","lng":"123.2818"},{"label":"Balas","lat":"6.6875","lng":"122.13806"},{"label":"Balas","lat":"15.04998","lng":"120.58611"},{"label":"Balasan","lat":"11.4728","lng":"123.0878"},{"label":"Balasing","lat":"14.8545","lng":"121.0127"},{"label":"Balatan","lat":"13.32111","lng":"123.23333"},{"label":"Balatero","lat":"13.5021","lng":"120.9244"},{"label":"Balayan","lat":"13.93714","lng":"120.73224"},{"label":"Balayang","lat":"15.5495","lng":"120.6943"},{"label":"Balayong","lat":"9.4744","lng":"123.0623"},{"label":"Balbalan","lat":"17.44139","lng":"121.20194"},{"label":"Balele","lat":"14.06532","lng":"121.09363"},{"label":"Baleno","lat":"12.4739","lng":"123.4982"},{"label":"Baler","lat":"15.7589","lng":"121.5607"},{"label":"Balete","lat":"14.01983","lng":"121.09506"},{"label":"Balete","lat":"13.01917","lng":"124.03194"},{"label":"Balete","lat":"11.5556","lng":"122.3803"},{"label":"Balibagan Oeste","lat":"10.8","lng":"122.51667"},{"label":"Balibago","lat":"15.1624","lng":"120.5954"},{"label":"Balibago","lat":"13.92572","lng":"120.62556"},{"label":"Balibago","lat":"13.6093","lng":"121.2971"},{"label":"Baligang","lat":"13.1537","lng":"123.6432"},{"label":"Balila","lat":"8.00278","lng":"125.01306"},{"label":"Balili","lat":"7.895","lng":"123.7337"},{"label":"Balilihan","lat":"9.7561","lng":"123.973"},{"label":"Balimbing","lat":"5.0825","lng":"119.96583"},{"label":"Balinad","lat":"13.2926","lng":"123.5454"},{"label":"Balindong","lat":"7.91667","lng":"124.20028"},{"label":"Balingasag","lat":"8.74417","lng":"124.77694"},{"label":"Balingasay","lat":"16.3573","lng":"119.8564"},{"label":"Balingcanaway","lat":"15.48215","lng":"120.68543"},{"label":"Balingoan","lat":"9.00389","lng":"124.85194"},{"label":"Balingueo","lat":"15.9583","lng":"120.40973"},{"label":"Balinsacayao","lat":"10.681","lng":"124.9595"},{"label":"Balite","lat":"14.89524","lng":"120.78721"},{"label":"Balite","lat":"15.64451","lng":"120.64196"},{"label":"Balite Segundo","lat":"14.1832","lng":"120.97433"},{"label":"Balitoc","lat":"13.86269","lng":"120.63554"},{"label":"Baliton","lat":"5.74361","lng":"125.23639"},{"label":"Baliuag","lat":"14.95472","lng":"120.89694"},{"label":"Baliuag Nuevo","lat":"13.5214","lng":"123.2016"},{"label":"Baliwagan","lat":"8.71861","lng":"124.79056"},{"label":"Baliwagan","lat":"10.3971","lng":"122.8911"},{"label":"Ballesteros","lat":"18.4126","lng":"121.5152"},{"label":"Baloc","lat":"15.6435","lng":"120.8852"},{"label":"Balocawehay","lat":"10.7221","lng":"124.9678"},{"label":"Balogo","lat":"15.99032","lng":"120.28302"},{"label":"Balogo","lat":"13.5016","lng":"123.0638"},{"label":"Balogo","lat":"13.2871","lng":"123.5496"},{"label":"Balogo","lat":"10.8868","lng":"124.7105"},{"label":"Balogo","lat":"10.1148","lng":"123.1706"},{"label":"Balogo","lat":"7.2823","lng":"124.46388"},{"label":"Baloy","lat":"15.8053","lng":"120.7742"},{"label":"Balsic","lat":"14.85906","lng":"120.4824"},{"label":"Balucawi","lat":"12.2013","lng":"123.8426"},{"label":"Balucuc","lat":"14.95282","lng":"120.81452"},{"label":"Balud","lat":"12.03686","lng":"123.19351"},{"label":"Balud","lat":"11.61667","lng":"125.43333"},{"label":"Balud","lat":"10.1476","lng":"123.6953"},{"label":"Balugo","lat":"12.57923","lng":"121.43931"},{"label":"Balungao","lat":"15.89806","lng":"120.68833"},{"label":"Balut","lat":"14.68333","lng":"120.55"},{"label":"Balutakay","lat":"6.72111","lng":"125.35167"},{"label":"Balutu","lat":"15.29875","lng":"120.69226"},{"label":"Baluyot","lat":"15.79586","lng":"120.46088"},{"label":"Bamban","lat":"15.6747","lng":"120.3315"},{"label":"Bambang","lat":"16.3865","lng":"121.1066"},{"label":"Banaba","lat":"14.21667","lng":"120.85"},{"label":"Banaba","lat":"13.8966","lng":"121.21"},{"label":"Banag","lat":"13.37889","lng":"123.70333"},{"label":"Banalo","lat":"13.6464","lng":"121.1817"},{"label":"Banate","lat":"11.00222","lng":"122.8175"},{"label":"Banaue","lat":"16.91356","lng":"121.06184"},{"label":"Banawa","lat":"7.15361","lng":"124.86667"},{"label":"Banawang","lat":"14.6121","lng":"120.39"},{"label":"Banaybanay","lat":"13.9331","lng":"121.1151"},{"label":"Banaybanay","lat":"6.96233","lng":"126.01717"},{"label":"Banayoyo","lat":"17.23333","lng":"120.48333"},{"label":"Bancal","lat":"11.5591","lng":"123.1551"},{"label":"Bancasi","lat":"8.96667","lng":"125.46667"},{"label":"Banco Filipino Homes","lat":"14.43379","lng":"121.02231"},{"label":"Banga","lat":"10.5018","lng":"122.8289"},{"label":"Bañga","lat":"11.6387","lng":"122.3341"},{"label":"Bañga","lat":"6.42389","lng":"124.77833"},{"label":"Bangad","lat":"17.49543","lng":"121.77714"},{"label":"Bangad","lat":"15.5019","lng":"121.0275"},{"label":"Bangad","lat":"12.16125","lng":"123.40131"},{"label":"Bangahan","lat":"7.79634","lng":"124.73361"},{"label":"Bangan-Oda","lat":"16.1087","lng":"119.8307"},{"label":"Banganan","lat":"16.3144","lng":"121.0544"},{"label":"Bangao","lat":"16.8211","lng":"120.8404"},{"label":"Bangar","lat":"16.8936","lng":"120.4243"},{"label":"Bangkal","lat":"6.06667","lng":"121.06667"},{"label":"Bangkirohan","lat":"13.0553","lng":"123.7468"},{"label":"Bangonay","lat":"9.31444","lng":"125.55389"},{"label":"Bangued","lat":"17.60833","lng":"120.63806"},{"label":"Bangui","lat":"18.5376","lng":"120.7671"},{"label":"Banhigan","lat":"9.85903","lng":"123.38926"},{"label":"Bani","lat":"16.185","lng":"119.8613"},{"label":"Bani","lat":"15.5823","lng":"119.9335"},{"label":"Banilad","lat":"14.0667","lng":"120.7347"},{"label":"Banilad","lat":"9.2786","lng":"123.2936"},{"label":"Banisilan","lat":"7.49083","lng":"124.72417"},{"label":"Bankaw","lat":"5.0192","lng":"120.0091"},{"label":"Banocboc","lat":"14.3","lng":"122.58333"},{"label":"Banog Sur","lat":"16.16542","lng":"119.89802"},{"label":"Banos","lat":"12.64553","lng":"120.90972"},{"label":"Banquero","lat":"17.02305","lng":"121.77834"},{"label":"Bansalan","lat":"6.78611","lng":"125.21333"},{"label":"Bansud","lat":"12.865","lng":"121.45639"},{"label":"Bantacan","lat":"7.604","lng":"126.1298"},{"label":"Bantay","lat":"17.58472","lng":"120.38917"},{"label":"Bantay","lat":"17.43793","lng":"120.75775"},{"label":"Bantayan","lat":"12.5237","lng":"124.8283"},{"label":"Bantayan","lat":"11.1683","lng":"123.7223"},{"label":"Bantilan","lat":"14.75814","lng":"121.66902"},{"label":"Bantiqui","lat":"10.9245","lng":"124.4154"},{"label":"Bantog","lat":"16.0091","lng":"120.6929"},{"label":"Bantogon","lat":"6.53333","lng":"124.03333"},{"label":"Bantuanon","lat":"8.01528","lng":"125.07083"},{"label":"Banugao","lat":"14.74825","lng":"121.6184"},{"label":"Bao","lat":"13.6414","lng":"122.8314"},{"label":"Baon","lat":"6.79562","lng":"126.08778"},{"label":"Baquero Norte","lat":"15.7162","lng":"120.5543"},{"label":"Baracatan","lat":"6.9675","lng":"125.41583"},{"label":"Barahan","lat":"13.0121","lng":"120.762"},{"label":"Barangobong","lat":"15.87778","lng":"120.54833"},{"label":"Baras","lat":"14.51691","lng":"121.2658"},{"label":"Baras","lat":"13.6588","lng":"124.37"},{"label":"Baras","lat":"11.18333","lng":"125.01667"},{"label":"Barayong","lat":"13.1","lng":"123.71667"},{"label":"Barbaza","lat":"11.19572","lng":"122.03861"},{"label":"Barcelona","lat":"13.7715","lng":"123.0485"},{"label":"Barcelona","lat":"12.8683","lng":"124.1419"},{"label":"Barcelona","lat":"8.5275","lng":"123.4587"},{"label":"Barcelona","lat":"8.15917","lng":"126.43417"},{"label":"Barili","lat":"10.115","lng":"123.5103"},{"label":"Barira","lat":"7.48722","lng":"124.29917"},{"label":"Bariw","lat":"13.13333","lng":"123.73333"},{"label":"Barlig","lat":"17.03725","lng":"121.10384"},{"label":"Baro","lat":"15.99895","lng":"120.6735"},{"label":"Barobo","lat":"8.53528","lng":"126.12139"},{"label":"Barong","lat":"18.0576","lng":"120.734"},{"label":"Barong Barong","lat":"8.8535","lng":"117.8939"},{"label":"Barongis","lat":"7.26111","lng":"124.56417"},{"label":"Barotac Nuevo","lat":"10.89417","lng":"122.70444"},{"label":"Barotac Viejo","lat":"11.04194","lng":"122.85222"},{"label":"Baroy","lat":"8.0269","lng":"123.7784"},{"label":"Barra","lat":"12.0717","lng":"123.6395"},{"label":"Barra","lat":"8.51028","lng":"124.60444"},{"label":"Barucboc Norte","lat":"17.25857","lng":"121.60561"},{"label":"Barugo","lat":"11.32417","lng":"124.73833"},{"label":"Barurao","lat":"6.89806","lng":"124.5975"},{"label":"Basa","lat":"8.07222","lng":"126.06417"},{"label":"Basag","lat":"8.92548","lng":"125.62167"},{"label":"Basak","lat":"8.04111","lng":"124.86278"},{"label":"Basak","lat":"6.72736","lng":"124.15117"},{"label":"Basak","lat":"10.2264","lng":"123.3064"},{"label":"Basay","lat":"9.4087","lng":"122.64"},{"label":"Bascaron","lat":"13.1029","lng":"123.6999"},{"label":"Basco","lat":"20.44865","lng":"121.97017"},{"label":"Basdiot","lat":"9.94718","lng":"123.37515"},{"label":"Basey","lat":"11.28205","lng":"125.06986"},{"label":"Basiad","lat":"14.15617","lng":"122.33749"},{"label":"Basiao","lat":"11.54861","lng":"122.6375"},{"label":"Basiawan","lat":"6.53417","lng":"125.48694"},{"label":"Basicao Coastal","lat":"13.04589","lng":"123.40423"},{"label":"Basilisa","lat":"10","lng":"125.5"},{"label":"Basing","lat":"15.98505","lng":"120.26831"},{"label":"Basista","lat":"15.8524","lng":"120.3976"},{"label":"Basud","lat":"14.065","lng":"122.9642"},{"label":"Basud","lat":"12.98889","lng":"123.95"},{"label":"Basud","lat":"11.3663","lng":"124.3631"},{"label":"Batac City","lat":"18.0554","lng":"120.56489"},{"label":"Batad","lat":"11.418","lng":"123.108"},{"label":"Batal","lat":"16.6875","lng":"121.60083"},{"label":"Batan","lat":"11.5857","lng":"122.4971"},{"label":"Batana","lat":"13.2498","lng":"123.5641"},{"label":"Batangas","lat":"13.7567","lng":"121.0584"},{"label":"Bataquil","lat":"16.15528","lng":"120.5275"},{"label":"Batarasa","lat":"8.67335","lng":"117.62795"},{"label":"Batas","lat":"14.2","lng":"120.81667"},{"label":"Batasan","lat":"12.76667","lng":"120.78333"},{"label":"Batasan","lat":"7.03333","lng":"125.05"},{"label":"Batasan Bata","lat":"15.14442","lng":"120.94077"},{"label":"Bateria","lat":"11.1416","lng":"124.0267"},{"label":"Batiano","lat":"7.5534","lng":"126.4907"},{"label":"Batitang","lat":"15.4004","lng":"120.80276"},{"label":"Bato","lat":"13.6068","lng":"124.2986"},{"label":"Bato","lat":"13.3528","lng":"123.3677"},{"label":"Bato","lat":"10.80854","lng":"123.3733"},{"label":"Bato","lat":"10.825","lng":"119.471"},{"label":"Bato","lat":"10.32778","lng":"124.79111"},{"label":"Bato","lat":"8.6027","lng":"123.6449"},{"label":"Bato","lat":"7.04306","lng":"125.47306"},{"label":"Bato Bato","lat":"6.0344","lng":"120.9463"},{"label":"Batobalane","lat":"14.23333","lng":"122.75"},{"label":"Batobato","lat":"6.82522","lng":"126.08458"},{"label":"Battung","lat":"17.72261","lng":"121.45914"},{"label":"Batu","lat":"7.75333","lng":"122.82944"},{"label":"Batuan","lat":"12.3976","lng":"123.76279"},{"label":"Batuan","lat":"9.7808","lng":"124.1484"},{"label":"Batutitik","lat":"6.22333","lng":"125.25194"},{"label":"Bau","lat":"7.40528","lng":"124.64972"},{"label":"Bauan","lat":"17.72256","lng":"121.68028"},{"label":"Bauan","lat":"13.7917","lng":"121.0085"},{"label":"Bauang","lat":"16.53083","lng":"120.33306"},{"label":"Baud","lat":"11.2111","lng":"123.7031"},{"label":"Baugo","lat":"10.31745","lng":"123.919"},{"label":"Bauko","lat":"16.9898","lng":"120.8671"},{"label":"Baunu-Timbangan","lat":"6.00547","lng":"120.99406"},{"label":"Bautista","lat":"15.78362","lng":"120.49848"},{"label":"Bautista","lat":"13.99444","lng":"121.27778"},{"label":"Bawison","lat":"5.9375","lng":"120.8745"},{"label":"Bay","lat":"14.18368","lng":"121.28554"},{"label":"Bay-ang","lat":"11.03472","lng":"122.94167"},{"label":"Bayabas","lat":"16.45","lng":"120.51667"},{"label":"Bayabas","lat":"8.96972","lng":"126.28611"},{"label":"Bayambang","lat":"15.8127","lng":"120.4557"},{"label":"Bayanan","lat":"13.3592","lng":"121.1699"},{"label":"Bayang","lat":"7.79278","lng":"124.19167"},{"label":"Bayanga","lat":"7.52139","lng":"124.25222"},{"label":"Bayaoas","lat":"15.83404","lng":"120.26478"},{"label":"Bayas","lat":"11.4336","lng":"123.1816"},{"label":"Bayasong","lat":"6.64889","lng":"124.87306"},{"label":"Bayawan","lat":"9.3649","lng":"122.804"},{"label":"Baybay","lat":"13.4083","lng":"123.7135"},{"label":"Baybay","lat":"10.6785","lng":"124.8006"},{"label":"Baybayin","lat":"13.82083","lng":"121.26992"},{"label":"Baylo","lat":"7.85514","lng":"126.05563"},{"label":"Bayog","lat":"7.86667","lng":"123.06667"},{"label":"Bayombong","lat":"16.4812","lng":"121.1497"},{"label":"Bayugan","lat":"8.75611","lng":"125.7675"},{"label":"Bayuin","lat":"13.0411","lng":"121.38852"},{"label":"Beberon","lat":"13.5444","lng":"123.1405"},{"label":"Becerril","lat":"9.6531","lng":"123.4344"},{"label":"Beddeng","lat":"14.97728","lng":"120.08493"},{"label":"Begang","lat":"6.6909","lng":"122.0168"},{"label":"Bel Air","lat":"14.5594","lng":"121.0258"},{"label":"Belance","lat":"16.18333","lng":"121.25"},{"label":"Belison","lat":"10.8384","lng":"121.9605"},{"label":"Benito Soliven","lat":"16.98155","lng":"121.95994"},{"label":"Besao","lat":"17.095","lng":"120.8579"},{"label":"Betwagan","lat":"17.08333","lng":"120.96667"},{"label":"Biabas","lat":"9.8","lng":"124.46667"},{"label":"Bialong","lat":"6.98056","lng":"124.88889"},{"label":"Biao","lat":"10.1088","lng":"122.9772"},{"label":"Biao","lat":"7.16333","lng":"125.52111"},{"label":"Biasong","lat":"10.5229","lng":"123.736"},{"label":"Biay","lat":"15.7402","lng":"119.9067"},{"label":"Bibiclat","lat":"15.52186","lng":"120.86235"},{"label":"Bical Norte","lat":"15.81471","lng":"120.43509"},{"label":"Bicos","lat":"15.6602","lng":"121.0414"},{"label":"Bien Unido","lat":"10.13729","lng":"124.37761"},{"label":"Biga","lat":"13.90401","lng":"120.64875"},{"label":"Biga","lat":"14.25759","lng":"120.97195"},{"label":"Biga","lat":"13.3106","lng":"121.161"},{"label":"Biga","lat":"8.35778","lng":"124.25972"},{"label":"Bigaa","lat":"13.1993","lng":"123.7566"},{"label":"Bigaan","lat":"8.31722","lng":"126.28111"},{"label":"Bignay Uno","lat":"13.86445","lng":"121.48792"},{"label":"Biking","lat":"9.59382","lng":"123.84303"},{"label":"Bil-Loca","lat":"18.0875","lng":"120.5687"},{"label":"Bilad","lat":"15.73676","lng":"120.43321"},{"label":"Bilao","lat":"11.488","lng":"122.5599"},{"label":"Bilar","lat":"9.70825","lng":"124.10717"},{"label":"Bilaran","lat":"14.03528","lng":"120.71028"},{"label":"Biliran","lat":"11.46694","lng":"124.47396"},{"label":"Bilog-Bilog","lat":"14.11361","lng":"121.08861"},{"label":"Bilwang","lat":"10.8834","lng":"124.4667"},{"label":"Binabaan","lat":"11.0191","lng":"122.5221"},{"label":"Binabalian","lat":"16.4202","lng":"119.9279"},{"label":"Binahaan","lat":"13.9917","lng":"121.75391"},{"label":"Binalan","lat":"18.3275","lng":"121.5451"},{"label":"Binalbagan","lat":"10.1948","lng":"122.8581"},{"label":"Binalonan","lat":"16.0503","lng":"120.5926"},{"label":"Biñan","lat":"14.34267","lng":"121.08071"},{"label":"Binangonan","lat":"14.4646","lng":"121.1929"},{"label":"Binantocan","lat":"11.4073","lng":"122.8602"},{"label":"Binanwanaan","lat":"13.7","lng":"123.3"},{"label":"Binay","lat":"13.5019","lng":"122.5983"},{"label":"Bincoñgan","lat":"7.36667","lng":"125.75"},{"label":"Binday","lat":"16.12812","lng":"120.45238"},{"label":"Bingawan","lat":"11.233","lng":"122.5672"},{"label":"Binguang","lat":"17.45893","lng":"121.79519"},{"label":"Binidayan","lat":"7.80668","lng":"124.16846"},{"label":"Binitayan","lat":"13.2945","lng":"123.7579"},{"label":"Binitinan","lat":"8.71","lng":"124.77556"},{"label":"Binlod","lat":"9.91845","lng":"123.60743"},{"label":"Binmaley","lat":"16.03232","lng":"120.26904"},{"label":"Binodegahan","lat":"13.0614","lng":"123.4579"},{"label":"Binon-an","lat":"11.3947","lng":"123.1426"},{"label":"Binondo","lat":"14.603","lng":"120.974"},{"label":"Binonga","lat":"10.7719","lng":"122.9817"},{"label":"Bintacay","lat":"13.4986","lng":"121.8768"},{"label":"Bintawan","lat":"16.57588","lng":"121.18764"},{"label":"Binuang","lat":"5.95694","lng":"121.06"},{"label":"Binuangan","lat":"8.91528","lng":"124.78833"},{"label":"Binuatan","lat":"7.61222","lng":"123.34417"},{"label":"Binubusan","lat":"13.96947","lng":"120.63572"},{"label":"Binucayan","lat":"8.25","lng":"125.71667"},{"label":"Binulasan","lat":"14.73159","lng":"121.69781"},{"label":"Biri","lat":"12.68333","lng":"124.36361"},{"label":"Bislig","lat":"11.0725","lng":"125.03361"},{"label":"Bislig","lat":"8.21528","lng":"126.31639"},{"label":"Bitadtun","lat":"11.4969","lng":"122.08511"},{"label":"Bitag Grande","lat":"17.90244","lng":"121.85013"},{"label":"Bitangan","lat":"14.25389","lng":"120.87833"},{"label":"Bitanjuan","lat":"10.5955","lng":"124.7663"},{"label":"Bitaogan","lat":"6.76842","lng":"126.07738"},{"label":"Bitin","lat":"14.11647","lng":"121.22194"},{"label":"Biton","lat":"11.23279","lng":"123.9993"},{"label":"Bitoon","lat":"10.0804","lng":"123.4587"},{"label":"Bituñgol","lat":"14.88333","lng":"121.03333"},{"label":"Biwang","lat":"6.60592","lng":"124.54358"},{"label":"Blingkong","lat":"6.58808","lng":"124.88951"},{"label":"Blinsung","lat":"7.01806","lng":"124.18056"},{"label":"Boac","lat":"13.4463","lng":"121.84"},{"label":"Bobon","lat":"12.5246","lng":"124.5636"},{"label":"Bobon","lat":"6.86782","lng":"126.32838"},{"label":"Bobon Second","lat":"15.65653","lng":"120.38119"},{"label":"Bobonan","lat":"16.1348","lng":"120.5271"},{"label":"Bocana","lat":"10.0116","lng":"122.7217"},{"label":"Bocaue","lat":"14.79833","lng":"120.92611"},{"label":"Bocos","lat":"16.92646","lng":"121.05734"},{"label":"Bodega","lat":"14.9229","lng":"120.47982"},{"label":"Bogo","lat":"11.0517","lng":"124.0055"},{"label":"Bogo","lat":"9.85686","lng":"123.56417"},{"label":"Bogtong","lat":"15.75536","lng":"120.32899"},{"label":"Bokod","lat":"16.4895","lng":"120.8313"},{"label":"Bolanon","lat":"10.9171","lng":"123.4734"},{"label":"Bolaoit","lat":"15.93218","lng":"120.43073"},{"label":"Bolboc","lat":"14.02074","lng":"120.75595"},{"label":"Bolila","lat":"6.37167","lng":"125.57139"},{"label":"Bolilao","lat":"10.88333","lng":"122.73333"},{"label":"Bolinao","lat":"16.3883","lng":"119.8923"},{"label":"Boliney","lat":"17.40773","lng":"120.78115"},{"label":"Bolingit","lat":"15.95873","lng":"120.3496"},{"label":"Bolisong","lat":"9.69111","lng":"123.15167"},{"label":"Bolitoc","lat":"15.7395","lng":"119.8769"},{"label":"Boljoon","lat":"9.6281","lng":"123.4785"},{"label":"Bolo","lat":"15.9948","lng":"120.1647"},{"label":"Bolo","lat":"13.78991","lng":"120.98173"},{"label":"Bolo","lat":"13.753","lng":"122.9658"},{"label":"Bolo","lat":"11.54028","lng":"122.75722"},{"label":"Bolo Bolo","lat":"8.55833","lng":"124.53"},{"label":"Bolong","lat":"10.81667","lng":"122.51667"},{"label":"Bolong","lat":"7.09833","lng":"122.23917"},{"label":"Bombon","lat":"13.6887","lng":"123.2077"},{"label":"Bonawon","lat":"9.134","lng":"122.9193"},{"label":"Bonbon","lat":"10.2245","lng":"123.5573"},{"label":"Bonbon","lat":"9.10528","lng":"124.73389"},{"label":"Bone South","lat":"16.2446","lng":"120.9958"},{"label":"Bonga","lat":"13.2799","lng":"123.7587"},{"label":"Bonga","lat":"13.21667","lng":"123.55"},{"label":"Bongabon","lat":"15.6321","lng":"121.1448"},{"label":"Boñgalon","lat":"16.00022","lng":"120.15904"},{"label":"Bongao","lat":"5.02917","lng":"119.77306"},{"label":"Bongued","lat":"7.11667","lng":"124.4"},{"label":"Bonifacio","lat":"8.0525","lng":"123.6142"},{"label":"Bontoc","lat":"17.08731","lng":"120.97685"},{"label":"Bontoc","lat":"10.3556","lng":"124.9697"},{"label":"Bood","lat":"9.74508","lng":"123.82783"},{"label":"Boot","lat":"14.04556","lng":"121.07722"},{"label":"Borbon","lat":"10.838","lng":"124.0297"},{"label":"Borbon","lat":"8.48417","lng":"125.89306"},{"label":"Borongan","lat":"11.60806","lng":"125.43194"},{"label":"Boroon","lat":"8.18278","lng":"124.17701"},{"label":"Bosdak","lat":"13.4","lng":"122.5"},{"label":"Boston","lat":"7.87111","lng":"126.36417"},{"label":"Botao","lat":"15.91667","lng":"120.41667"},{"label":"Botigues","lat":"11.0995","lng":"123.6675"},{"label":"Botolan","lat":"15.2896","lng":"120.0245"},{"label":"Boton","lat":"12.9287","lng":"124.0479"},{"label":"Brgy. Bachaw Norte, Kalibo","lat":"11.71806","lng":"122.37806"},{"label":"Brgy. Bulwang, Numancia","lat":"11.72194","lng":"122.36111"},{"label":"Brgy. Mabilo, New Washington","lat":"11.67778","lng":"122.4075"},{"label":"Brgy. Nalook, kalibo","lat":"11.68586","lng":"122.36916"},{"label":"Brgy. New Buswang, Kalibo","lat":"11.71222","lng":"122.38472"},{"label":"Brgy. Tinigao, Kalibo","lat":"11.7","lng":"122.36667"},{"label":"Brookes Point","lat":"8.77201","lng":"117.8371"},{"label":"Buadiposo-Buntong","lat":"7.96667","lng":"124.38333"},{"label":"Buadtasan","lat":"6.00496","lng":"124.61266"},{"label":"Buagsong","lat":"10.25302","lng":"123.93909"},{"label":"Bual","lat":"7.1825","lng":"124.50583"},{"label":"Bual","lat":"6.79583","lng":"124.91083"},{"label":"Bualan","lat":"7.75","lng":"124.26667"},{"label":"Bualan","lat":"7.44778","lng":"124.2675"},{"label":"Buan","lat":"5.1608","lng":"120.0426"},{"label":"Buan","lat":"5.5508","lng":"120.8815"},{"label":"Buang","lat":"13.3115","lng":"123.6421"},{"label":"Buanoy","lat":"10.46746","lng":"123.6999"},{"label":"Buansa","lat":"6.0258","lng":"120.9614"},{"label":"Buawan","lat":"8.31667","lng":"124.30306"},{"label":"Buayan","lat":"6.11639","lng":"125.23472"},{"label":"Buayan","lat":"7.26111","lng":"124.52944"},{"label":"Bucay","lat":"17.5404","lng":"120.7188"},{"label":"Buclad","lat":"7.52778","lng":"125.75056"},{"label":"Bucloc","lat":"17.44113","lng":"120.85885"},{"label":"Buco","lat":"14.08323","lng":"120.99016"},{"label":"Budta","lat":"7.20417","lng":"124.43972"},{"label":"Bued","lat":"16.16086","lng":"119.9988"},{"label":"Bued","lat":"15.83657","lng":"120.65006"},{"label":"Buenavista","lat":"10.08333","lng":"124.11611"},{"label":"Buenavista","lat":"13.867","lng":"123.302"},{"label":"Buenavista","lat":"13.25511","lng":"121.94149"},{"label":"Buenavista","lat":"12.17639","lng":"123.79056"},{"label":"Buenavista","lat":"10.79874","lng":"123.5544"},{"label":"Buenavista","lat":"10.70111","lng":"122.6275"},{"label":"Buenavista","lat":"10.61466","lng":"123.0994"},{"label":"Buenavista","lat":"10.54406","lng":"123.4478"},{"label":"Buenavista","lat":"10.1776","lng":"123.6013"},{"label":"Buenavista","lat":"10.1379","lng":"123.2439"},{"label":"Buenavista","lat":"9.84056","lng":"124.2225"},{"label":"Buenavista","lat":"9.115","lng":"126.16083"},{"label":"Buenavista","lat":"8.97694","lng":"125.40889"},{"label":"Buenavista","lat":"7.23611","lng":"122.25528"},{"label":"Buenlag","lat":"15.82976","lng":"120.51139"},{"label":"Buenlag","lat":"15.62743","lng":"120.58199"},{"label":"Buensuseso","lat":"15.19333","lng":"120.67314"},{"label":"Buga","lat":"13.2966","lng":"123.3596"},{"label":"Buga","lat":"10.71667","lng":"122.26667"},{"label":"Bugaan","lat":"14.03987","lng":"120.93609"},{"label":"Bugallon","lat":"15.9528","lng":"120.2155"},{"label":"Bugang","lat":"10.74185","lng":"123.3933"},{"label":"Bugas","lat":"9.89804","lng":"123.40492"},{"label":"Bugasan","lat":"7.44083","lng":"124.25917"},{"label":"Bugasong","lat":"11.04464","lng":"122.06463"},{"label":"Bugcaon","lat":"8.04583","lng":"125.11278"},{"label":"Bugho","lat":"10.7921","lng":"124.9364"},{"label":"Bugko","lat":"12.5356","lng":"124.7923"},{"label":"Bugo","lat":"8.50833","lng":"124.75944"},{"label":"Bugsoc","lat":"9.7834","lng":"124.2712"},{"label":"Buguey","lat":"18.28823","lng":"121.8331"},{"label":"Buguias","lat":"16.72267","lng":"120.82834"},{"label":"Buhangin","lat":"6.49111","lng":"125.5475"},{"label":"Buhatan","lat":"12.9755","lng":"124.0478"},{"label":"Buhi","lat":"13.4322","lng":"123.517"},{"label":"Bukal","lat":"13.9132","lng":"121.5264"},{"label":"Bukal","lat":"13.8364","lng":"121.0939"},{"label":"Bukal Sur","lat":"13.93806","lng":"121.38556"},{"label":"Bukay Pait","lat":"6.56161","lng":"124.76706"},{"label":"Bukid","lat":"5.57167","lng":"125.40556"},{"label":"Bula","lat":"13.4701","lng":"123.278"},{"label":"Bula","lat":"11.448","lng":"122.5685"},{"label":"Bulacan","lat":"14.79278","lng":"120.87889"},{"label":"Bulacan","lat":"6.5675","lng":"125.42111"},{"label":"Bulacnin","lat":"13.9903","lng":"121.139"},{"label":"Bulad","lat":"10.2548","lng":"122.9983"},{"label":"Bulalacao","lat":"12.32535","lng":"121.34351"},{"label":"Bulalacao","lat":"16.8358","lng":"120.8085"},{"label":"Bulalacao","lat":"11.7435","lng":"120.1715"},{"label":"Bulan","lat":"12.67139","lng":"123.875"},{"label":"Bulaon","lat":"15.08262","lng":"120.66288"},{"label":"Bularit","lat":"15.56824","lng":"120.62167"},{"label":"Bulasa","lat":"9.93206","lng":"123.61802"},{"label":"Bulata","lat":"9.8599","lng":"122.4016"},{"label":"Bulatukan","lat":"6.9025","lng":"125.16083"},{"label":"Bulawin","lat":"15.4173","lng":"119.9564"},{"label":"Buldon","lat":"7.50972","lng":"124.37139"},{"label":"Bulihan","lat":"14.87581","lng":"120.89563"},{"label":"Bulihan","lat":"14.156","lng":"120.6441"},{"label":"Bulihan","lat":"13.8091","lng":"121.2485"},{"label":"Bulihan","lat":"14.2782","lng":"120.99503"},{"label":"Buliok","lat":"7.01667","lng":"124.7"},{"label":"Buliran","lat":"15.54602","lng":"120.95959"},{"label":"Buliran Segundo","lat":"15.26667","lng":"120.86667"},{"label":"Bulit","lat":"7.11528","lng":"124.78944"},{"label":"Buliwao","lat":"16.48333","lng":"121.23333"},{"label":"Bulo","lat":"12.4109","lng":"123.5672"},{"label":"Bulod","lat":"9.68333","lng":"123.15"},{"label":"Bulog","lat":"15.9602","lng":"120.4017"},{"label":"Bulu","lat":"17.33333","lng":"121.76667"},{"label":"Bulualto","lat":"15.22127","lng":"120.95326"},{"label":"Buluan","lat":"6.72028","lng":"124.80194"},{"label":"Buluang","lat":"13.3068","lng":"123.3425"},{"label":"Buluang","lat":"12.23336","lng":"119.87581"},{"label":"Buluangan","lat":"10.38707","lng":"123.3381"},{"label":"Bulusan","lat":"12.74936","lng":"124.12087"},{"label":"Bumbaran","lat":"7.8","lng":"124.65"},{"label":"Bunawan","lat":"8.16722","lng":"125.99083"},{"label":"Bundoc","lat":"15.48575","lng":"120.71743"},{"label":"Bunga","lat":"11.4838","lng":"124.5918"},{"label":"Bunga","lat":"10.7731","lng":"124.7847"},{"label":"Bungabon","lat":"7.2221","lng":"125.8731"},{"label":"Bungad","lat":"14.6481","lng":"121.024"},{"label":"Bungahan","lat":"13.94286","lng":"120.66178"},{"label":"Bungoy","lat":"13.99779","lng":"121.36564"},{"label":"Bungsuan","lat":"11.2404","lng":"122.6976"},{"label":"Bunguiao","lat":"7.10444","lng":"122.19639"},{"label":"Bunog","lat":"9.14028","lng":"117.78167"},{"label":"Bunol","lat":"15.6671","lng":"120.8344"},{"label":"Burabod","lat":"13.2686","lng":"123.4162"},{"label":"Buracan","lat":"13.6","lng":"123.5"},{"label":"Burauen","lat":"10.97556","lng":"124.89278"},{"label":"Buray","lat":"10.715","lng":"122.45944"},{"label":"Burdeos","lat":"14.84302","lng":"121.96906"},{"label":"Burgos","lat":"18.51658","lng":"120.64492"},{"label":"Burgos","lat":"17.3324","lng":"120.4954"},{"label":"Burgos","lat":"17.08914","lng":"121.70254"},{"label":"Burgos","lat":"16.8246","lng":"121.73313"},{"label":"Burgos","lat":"16.51861","lng":"120.46278"},{"label":"Burgos","lat":"16.07181","lng":"121.04954"},{"label":"Burgos","lat":"16.0583","lng":"119.865"},{"label":"Burgos","lat":"15.72892","lng":"120.57224"},{"label":"Burgos","lat":"15.49465","lng":"120.40453"},{"label":"Burgos","lat":"9.26639","lng":"126.18833"},{"label":"Burias","lat":"11.4463","lng":"122.5497"},{"label":"Burias","lat":"5.71778","lng":"125.25361"},{"label":"Burirao","lat":"9.2","lng":"118.1"},{"label":"Buruanga","lat":"11.84428","lng":"121.88841"},{"label":"Busay","lat":"10.5378","lng":"122.886"},{"label":"Busdi","lat":"8.27611","lng":"125.25139"},{"label":"Busilak","lat":"16.4775","lng":"121.1241"},{"label":"Busing","lat":"13.15139","lng":"122.97139"},{"label":"Busok","lat":"6.5082","lng":"124.60009"},{"label":"Bustos","lat":"14.95806","lng":"120.91778"},{"label":"Busuanga","lat":"12.15847","lng":"119.91781"},{"label":"Butag","lat":"12.6292","lng":"123.9335"},{"label":"Butazon","lat":"11.3072","lng":"124.462"},{"label":"Butig","lat":"7.72444","lng":"124.30083"},{"label":"Butigui","lat":"17.11534","lng":"121.43304"},{"label":"Butuan","lat":"8.94917","lng":"125.54361"},{"label":"Butubut Norte","lat":"16.8034","lng":"120.4344"},{"label":"Butulan","lat":"5.61444","lng":"125.43167"},{"label":"Buug","lat":"7.7294","lng":"123.0598"},{"label":"Buyabod","lat":"13.4666","lng":"122.0526"},{"label":"Buyo","lat":"13.6813","lng":"123.4733"},{"label":"Buyo","lat":"13.1144","lng":"123.8666"},{"label":"Buyuan","lat":"10.67086","lng":"122.3574"},{"label":"Caabiangan","lat":"16.0874","lng":"119.9245"},{"label":"Caba","lat":"16.4316","lng":"120.3446"},{"label":"Cabacao","lat":"13.3356","lng":"120.6588"},{"label":"Cabacungan","lat":"10.3237","lng":"123.1331"},{"label":"Cabacuñgan","lat":"10.93333","lng":"124.98167"},{"label":"Cabadbaran","lat":"9.12261","lng":"125.53549"},{"label":"Cabadiangan","lat":"10.1459","lng":"122.9431"},{"label":"Cabadiangan","lat":"9.7534","lng":"122.4739"},{"label":"Cabagan","lat":"17.42782","lng":"121.76955"},{"label":"Cabalaoangan","lat":"15.98333","lng":"120.78333"},{"label":"Cabalawan","lat":"10.74139","lng":"123.9525"},{"label":"Cabalitian","lat":"16.0883","lng":"120.7922"},{"label":"Cabaluay","lat":"7.00139","lng":"122.18028"},{"label":"Cabanatuan City","lat":"15.48586","lng":"120.96648"},{"label":"Cabanbanan","lat":"14.2404","lng":"121.4341"},{"label":"Cabanbanan","lat":"10.0852","lng":"122.9579"},{"label":"Cabangahan","lat":"9.0781","lng":"122.9469"},{"label":"Cabangahan","lat":"8.02278","lng":"125.1375"},{"label":"Cabangan","lat":"15.158","lng":"120.0569"},{"label":"Cabanglasan","lat":"8.12139","lng":"125.3275"},{"label":"Cabannungan Second","lat":"17.1249","lng":"121.8506"},{"label":"Cabano","lat":"10.5869","lng":"122.7002"},{"label":"Cabaritan East","lat":"18.41781","lng":"121.48872"},{"label":"Cabarroguis","lat":"16.51105","lng":"121.52118"},{"label":"Cabatang","lat":"13.9669","lng":"121.3668"},{"label":"Cabatuan","lat":"16.95655","lng":"121.66854"},{"label":"Cabatuan","lat":"12.5228","lng":"125.2202"},{"label":"Cabatuan","lat":"10.8794","lng":"122.486"},{"label":"Cabay","lat":"13.8708","lng":"121.37992"},{"label":"Cabay","lat":"11.44556","lng":"125.49333"},{"label":"Cabayangan","lat":"7.40722","lng":"125.73306"},{"label":"Cabayaoasan","lat":"15.66323","lng":"120.55135"},{"label":"Cabcab","lat":"13.6268","lng":"124.0515"},{"label":"Cabcaben","lat":"14.454","lng":"120.5914"},{"label":"Cabiao","lat":"15.2488","lng":"120.8548"},{"label":"Cabiguan","lat":"12.90583","lng":"123.73139"},{"label":"Cabilao","lat":"11.5396","lng":"123.1436"},{"label":"Cabilauan","lat":"10.89222","lng":"122.65917"},{"label":"Cabinuangan","lat":"7.68333","lng":"126.03333"},{"label":"Cabiraoan","lat":"18.32377","lng":"122.08595"},{"label":"Cabitan","lat":"12.29434","lng":"123.34121"},{"label":"Cabittaogan","lat":"17.57788","lng":"120.35914"},{"label":"Cabodiongan","lat":"12.6643","lng":"125.0456"},{"label":"Cabog","lat":"15.3153","lng":"121.3703"},{"label":"Cabognon","lat":"13.1829","lng":"123.6777"},{"label":"Cabra","lat":"13.88833","lng":"120.04944"},{"label":"Cabucgayan","lat":"11.47194","lng":"124.575"},{"label":"Cabugao","lat":"17.7931","lng":"120.4578"},{"label":"Cabugao","lat":"13.5962","lng":"124.2804"},{"label":"Cabugao","lat":"10.81028","lng":"122.54472"},{"label":"Cabul-an","lat":"10.15684","lng":"124.04397"},{"label":"Cabulay","lat":"16.74556","lng":"121.4975"},{"label":"Cabungan","lat":"16.33999","lng":"119.9949"},{"label":"Caburan","lat":"5.91806","lng":"125.64111"},{"label":"Cabusao","lat":"13.7227","lng":"123.1169"},{"label":"Cabuyao","lat":"14.2726","lng":"121.1262"},{"label":"Cadagmayan Norte","lat":"10.81667","lng":"122.5"},{"label":"Caditaan","lat":"12.80528","lng":"123.84917"},{"label":"Cadiz","lat":"10.9465","lng":"123.288"},{"label":"Cadlan","lat":"13.5971","lng":"123.257"},{"label":"Cafe","lat":"15.33686","lng":"120.70623"},{"label":"Cagamotan","lat":"12.35583","lng":"125.28391"},{"label":"Cagayan","lat":"6.9747","lng":"118.5144"},{"label":"Cagayan de Oro","lat":"8.48222","lng":"124.64722"},{"label":"Cagayancillo","lat":"9.57694","lng":"121.20722"},{"label":"Cagbang","lat":"10.7","lng":"122.49889"},{"label":"Cagdianao","lat":"9.92111","lng":"125.66917"},{"label":"Cagmanaba","lat":"13.05501","lng":"123.29706"},{"label":"Cagsiay","lat":"14.21667","lng":"121.75"},{"label":"Cagwait","lat":"8.91861","lng":"126.30111"},{"label":"Caibiran","lat":"11.57167","lng":"124.58222"},{"label":"Caigangan","lat":"13.25811","lng":"121.93363"},{"label":"Cainta","lat":"14.5786","lng":"121.1222"},{"label":"Cajidiocan","lat":"12.36696","lng":"122.68141"},{"label":"Cajimos","lat":"12.59463","lng":"122.27531"},{"label":"Calaba","lat":"17.6178","lng":"120.6162"},{"label":"Calaba","lat":"15.3005","lng":"120.87423"},{"label":"Calabaca","lat":"14.3001","lng":"122.43364"},{"label":"Calabanga","lat":"13.7068","lng":"123.2087"},{"label":"Calabasa","lat":"7.24639","lng":"122.23417"},{"label":"Calabugao","lat":"8.45639","lng":"125.15889"},{"label":"Calaca","lat":"13.93244","lng":"120.81327"},{"label":"Calachuchi","lat":"12.21775","lng":"123.53061"},{"label":"Calamagui East","lat":"17.48815","lng":"121.76845"},{"label":"Calamba","lat":"14.21167","lng":"121.16528"},{"label":"Calamba","lat":"10.1755","lng":"123.2826"},{"label":"Calamba","lat":"9.10361","lng":"125.59417"},{"label":"Calamba","lat":"8.5587","lng":"123.6425"},{"label":"Calampisauan","lat":"10.60985","lng":"123.4765"},{"label":"Calamundingan","lat":"12.93101","lng":"121.47062"},{"label":"Calanasan","lat":"18.255","lng":"121.03444"},{"label":"Calancuasan Norte","lat":"15.80137","lng":"120.64102"},{"label":"Calangain","lat":"14.89815","lng":"120.55877"},{"label":"Calanogas","lat":"7.75","lng":"124.1"},{"label":"Calantac","lat":"17.90904","lng":"121.7228"},{"label":"Calantas","lat":"15.01933","lng":"120.51793"},{"label":"Calantas","lat":"13.97202","lng":"120.77456"},{"label":"Calaoagan","lat":"18.04279","lng":"121.72325"},{"label":"Calapan","lat":"13.4117","lng":"121.1803"},{"label":"Calape","lat":"10.2736","lng":"122.9743"},{"label":"Calape","lat":"11.9425","lng":"125.02139"},{"label":"Calape","lat":"11.1756","lng":"124.0335"},{"label":"Calape","lat":"9.8922","lng":"123.8748"},{"label":"Calasgasan","lat":"14.08333","lng":"122.93333"},{"label":"Calasiao","lat":"16.0111","lng":"120.36"},{"label":"Calatagan","lat":"13.83224","lng":"120.63219"},{"label":"Calatagan","lat":"13.5885","lng":"124.2065"},{"label":"Calatrava","lat":"12.6198","lng":"122.0714"},{"label":"Calatrava","lat":"10.59496","lng":"123.4838"},{"label":"Calatugas","lat":"9.16898","lng":"118.2235"},{"label":"Calauag","lat":"13.9575","lng":"122.288"},{"label":"Calauag","lat":"10.66817","lng":"119.5705"},{"label":"Calauan","lat":"14.14989","lng":"121.3152"},{"label":"Calaya","lat":"10.4916","lng":"122.6255"},{"label":"Calayaan","lat":"15.56739","lng":"120.51434"},{"label":"Calbayog City","lat":"12.0668","lng":"124.5962"},{"label":"Calbiga","lat":"11.62472","lng":"125.01639"},{"label":"Calepaan","lat":"16.0195","lng":"120.619"},{"label":"Calero","lat":"10.37331","lng":"123.99786"},{"label":"Calibungan","lat":"15.5982","lng":"120.724"},{"label":"Calibutbut","lat":"15.11494","lng":"120.59815"},{"label":"Calidñgan","lat":"10.1","lng":"123.63333"},{"label":"Calilayan","lat":"13.8503","lng":"121.93"},{"label":"Calinaoan Malasin","lat":"17.35189","lng":"121.74074"},{"label":"Calingcuan","lat":"15.33333","lng":"120.58333"},{"label":"Calinog","lat":"11.11667","lng":"122.56667"},{"label":"Calintaan","lat":"12.56667","lng":"120.93333"},{"label":"Calituban","lat":"10.23995","lng":"124.2919"},{"label":"Calizo","lat":"11.5819","lng":"122.3857"},{"label":"Callaguip","lat":"18.07139","lng":"120.48667"},{"label":"Caloc-an","lat":"9.04694","lng":"125.53056"},{"label":"Calog Norte","lat":"18.36359","lng":"121.38533"},{"label":"Calolbon","lat":"13.596","lng":"124.0991"},{"label":"Calomboyan","lat":"15.94652","lng":"120.30348"},{"label":"Calongbuyan","lat":"17.16478","lng":"120.42716"},{"label":"Caloocan City","lat":"14.64953","lng":"120.96788"},{"label":"Calsib","lat":"15.84711","lng":"120.26412"},{"label":"Calubcub Dos","lat":"13.7393","lng":"121.42193"},{"label":"Calubian","lat":"11.4472","lng":"124.4281"},{"label":"Calumboyan","lat":"10.79129","lng":"124.02749"},{"label":"Calumpang","lat":"15.174","lng":"121.0249"},{"label":"Calumpang","lat":"14.6228","lng":"121.0897"},{"label":"Calumpang","lat":"14.1966","lng":"121.402"},{"label":"Calumpang","lat":"13.9897","lng":"121.5494"},{"label":"Calumpang","lat":"13.84239","lng":"120.97555"},{"label":"Calumpit","lat":"14.91639","lng":"120.76583"},{"label":"Caluya","lat":"11.931","lng":"121.5477"},{"label":"Cama Juan","lat":"15.39223","lng":"120.76848"},{"label":"Camachile","lat":"14.64361","lng":"120.58083"},{"label":"Camalaniugan","lat":"18.274","lng":"121.6748"},{"label":"Camaley","lat":"15.99724","lng":"120.30107"},{"label":"Camalig","lat":"13.1821","lng":"123.6543"},{"label":"Camaligan","lat":"13.6224","lng":"123.1667"},{"label":"Camalobalo","lat":"10.2731","lng":"122.9505"},{"label":"Camambugan","lat":"10.05844","lng":"124.43811"},{"label":"Camandag","lat":"10.33333","lng":"123.06667"},{"label":"Camangcamang","lat":"10.1791","lng":"122.9865"},{"label":"Cambanay","lat":"10.54361","lng":"123.98611"},{"label":"Cambanugoy","lat":"7.5413","lng":"125.7553"},{"label":"Cambarus","lat":"10.21342","lng":"122.52117"},{"label":"Cambuga","lat":"13.61667","lng":"122.45"},{"label":"Camias","lat":"15.16679","lng":"120.97416"},{"label":"Camiling","lat":"15.6866","lng":"120.4128"},{"label":"Caminauit","lat":"12.33135","lng":"121.08251"},{"label":"Camindangan","lat":"9.9184","lng":"122.6296"},{"label":"Camingawan","lat":"9.8958","lng":"122.8625"},{"label":"Camohaguin","lat":"13.9089","lng":"122.1666"},{"label":"Camp Flora","lat":"13.3508","lng":"122.6641"},{"label":"Campoyo","lat":"9.6564","lng":"123.1479"},{"label":"Campusong","lat":"10.81583","lng":"124.03222"},{"label":"Camudmud","lat":"7.17611","lng":"125.69333"},{"label":"Can-asujan","lat":"10.1299","lng":"123.6574"},{"label":"Can-Avid","lat":"11.99528","lng":"125.44722"},{"label":"Canaman","lat":"13.648","lng":"123.1699"},{"label":"Canan Norte","lat":"15.90986","lng":"120.47763"},{"label":"Canaoalan","lat":"16.02902","lng":"120.29641"},{"label":"Canauay","lat":"9.0651","lng":"123.0524"},{"label":"Canayan","lat":"8.19556","lng":"125.14472"},{"label":"Candaba","lat":"15.0956","lng":"120.8267"},{"label":"Candabong","lat":"9.73376","lng":"124.53616"},{"label":"Candating","lat":"15.15056","lng":"120.81847"},{"label":"Candelaria","lat":"13.93111","lng":"121.42333"},{"label":"Candelaria","lat":"11.2893","lng":"122.5228"},{"label":"Candiis","lat":"8.97028","lng":"125.18417"},{"label":"Candijay","lat":"9.8182","lng":"124.4977"},{"label":"Candon","lat":"17.19472","lng":"120.45167"},{"label":"Candoni","lat":"9.817","lng":"122.6043"},{"label":"Canhandugan","lat":"11.135","lng":"124.77972"},{"label":"Canhaway","lat":"9.7501","lng":"124.4722"},{"label":"Caningay","lat":"9.8297","lng":"122.6442"},{"label":"Canjulao","lat":"9.6605","lng":"124.3532"},{"label":"Canlaon","lat":"10.38697","lng":"123.2227"},{"label":"Canmaya Diot","lat":"9.9384","lng":"124.0942"},{"label":"Canomoy","lat":"12.15735","lng":"123.27011"},{"label":"Canroma","lat":"10.3606","lng":"122.879"},{"label":"Cansilayan","lat":"10.55976","lng":"123.0184"},{"label":"Cansolungon","lat":"10.151","lng":"122.9978"},{"label":"Cansuje","lat":"9.92314","lng":"123.49629"},{"label":"Cantao-an","lat":"10.24258","lng":"123.7496"},{"label":"Cantapoy","lat":"9.49056","lng":"125.43639"},{"label":"Cantel","lat":"12.6176","lng":"121.5136"},{"label":"Cantilan","lat":"9.33361","lng":"125.9775"},{"label":"Cantoria","lat":"16.8441","lng":"120.4045"},{"label":"Canturay","lat":"9.7937","lng":"122.4543"},{"label":"Canubing No 2","lat":"13.35","lng":"121.13333"},{"label":"Caoayan","lat":"17.56194","lng":"120.3975"},{"label":"Capaga","lat":"11.4379","lng":"122.7479"},{"label":"Capalayan","lat":"9.74056","lng":"125.54444"},{"label":"Capalonga","lat":"14.3306","lng":"122.4937"},{"label":"Capandanan","lat":"15.95943","lng":"120.69519"},{"label":"Capas","lat":"15.33117","lng":"120.5898"},{"label":"Capissayan Sur","lat":"18.0509","lng":"121.8177"},{"label":"Capitan Ramon","lat":"10.7602","lng":"123.1148"},{"label":"Capoocan","lat":"11.29333","lng":"124.64194"},{"label":"Capucnasan","lat":"13.6","lng":"123.21667"},{"label":"Capul","lat":"12.4237","lng":"124.1811"},{"label":"Capulaan","lat":"15.90497","lng":"120.53719"},{"label":"Capuluan","lat":"13.8162","lng":"122.5158"},{"label":"Capuy","lat":"12.98333","lng":"123.93333"},{"label":"Carabalan","lat":"10.0964","lng":"122.946"},{"label":"Caracal","lat":"8.12722","lng":"122.845"},{"label":"Caraga","lat":"7.32972","lng":"126.5675"},{"label":"Caramay","lat":"10.1815","lng":"119.236"},{"label":"Caramoan","lat":"13.7707","lng":"123.8631"},{"label":"Caramoran","lat":"13.9849","lng":"124.1347"},{"label":"Caramutan","lat":"15.92074","lng":"120.61012"},{"label":"Caranan","lat":"13.5167","lng":"123.0156"},{"label":"Carasi","lat":"18.19889","lng":"120.86833"},{"label":"Caraycaray","lat":"11.5551","lng":"124.415"},{"label":"Caraycayon","lat":"13.61667","lng":"123.48333"},{"label":"Carcar","lat":"10.1061","lng":"123.6402"},{"label":"Cardona","lat":"15.5722","lng":"120.5897"},{"label":"Cardona","lat":"14.48646","lng":"121.22752"},{"label":"Caridad","lat":"10.8315","lng":"124.7518"},{"label":"Caridad","lat":"10.4967","lng":"122.8974"},{"label":"Carig","lat":"17.65929","lng":"121.74357"},{"label":"Carigara","lat":"11.29811","lng":"124.67895"},{"label":"Carles","lat":"11.5726","lng":"123.1342"},{"label":"Carmelo","lat":"11.01667","lng":"122.81667"},{"label":"Carmelo","lat":"10.7051","lng":"123.7935"},{"label":"Carmen","lat":"15.88642","lng":"120.59984"},{"label":"Carmen","lat":"15.44702","lng":"120.82676"},{"label":"Carmen","lat":"12.6171","lng":"122.1211"},{"label":"Carmen","lat":"9.8223","lng":"124.1964"},{"label":"Carmen","lat":"9.22639","lng":"126.01722"},{"label":"Carmen","lat":"8.98861","lng":"125.2925"},{"label":"Carmen","lat":"7.36056","lng":"125.70639"},{"label":"Carmen","lat":"7.20444","lng":"124.79167"},{"label":"Carmen Grande","lat":"10.3787","lng":"122.9156"},{"label":"Carmona","lat":"14.3132","lng":"121.0576"},{"label":"Caromatan","lat":"7.7959","lng":"123.7145"},{"label":"Caronoan West","lat":"16.2633","lng":"120.4463"},{"label":"Carot","lat":"16.34468","lng":"119.98005"},{"label":"Carpenter Hill","lat":"6.44413","lng":"124.88138"},{"label":"Carranglan","lat":"15.9613","lng":"121.0641"},{"label":"Carrascal","lat":"9.37028","lng":"125.94917"},{"label":"Carriedo","lat":"16.031","lng":"120.7549"},{"label":"Carriedo","lat":"12.9344","lng":"124.105"},{"label":"Cartagena","lat":"9.8203","lng":"122.4004"},{"label":"Caruray","lat":"10.3094","lng":"119.0128"},{"label":"Carusucan","lat":"15.96589","lng":"120.63598"},{"label":"Casala-an","lat":"9.11667","lng":"123.05"},{"label":"Casambalangan","lat":"18.37646","lng":"122.12745"},{"label":"Casay","lat":"9.8204","lng":"123.5496"},{"label":"Casay","lat":"13.2632","lng":"122.5217"},{"label":"Casian","lat":"11.035","lng":"119.7136"},{"label":"Casiguran","lat":"12.87374","lng":"124.00759"},{"label":"Casisang","lat":"8.13806","lng":"125.125"},{"label":"Cassanayan","lat":"11.5169","lng":"123.0512"},{"label":"Castañas","lat":"13.8744","lng":"121.5533"},{"label":"Castilla","lat":"12.94861","lng":"123.88222"},{"label":"Castillejos","lat":"14.93363","lng":"120.19785"},{"label":"Castillo","lat":"13.7313","lng":"123.1166"},{"label":"Casuguran","lat":"14.7167","lng":"122.37422"},{"label":"Catabangan","lat":"13.8777","lng":"122.6615"},{"label":"Catablan","lat":"15.9757","lng":"120.4953"},{"label":"Cataingan","lat":"12.003","lng":"123.992"},{"label":"Catanauan","lat":"13.5926","lng":"122.3215"},{"label":"Catarman","lat":"12.4989","lng":"124.6377"},{"label":"Catarman","lat":"9.60169","lng":"123.86111"},{"label":"Catarman","lat":"9.12556","lng":"124.67556"},{"label":"Catayauan","lat":"18.16072","lng":"121.65271"},{"label":"Catbalogan","lat":"11.77528","lng":"124.88611"},{"label":"Cateel","lat":"7.79139","lng":"126.45333"},{"label":"Caterman","lat":"17.21738","lng":"120.42442"},{"label":"Caticlan","lat":"11.93337","lng":"121.95981"},{"label":"Caticugan","lat":"9.1","lng":"123"},{"label":"Catigbian","lat":"9.8501","lng":"123.9994"},{"label":"Catmon","lat":"11.53516","lng":"124.43115"},{"label":"Catmon","lat":"10.71667","lng":"124"},{"label":"Catmondaan","lat":"10.68692","lng":"124.01494"},{"label":"Cato","lat":"15.8362","lng":"119.9151"},{"label":"Catubig","lat":"12.4098","lng":"125.0548"},{"label":"Catuday","lat":"16.2923","lng":"119.8062"},{"label":"Catungan","lat":"10.7706","lng":"122.0149"},{"label":"Catungawan Sur","lat":"9.7817","lng":"124.4693"},{"label":"Cauayan","lat":"16.93472","lng":"121.7725"},{"label":"Cauayan","lat":"15.15149","lng":"120.67166"},{"label":"Cauayan","lat":"9.9718","lng":"122.6249"},{"label":"Causip","lat":"13.5159","lng":"123.2834"},{"label":"Causwagan","lat":"8.4475","lng":"125.84028"},{"label":"Cavinti","lat":"14.24482","lng":"121.50797"},{"label":"Cavite","lat":"15.67785","lng":"120.76978"},{"label":"Cavite City","lat":"14.48369","lng":"120.89878"},{"label":"Cawayan","lat":"9.80391","lng":"123.53236"},{"label":"Cawayan","lat":"13.3672","lng":"122.5094"},{"label":"Cawayan","lat":"12.6557","lng":"121.5456"},{"label":"Cawayan","lat":"11.6237","lng":"122.4649"},{"label":"Cawayan Bugtong","lat":"15.63362","lng":"120.77695"},{"label":"Cayang","lat":"11.06667","lng":"123.98333"},{"label":"Cayanga","lat":"16.11508","lng":"120.39875"},{"label":"Cayanguan","lat":"11.689","lng":"122.2909"},{"label":"Cayhagan","lat":"9.6783","lng":"122.4335"},{"label":"Cayungnan","lat":"16.1332","lng":"119.8375"},{"label":"Cebu City","lat":"10.31672","lng":"123.89071"},{"label":"Cebuano","lat":"6.38794","lng":"124.96841"},{"label":"Cervantes","lat":"16.9909","lng":"120.7359"},{"label":"Cervantes","lat":"12.36861","lng":"124.65972"},{"label":"Cervantes","lat":"10.8726","lng":"123.5209"},{"label":"Chambrey","lat":"10.9768","lng":"123.1682"},{"label":"Cigaras","lat":"14.2266","lng":"121.4298"},{"label":"City of Isabela","lat":"6.70407","lng":"121.97117"},{"label":"City of Ligao","lat":"13.21684","lng":"123.51418"},{"label":"Clarin","lat":"9.9616","lng":"124.0252"},{"label":"Clarin","lat":"8.2023","lng":"123.8582"},{"label":"Claver","lat":"9.5725","lng":"125.73306"},{"label":"Claveria","lat":"18.60742","lng":"121.08322"},{"label":"Claveria","lat":"12.9035","lng":"123.2457"},{"label":"Claveria","lat":"8.61","lng":"124.89472"},{"label":"Codcod","lat":"10.46337","lng":"123.2495"},{"label":"Cogan","lat":"10.59306","lng":"124.01778"},{"label":"Cogon","lat":"10.0372","lng":"123.4539"},{"label":"Cogon","lat":"7.15083","lng":"125.71722"},{"label":"Cogon","lat":"11.4641","lng":"122.803"},{"label":"Cogon","lat":"10.7133","lng":"123.8284"},{"label":"Cogon","lat":"10.26778","lng":"123.75861"},{"label":"Cogon Cruz","lat":"10.50944","lng":"123.96972"},{"label":"Cogtong","lat":"9.8374","lng":"124.5291"},{"label":"Colipapa","lat":"9.4726","lng":"122.5616"},{"label":"Colongulo","lat":"6.33861","lng":"124.72167"},{"label":"Colonia","lat":"10.6553","lng":"123.7911"},{"label":"Colonia","lat":"6.64361","lng":"122.1575"},{"label":"Columbio","lat":"6.69639","lng":"124.93722"},{"label":"Comagascas","lat":"9.13972","lng":"125.55972"},{"label":"Comillas","lat":"15.39833","lng":"120.70045"},{"label":"Comillas Norte","lat":"16.959","lng":"120.7469"},{"label":"Communal","lat":"13.2548","lng":"121.1366"},{"label":"Compostela","lat":"10.455","lng":"124.0106"},{"label":"Compostela","lat":"7.67306","lng":"126.08889"},{"label":"Concepcion","lat":"15.44447","lng":"120.8007"},{"label":"Concepcion","lat":"15.32546","lng":"120.65723"},{"label":"Concepcion","lat":"15.22089","lng":"120.83114"},{"label":"Concepcion","lat":"12.3975","lng":"122.09361"},{"label":"Concepcion","lat":"11.2161","lng":"123.1073"},{"label":"Concepcion","lat":"10.692","lng":"123.0608"},{"label":"Concepcion","lat":"10.40528","lng":"124.78306"},{"label":"Concepcion","lat":"7.75056","lng":"125.71194"},{"label":"Concepcion Ibaba","lat":"13.92309","lng":"121.46099"},{"label":"Concordia","lat":"10.50767","lng":"122.5496"},{"label":"Conduaga","lat":"8.862","lng":"117.4893"},{"label":"Conel","lat":"6.20222","lng":"125.18722"},{"label":"Conner","lat":"17.79639","lng":"121.3275"},{"label":"Consolacion","lat":"11.3284","lng":"122.6332"},{"label":"Consolacion","lat":"10.3766","lng":"123.9573"},{"label":"Constancia","lat":"10.59596","lng":"122.6415"},{"label":"Consuegra","lat":"11.2976","lng":"124.5124"},{"label":"Consuelo","lat":"10.6348","lng":"124.301"},{"label":"Consuelo","lat":"9.9996","lng":"122.758"},{"label":"Consuelo","lat":"8.90167","lng":"125.1875"},{"label":"Conversion","lat":"15.8984","lng":"121.1277"},{"label":"Corcuera","lat":"12.78331","lng":"122.04851"},{"label":"Cordon","lat":"16.6744","lng":"121.4658"},{"label":"Cordova","lat":"10.73028","lng":"122.40139"},{"label":"Cordova","lat":"10.24394","lng":"123.94222"},{"label":"Corella","lat":"9.6875","lng":"123.9218"},{"label":"Corocotan","lat":"7.3998","lng":"125.7727"},{"label":"Coron","lat":"11.9986","lng":"120.2043"},{"label":"Coronon","lat":"6.87917","lng":"125.44889"},{"label":"Corrooy","lat":"16.7962","lng":"120.4453"},{"label":"Cortes","lat":"9.722","lng":"123.88"},{"label":"Cortes","lat":"9.27972","lng":"126.19111"},{"label":"Cortez","lat":"11.5301","lng":"122.3975"},{"label":"Cosina","lat":"8.10611","lng":"124.61972"},{"label":"Cotabato","lat":"7.22361","lng":"124.24639"},{"label":"Cotmon","lat":"13.1175","lng":"123.6637"},{"label":"Cuambog","lat":"7.30861","lng":"125.84806"},{"label":"Cuartero","lat":"11.3407","lng":"122.6694"},{"label":"Cuenca","lat":"13.902","lng":"121.0521"},{"label":"Cuevas","lat":"8.01917","lng":"126.09417"},{"label":"Culaba","lat":"11.65778","lng":"124.5425"},{"label":"Culacling","lat":"13.7815","lng":"122.8767"},{"label":"Culaman","lat":"5.96028","lng":"125.65861"},{"label":"Culasi","lat":"11.42721","lng":"122.05601"},{"label":"Culasi","lat":"11.07917","lng":"122.98194"},{"label":"Culasian","lat":"11.30694","lng":"124.61056"},{"label":"Culianan","lat":"6.98028","lng":"122.14667"},{"label":"Culianin","lat":"14.91511","lng":"120.89847"},{"label":"Culit","lat":"8.94722","lng":"125.35694"},{"label":"Cullalabo del Sur","lat":"17.10267","lng":"121.70394"},{"label":"Culubasa","lat":"15.14431","lng":"120.65223"},{"label":"Cumadcad","lat":"12.98056","lng":"123.78917"},{"label":"Currimao","lat":"18.0182","lng":"120.4876"},{"label":"Curry","lat":"13.6","lng":"123.3"},{"label":"Curuan","lat":"7.20528","lng":"122.23306"},{"label":"Cut-cut Primero","lat":"15.48277","lng":"120.58604"},{"label":"Cuyapo","lat":"15.78194","lng":"120.66472"},{"label":"Cuyo","lat":"10.8525","lng":"121.00861"},{"label":"Da-an Sur","lat":"11.2612","lng":"122.4202"},{"label":"Daanbantayan","lat":"11.24681","lng":"124.01462"},{"label":"Dacudao","lat":"7.21528","lng":"125.47139"},{"label":"Dado","lat":"7.05","lng":"124.45972"},{"label":"Dadus","lat":"7.0575","lng":"124.32167"},{"label":"Daet","lat":"14.1122","lng":"122.9553"},{"label":"Dagami","lat":"11.06083","lng":"124.90278"},{"label":"Dagatan","lat":"14.0017","lng":"121.3767"},{"label":"Dagatan","lat":"13.7389","lng":"121.199"},{"label":"Dagohoy","lat":"9.90016","lng":"124.28322"},{"label":"Daguioman","lat":"17.45093","lng":"120.91505"},{"label":"Daguit","lat":"14.1895","lng":"122.7266"},{"label":"Daguma","lat":"6.60345","lng":"124.5702"},{"label":"Dagumba-an","lat":"8.15306","lng":"124.59083"},{"label":"Dagup","lat":"16.63722","lng":"120.44556"},{"label":"Dagupan","lat":"17.70039","lng":"121.50448"},{"label":"Dagupan","lat":"16.04313","lng":"120.33325"},{"label":"Dahay","lat":"6.39067","lng":"124.71464"},{"label":"Dalaguete","lat":"9.7612","lng":"123.5349"},{"label":"Dalangin","lat":"7.85056","lng":"122.57833"},{"label":"Dalaoig","lat":"17.94917","lng":"121.7148"},{"label":"Daliao","lat":"5.86111","lng":"124.95333"},{"label":"Dalican","lat":"6.96667","lng":"124.4"},{"label":"Daliciasao","lat":"9.9859","lng":"122.7618"},{"label":"Dalipey","lat":"16.8","lng":"120.71667"},{"label":"Dalipuga","lat":"8.31583","lng":"124.25472"},{"label":"Dalirig","lat":"8.37722","lng":"124.90139"},{"label":"Dalorong","lat":"7.58583","lng":"125.13278"},{"label":"Dalumangcob","lat":"7.21667","lng":"124.3"},{"label":"Dalupaon","lat":"13.5517","lng":"122.9457"},{"label":"Dalupirip","lat":"16.32603","lng":"120.72414"},{"label":"Dalwangan","lat":"8.20056","lng":"125.04056"},{"label":"Damabalas","lat":"7.01556","lng":"124.51417"},{"label":"Damatulan","lat":"7.03889","lng":"124.48278"},{"label":"Damawato","lat":"6.7","lng":"124.78333"},{"label":"Damayan","lat":"11.4936","lng":"122.5531"},{"label":"Damilag","lat":"8.35472","lng":"124.81222"},{"label":"Damolog","lat":"10.77271","lng":"124.00639"},{"label":"Damortis","lat":"16.24051","lng":"120.40565"},{"label":"Dampol","lat":"14.90128","lng":"120.82187"},{"label":"Damulog","lat":"7.48361","lng":"124.94306"},{"label":"Danao","lat":"10.52083","lng":"124.02722"},{"label":"Danao","lat":"9.945","lng":"124.2233"},{"label":"Danao","lat":"9.63333","lng":"124.2"},{"label":"Danao","lat":"9.55421","lng":"123.75648"},{"label":"Dancagan","lat":"7.60917","lng":"125.00417"},{"label":"Dancalan","lat":"9.9821","lng":"122.7386"},{"label":"Dangcalan","lat":"12.9168","lng":"123.5838"},{"label":"Danglas","lat":"17.7009","lng":"120.6556"},{"label":"Danlugan","lat":"7.8922","lng":"123.3712"},{"label":"Dansuli","lat":"6.64075","lng":"124.58258"},{"label":"Dao","lat":"12.0998","lng":"125.4372"},{"label":"Dao","lat":"11.3937","lng":"122.6856"},{"label":"Dapa","lat":"9.75606","lng":"126.05164"},{"label":"Dapawan","lat":"12.40694","lng":"122.02778"},{"label":"Dapdap","lat":"12.2155","lng":"123.7662"},{"label":"Dapdap","lat":"12.062","lng":"125.4881"},{"label":"Dapdapan","lat":"11.4943","lng":"122.6314"},{"label":"Dapitan","lat":"10.26244","lng":"123.9497"},{"label":"Dapitan","lat":"8.6561","lng":"123.4227"},{"label":"Daraga","lat":"13.1483","lng":"123.7124"},{"label":"Daragutan","lat":"17","lng":"122.03333"},{"label":"Daraitan","lat":"14.6028","lng":"121.4319"},{"label":"Daram","lat":"11.6341","lng":"124.7947"},{"label":"Darapidap","lat":"17.20007","lng":"120.41802"},{"label":"Dasmariñas","lat":"14.32944","lng":"120.93667"},{"label":"Dasol","lat":"15.9902","lng":"119.8828"},{"label":"Dassun","lat":"17.74517","lng":"121.71137"},{"label":"Datagon","lat":"9.4461","lng":"123.0891"},{"label":"Datu Paglas","lat":"6.76667","lng":"124.85"},{"label":"Datu Piang","lat":"7.02833","lng":"124.5025"},{"label":"Dauin","lat":"9.1914","lng":"123.2654"},{"label":"Dauis","lat":"9.62528","lng":"123.86583"},{"label":"Davan","lat":"6.91487","lng":"126.15323"},{"label":"Davao","lat":"7.07306","lng":"125.61278"},{"label":"Davila","lat":"18.4726","lng":"120.5763"},{"label":"Dawa-Dawa","lat":"7.46833","lng":"122.83694"},{"label":"Dayap","lat":"14.18014","lng":"121.33335"},{"label":"Dayapan","lat":"13.93723","lng":"120.9162"},{"label":"Daykitin","lat":"13.27073","lng":"121.91086"},{"label":"De la Paz","lat":"11.06444","lng":"122.77917"},{"label":"De la Paz","lat":"9.70004","lng":"123.86433"},{"label":"Del Carmen","lat":"15.00544","lng":"120.53412"},{"label":"Del Carmen, Surigao del Norte","lat":"9.86944","lng":"125.96972"},{"label":"Del Gallego","lat":"13.9223","lng":"122.5954"},{"label":"Del Monte","lat":"14.6418","lng":"121.0177"},{"label":"Del Monte","lat":"7.72583","lng":"123.00806"},{"label":"Del Pilar","lat":"15.03601","lng":"120.69935"},{"label":"Del Pilar","lat":"9.15194","lng":"125.58472"},{"label":"Del Pilar","lat":"7.56306","lng":"125.82667"},{"label":"Del Pilar","lat":"15.6956","lng":"121.0863"},{"label":"Del Rosario","lat":"13.3057","lng":"123.3133"},{"label":"Diadi","lat":"16.7262","lng":"121.3589"},{"label":"Diamantina","lat":"16.91795","lng":"121.62674"},{"label":"Dian-ay","lat":"10.83333","lng":"123.55"},{"label":"Diaz","lat":"15.8463","lng":"120.8347"},{"label":"Dibuluan","lat":"16.51907","lng":"121.76472"},{"label":"Dicabisagan","lat":"17.08184","lng":"122.41574"},{"label":"Dicamay","lat":"16.75606","lng":"122.00374"},{"label":"Dicayong","lat":"8.2206","lng":"123.0338"},{"label":"Diffun","lat":"16.59","lng":"121.5057"},{"label":"Digal","lat":"6.75306","lng":"124.79639"},{"label":"Digdig","lat":"15.949","lng":"120.9778"},{"label":"Digkilaan","lat":"8.25111","lng":"124.31722"},{"label":"Digos","lat":"6.74972","lng":"125.35722"},{"label":"Dilan","lat":"16.0879","lng":"120.5207"},{"label":"Diliman Primero","lat":"15.0247","lng":"120.95208"},{"label":"Dimaluna","lat":"8.1218","lng":"123.7995"},{"label":"Dimasalang","lat":"12.1923","lng":"123.8592"},{"label":"Dimataling","lat":"7.5344","lng":"123.3738"},{"label":"Dimayon","lat":"8.06667","lng":"124.15"},{"label":"Dimiao","lat":"9.6064","lng":"124.1633"},{"label":"Dinagat","lat":"9.95611","lng":"125.59333"},{"label":"Dinahican","lat":"14.71667","lng":"121.71667"},{"label":"Dinaig","lat":"7.02556","lng":"124.315"},{"label":"Dinalongan","lat":"16.1404","lng":"121.9573"},{"label":"Dinalupihan","lat":"14.87827","lng":"120.45221"},{"label":"Dingalan","lat":"15.3897","lng":"121.3929"},{"label":"Dinganen","lat":"7.32833","lng":"124.37833"},{"label":"Dingle","lat":"10.9995","lng":"122.6711"},{"label":"Dingras","lat":"18.1032","lng":"120.6967"},{"label":"Diplahan","lat":"7.71667","lng":"123.01667"},{"label":"Dipolo","lat":"7.7828","lng":"123.1158"},{"label":"Dipolog","lat":"8.56697","lng":"123.33471"},{"label":"Disod","lat":"8.2611","lng":"123.0169"},{"label":"Ditsaan","lat":"7.97889","lng":"124.35111"},{"label":"Divisoria","lat":"17.52268","lng":"121.77421"},{"label":"Dobdoban","lat":"12.5747","lng":"122.1138"},{"label":"Dodan","lat":"17.64107","lng":"121.79449"},{"label":"Doljo","lat":"9.58745","lng":"123.73033"},{"label":"Dolo","lat":"6.81028","lng":"125.19167"},{"label":"Dologon","lat":"7.84083","lng":"125.04444"},{"label":"Dolores","lat":"15.09498","lng":"120.52889"},{"label":"Dolores","lat":"17.6477","lng":"120.7091"},{"label":"Dolores","lat":"14.02265","lng":"121.41008"},{"label":"Dolores","lat":"12.0371","lng":"125.4825"},{"label":"Dolores","lat":"11.06139","lng":"124.61333"},{"label":"Domalanoan","lat":"16.00292","lng":"120.21154"},{"label":"Domampot","lat":"16","lng":"120.65"},{"label":"Don Carlos","lat":"7.68","lng":"125.005"},{"label":"Don Pedro","lat":"15.88518","lng":"120.43036"},{"label":"Doña Remedios Trinidad","lat":"15","lng":"121.08333"},{"label":"Donsol","lat":"12.9055","lng":"123.5949"},{"label":"Doong","lat":"11.0786","lng":"123.6395"},{"label":"Doos","lat":"10.46528","lng":"124.72944"},{"label":"Dorongan Punta","lat":"15.81476","lng":"120.32266"},{"label":"Dorsalanam","lat":"8.30667","lng":"124.58556"},{"label":"Dos Hermanas","lat":"10.7421","lng":"123.0377"},{"label":"Doyong","lat":"15.97224","lng":"120.35386"},{"label":"Dualing","lat":"7.15167","lng":"124.56833"},{"label":"Dueñas","lat":"11.06698","lng":"122.61545"},{"label":"Duero","lat":"9.709","lng":"124.4055"},{"label":"Dugcal","lat":"13.6241","lng":"123.1612"},{"label":"Dugongan","lat":"14.1025","lng":"122.9066"},{"label":"Dukay","lat":"6.66688","lng":"124.55697"},{"label":"Dulag","lat":"10.9525","lng":"125.03167"},{"label":"Dulangan","lat":"13.4685","lng":"120.9803"},{"label":"Dulangan","lat":"13.3051","lng":"121.1129"},{"label":"Dulangan","lat":"11.4561","lng":"122.9557"},{"label":"Dulao","lat":"10.54176","lng":"122.9383"},{"label":"Dulian","lat":"7.12139","lng":"122.17889"},{"label":"Dulig","lat":"16.00212","lng":"120.16864"},{"label":"Dumabato","lat":"16.31667","lng":"121.7"},{"label":"Dumaguete","lat":"9.30646","lng":"123.30769"},{"label":"Dumaguil","lat":"6.62","lng":"124.65333"},{"label":"Dumalag","lat":"11.308","lng":"122.6236"},{"label":"Dumalaguing","lat":"8.34694","lng":"125.055"},{"label":"Dumalinao","lat":"7.8191","lng":"123.3694"},{"label":"Dumalneg","lat":"18.5254","lng":"120.8094"},{"label":"Dumangas","lat":"10.825","lng":"122.713"},{"label":"Dumanjog","lat":"10.057","lng":"123.4361"},{"label":"Dumarais","lat":"15.43455","lng":"120.69213"},{"label":"Dumaran","lat":"10.525","lng":"119.7671"},{"label":"Dumarao","lat":"11.2654","lng":"122.6889"},{"label":"Dumingag","lat":"8.16917","lng":"123.35056"},{"label":"Dumlan","lat":"7.4275","lng":"125.8819"},{"label":"Dumpay","lat":"15.88295","lng":"120.38899"},{"label":"Dungon","lat":"11.7196","lng":"122.316"},{"label":"Dunguan","lat":"6.94972","lng":"124.86083"},{"label":"Duran","lat":"11.2618","lng":"122.5917"},{"label":"East Migpulao","lat":"7.6325","lng":"123.35917"},{"label":"East Valencia","lat":"10.668","lng":"122.71"},{"label":"Ebcor Town","lat":"7.44056","lng":"124.39722"},{"label":"Echague","lat":"16.70509","lng":"121.67633"},{"label":"Eden","lat":"17.03809","lng":"121.59799"},{"label":"Egaña","lat":"10.7472","lng":"122.00984"},{"label":"Eguia","lat":"15.9065","lng":"119.8858"},{"label":"El Nido","lat":"11.18583","lng":"119.39556"},{"label":"El Pardo","lat":"9.66","lng":"123.4944"},{"label":"El Salvador","lat":"8.56306","lng":"124.5225"},{"label":"Enrile","lat":"17.5596","lng":"121.6974"},{"label":"Enrique Villanueva","lat":"9.2761","lng":"123.6468"},{"label":"Entablado","lat":"15.28661","lng":"120.86302"},{"label":"Eraan","lat":"9.06289","lng":"117.7016"},{"label":"Erenas","lat":"12.4245","lng":"124.3238"},{"label":"Ermita","lat":"10.9","lng":"122.71667"},{"label":"Escalante","lat":"10.84028","lng":"123.49917"},{"label":"Esmeralda","lat":"15.86722","lng":"120.715"},{"label":"España","lat":"12.38414","lng":"122.49901"},{"label":"Esperanza","lat":"11.7365","lng":"124.042"},{"label":"Esperanza","lat":"10.7027","lng":"124.4143"},{"label":"Esperanza","lat":"10.6995","lng":"124.3143"},{"label":"Esperanza","lat":"8.67694","lng":"125.64694"},{"label":"Esperanza","lat":"8.18083","lng":"124.00722"},{"label":"Esperanza","lat":"7.49167","lng":"125.72806"},{"label":"Esperanza","lat":"6.72306","lng":"124.51972"},{"label":"Esperanza","lat":"6.49804","lng":"124.66741"},{"label":"Esperanza East","lat":"17.02327","lng":"121.68402"},{"label":"Espiritu","lat":"17.9809","lng":"120.6569"},{"label":"Estaca","lat":"9.6933","lng":"124.2722"},{"label":"Estacion","lat":"15.69944","lng":"120.60833"},{"label":"Estancia","lat":"13.3589","lng":"123.6796"},{"label":"Estancia","lat":"11.4551","lng":"123.152"},{"label":"Estefania","lat":"17.79952","lng":"121.7231"},{"label":"Estipona","lat":"15.5902","lng":"120.6377"},{"label":"Estrella","lat":"15.75","lng":"121.03333"},{"label":"Estrella","lat":"13.32898","lng":"121.31092"},{"label":"Eustaquio Lopez","lat":"10.8195","lng":"123.0412"},{"label":"Evangelista","lat":"13.3335","lng":"121.0972"},{"label":"Fabrica","lat":"13.49","lng":"123.294"},{"label":"Famy","lat":"14.4376","lng":"121.4482"},{"label":"Feliciano","lat":"11.5787","lng":"122.3583"},{"label":"Ferrol","lat":"12.33833","lng":"121.94139"},{"label":"Flora","lat":"18.2163","lng":"121.4185"},{"label":"Floridablanca","lat":"14.9775","lng":"120.5285"},{"label":"Fuerte","lat":"17.53418","lng":"120.3695"},{"label":"Furao","lat":"17.03466","lng":"121.79689"},{"label":"Gabaldon","lat":"15.4522","lng":"121.3387"},{"label":"Gabao","lat":"12.9924","lng":"124.0169"},{"label":"Gabao","lat":"12.72709","lng":"123.97835"},{"label":"Gabas","lat":"10.7297","lng":"124.7961"},{"label":"Gabawan","lat":"12.42714","lng":"122.01332"},{"label":"Gabi","lat":"10.26306","lng":"123.96139"},{"label":"Gabi","lat":"11.5956","lng":"123.3376"},{"label":"Gabi","lat":"7.6215","lng":"126.092"},{"label":"Gabuyan","lat":"7.60806","lng":"125.66889"},{"label":"Gadu","lat":"17.6292","lng":"121.6105"},{"label":"Gadung","lat":"6.8025","lng":"124.02"},{"label":"Gainza","lat":"13.6165","lng":"123.1419"},{"label":"Galimuyod","lat":"17.18444","lng":"120.47194"},{"label":"Gamay","lat":"12.38542","lng":"125.29791"},{"label":"Gambalidio","lat":"13.6205","lng":"122.8913"},{"label":"Gambang","lat":"16.75","lng":"120.7833"},{"label":"Gammad","lat":"17.7104","lng":"121.7437"},{"label":"Gamu","lat":"17.04975","lng":"121.83604"},{"label":"Gamut","lat":"9.00444","lng":"126.16972"},{"label":"Gamut","lat":"8.53153","lng":"126.24117"},{"label":"Ganapi","lat":"17.20174","lng":"121.86524"},{"label":"Ganassi","lat":"7.82694","lng":"124.10344"},{"label":"Gandara","lat":"12.013","lng":"124.8118"},{"label":"Gang","lat":"7.24583","lng":"124.26639"},{"label":"Gansing","lat":"6.71851","lng":"124.65338"},{"label":"Ganyangan","lat":"7.67889","lng":"122.90944"},{"label":"Gapan","lat":"15.3072","lng":"120.9464"},{"label":"Gappal","lat":"16.83646","lng":"121.82184"},{"label":"Garchitorena","lat":"13.8804","lng":"123.6946"},{"label":"Garcia Hernandez","lat":"9.6144","lng":"124.2946"},{"label":"Gasan","lat":"13.32372","lng":"121.84675"},{"label":"Gatbo","lat":"13.58333","lng":"123.38333"},{"label":"Gattaran","lat":"18.06157","lng":"121.6441"},{"label":"Gayaman","lat":"16.01402","lng":"120.30757"},{"label":"General Emilio Aguinaldo","lat":"14.18417","lng":"120.79583"},{"label":"General Luna","lat":"15.7306","lng":"121.1791"},{"label":"General Luna","lat":"13.6866","lng":"122.1709"},{"label":"General Luna","lat":"9.78375","lng":"126.15657"},{"label":"General MacArthur","lat":"11.24639","lng":"125.53944"},{"label":"General Mamerto Natividad","lat":"15.6025","lng":"121.0515"},{"label":"General Nakar","lat":"14.76365","lng":"121.63559"},{"label":"General Santos","lat":"6.11278","lng":"125.17167"},{"label":"General Tinio","lat":"15.35075","lng":"121.04773"},{"label":"General Trias","lat":"14.38694","lng":"120.88167"},{"label":"Gerona","lat":"15.6065","lng":"120.5978"},{"label":"Getulio","lat":"10.747","lng":"122.666"},{"label":"Giawang","lat":"9.7922","lng":"124.509"},{"label":"Gibato","lat":"11.2251","lng":"122.8143"},{"label":"Gibgos","lat":"13.859","lng":"123.7675"},{"label":"Gibong","lat":"11.86338","lng":"122.03941"},{"label":"Gigaquit","lat":"9.59444","lng":"125.6975"},{"label":"Gigmoto","lat":"13.7796","lng":"124.39"},{"label":"Gimampang","lat":"8.47139","lng":"124.29667"},{"label":"Ginabuyan","lat":"11.2383","lng":"124.4047"},{"label":"Ginatilan","lat":"9.5694","lng":"123.3128"},{"label":"Gines-Patay","lat":"10.9357","lng":"122.4932"},{"label":"Giporlos","lat":"11.12","lng":"125.44944"},{"label":"Gitagum","lat":"8.59667","lng":"124.40639"},{"label":"Glad","lat":"7.14833","lng":"124.51806"},{"label":"Glamang","lat":"6.16255","lng":"125.08392"},{"label":"Glan","lat":"5.82417","lng":"125.20333"},{"label":"Glan Peidu","lat":"5.855","lng":"125.21861"},{"label":"Gloria","lat":"12.98333","lng":"121.46667"},{"label":"Goa","lat":"13.6978","lng":"123.4892"},{"label":"Gocoton","lat":"7.15611","lng":"124.69111"},{"label":"Goma","lat":"6.79194","lng":"125.32083"},{"label":"Gonzaga","lat":"18.25937","lng":"121.99495"},{"label":"Granada","lat":"11.63333","lng":"123.35"},{"label":"Gregorio del Pilar","lat":"17.13028","lng":"120.61194"},{"label":"Guadalupe","lat":"11.00444","lng":"124.01389"},{"label":"Guadalupe","lat":"10.45447","lng":"123.3732"},{"label":"Guadalupe","lat":"10.1165","lng":"123.6072"},{"label":"Guadalupe","lat":"9.7236","lng":"123.4018"},{"label":"Guadalupe","lat":"8.58278","lng":"125.70806"},{"label":"Guagua","lat":"14.9653","lng":"120.6325"},{"label":"Guba","lat":"10.3131","lng":"123.2667"},{"label":"Gubaan","lat":"7.9748","lng":"123.564"},{"label":"Gubat","lat":"12.92056","lng":"124.12306"},{"label":"Gueset","lat":"15.95","lng":"120.63333"},{"label":"Guibodangan","lat":"10.11521","lng":"123.49376"},{"label":"Guiddam","lat":"18.33493","lng":"121.46617"},{"label":"Guiguinto","lat":"14.83333","lng":"120.88333"},{"label":"Guihing Proper","lat":"6.68444","lng":"125.3525"},{"label":"Guihulñgan","lat":"10.11947","lng":"123.27287"},{"label":"Guijalo","lat":"13.7373","lng":"123.868"},{"label":"Guiling","lat":"15.84295","lng":"120.61513"},{"label":"Guiljungan","lat":"9.9805","lng":"122.6742"},{"label":"Guimba","lat":"15.6605","lng":"120.7683"},{"label":"Guimbal","lat":"10.6633","lng":"122.3228"},{"label":"Guinabsan","lat":"8.8975","lng":"125.41611"},{"label":"Guinacotan","lat":"14.1569","lng":"122.868"},{"label":"Guinayangan, Fourth District of Quezon","lat":"13.9002","lng":"122.44808"},{"label":"Guindapunan","lat":"11.30278","lng":"124.70583"},{"label":"Guindarohan","lat":"10.26111","lng":"123.76556"},{"label":"Guindulman","lat":"9.7629","lng":"124.4878"},{"label":"Guiniculalay","lat":"7.65611","lng":"123.39139"},{"label":"Guinisiliban","lat":"9.09639","lng":"124.78278"},{"label":"Guinlo","lat":"10.8009","lng":"119.4383"},{"label":"Guinoaliuan","lat":"11.6576","lng":"122.3851"},{"label":"Guinobatan","lat":"13.1913","lng":"123.5987"},{"label":"Guinsadan","lat":"16.9642","lng":"120.868"},{"label":"Guinsang-an","lat":"6.46499","lng":"124.68491"},{"label":"Guinticgan","lat":"11.5641","lng":"123.1236"},{"label":"Guintubhan","lat":"10.2074","lng":"122.9627"},{"label":"Guiong","lat":"6.41861","lng":"122.02583"},{"label":"Guipos","lat":"7.7161","lng":"123.3219"},{"label":"Guirang","lat":"11.35","lng":"125.11667"},{"label":"Guiset East","lat":"16.06667","lng":"120.68333"},{"label":"Guisguis","lat":"15.7928","lng":"119.9766"},{"label":"Guisguis","lat":"13.8738","lng":"121.5189"},{"label":"Guisijan","lat":"11.0932","lng":"122.0461"},{"label":"Guiuan","lat":"11.03088","lng":"125.72342"},{"label":"Guiwanon","lat":"11.1975","lng":"123.708"},{"label":"Gulod","lat":"13.87514","lng":"120.63359"},{"label":"Gulod","lat":"14.3449","lng":"121.2177"},{"label":"Gumaca","lat":"13.921","lng":"122.1002"},{"label":"Gumalang","lat":"7.20833","lng":"125.40361"},{"label":"Gumaus","lat":"14.3103","lng":"122.7229"},{"label":"Gumian","lat":"14.71006","lng":"121.61867"},{"label":"Gupitan","lat":"7.77583","lng":"125.64056"},{"label":"Guruyan","lat":"12.73889","lng":"123.93917"},{"label":"Gutad","lat":"14.9274","lng":"120.4894"},{"label":"Gutalac","lat":"7.9825","lng":"122.40472"},{"label":"Guyam Malaki","lat":"14.1525","lng":"120.86111"},{"label":"Guyong","lat":"14.8361","lng":"120.97844"},{"label":"Hacienda","lat":"15.936","lng":"120.1786"},{"label":"Hacienda Refugio","lat":"10.52166","lng":"123.4445"},{"label":"Hacienda Santa Rosa","lat":"10.57226","lng":"123.1012"},{"label":"Hagdan","lat":"11.33333","lng":"123.9"},{"label":"Hagnaya","lat":"11.0924","lng":"123.9435"},{"label":"Hagonoy","lat":"14.83413","lng":"120.73271"},{"label":"Hagonoy","lat":"6.68333","lng":"125.32556"},{"label":"Haguimit","lat":"10.3999","lng":"123.0178"},{"label":"Halapitan","lat":"7.9175","lng":"125.33"},{"label":"Halayhay","lat":"14.37389","lng":"120.81333"},{"label":"Halayhayin","lat":"14.1891","lng":"121.4075"},{"label":"Haligue","lat":"13.66667","lng":"121.11667"},{"label":"Halog West","lat":"16.3668","lng":"120.4147"},{"label":"Hamoraon","lat":"12.22564","lng":"123.55151"},{"label":"Hamtic","lat":"10.7023","lng":"121.9824"},{"label":"Hanggan","lat":"14.18871","lng":"121.30009"},{"label":"Hapao","lat":"16.87966","lng":"121.01604"},{"label":"Harrison","lat":"13.45","lng":"120.43333"},{"label":"Hermosa","lat":"14.8314","lng":"120.5081"},{"label":"Hernani","lat":"11.32583","lng":"125.61944"},{"label":"Herrera","lat":"13.2693","lng":"123.5769"},{"label":"Hibaiyo","lat":"10.2726","lng":"123.321"},{"label":"Hiju, Maco","lat":"7.38541","lng":"125.82822"},{"label":"Hilantagaan","lat":"11.1943","lng":"123.8131"},{"label":"Hilongos","lat":"10.37444","lng":"124.74972"},{"label":"Hilotongan","lat":"11.144","lng":"123.6426"},{"label":"Himaao","lat":"13.5448","lng":"123.3005"},{"label":"Himamaylan","lat":"10.09889","lng":"122.87056"},{"label":"Himaya","lat":"10.4516","lng":"122.8325"},{"label":"Himensulan","lat":"10.5967","lng":"124.2821"},{"label":"Hinapalanan","lat":"8.64028","lng":"124.87306"},{"label":"Hinatuan","lat":"8.37222","lng":"126.33417"},{"label":"Hindang","lat":"10.43417","lng":"124.72917"},{"label":"Hingatungan","lat":"10.584","lng":"125.1852"},{"label":"Hinigaran","lat":"10.2706","lng":"122.8507"},{"label":"Hinlayagan Ilaud","lat":"10.03061","lng":"124.33457"},{"label":"Hinunangan","lat":"10.39408","lng":"125.19768"},{"label":"Hinundayan","lat":"10.3523","lng":"125.2506"},{"label":"Hipadpad","lat":"12.2855","lng":"125.2361"},{"label":"Hipasngo","lat":"10.6624","lng":"124.8085"},{"label":"Hipona","lat":"11.4174","lng":"122.8825"},{"label":"Hobo","lat":"13.5101","lng":"123.1792"},{"label":"Hondagua","lat":"13.9455","lng":"122.2417"},{"label":"Hukay","lat":"13.84519","lng":"120.70287"},{"label":"Iba","lat":"15.45392","lng":"120.41048"},{"label":"Iba","lat":"15.3276","lng":"119.978"},{"label":"Ibaan","lat":"13.8176","lng":"121.133"},{"label":"Ibabang Tayuman","lat":"13.4042","lng":"122.5165"},{"label":"Ibajay","lat":"11.8199","lng":"122.162"},{"label":"Ibarra","lat":"10.12472","lng":"124.88417"},{"label":"Ibung","lat":"16.60938","lng":"121.18614"},{"label":"Ichon","lat":"10.09495","lng":"124.90168"},{"label":"Idio","lat":"11.6238","lng":"122.0979"},{"label":"Idtig","lat":"6.79889","lng":"124.77278"},{"label":"Igang","lat":"10.916","lng":"122.6388"},{"label":"Igbaras","lat":"10.71565","lng":"122.2657"},{"label":"Igbon","lat":"11.2142","lng":"123.1655"},{"label":"Igcocolo","lat":"10.68966","lng":"122.3193"},{"label":"Igmaya-an","lat":"10.54986","lng":"123.2206"},{"label":"Ignit","lat":"6.70083","lng":"125.29194"},{"label":"Igpit","lat":"8.51083","lng":"124.58667"},{"label":"Iguig","lat":"17.7506","lng":"121.73645"},{"label":"Ilagan","lat":"17.14854","lng":"121.88924"},{"label":"Ilangay","lat":"6.91284","lng":"126.05008"},{"label":"Ilaya","lat":"5.81528","lng":"125.22667"},{"label":"Ilaya","lat":"8.5459","lng":"123.4308"},{"label":"Iligan","lat":"8.2289","lng":"124.24344"},{"label":"Iligan City","lat":"8.25","lng":"124.4"},{"label":"Ilihan","lat":"13.631","lng":"121.0709"},{"label":"Ilihan","lat":"10.9054","lng":"123.9704"},{"label":"Ilioilio","lat":"15.9616","lng":"119.7658"},{"label":"Ilog","lat":"10.0266","lng":"122.7684"},{"label":"Iloilo","lat":"10.69694","lng":"122.56444"},{"label":"Imbang","lat":"10.7967","lng":"123.0213"},{"label":"Imbatug","lat":"8.05444","lng":"125.28389"},{"label":"Imelda","lat":"14.03333","lng":"122.88333"},{"label":"Imelda","lat":"7.64703","lng":"122.95349"},{"label":"Impalutao","lat":"8.25778","lng":"125.0275"},{"label":"Imus","lat":"14.42972","lng":"120.93667"},{"label":"Inabaan Sur","lat":"16.263","lng":"120.4781"},{"label":"Inabanga","lat":"10.0307","lng":"124.0671"},{"label":"Inangatan","lat":"11.25","lng":"124.4"},{"label":"Inapatan","lat":"13.3964","lng":"123.3227"},{"label":"Inawayan","lat":"6.96083","lng":"125.47333"},{"label":"Inayagan","lat":"10.23478","lng":"123.769"},{"label":"Inayauan","lat":"9.9005","lng":"122.434"},{"label":"Indang","lat":"14.19528","lng":"120.87694"},{"label":"Indulang","lat":"8.09028","lng":"124.58444"},{"label":"Ineangan","lat":"16.3181","lng":"121.093"},{"label":"Infanta","lat":"15.8264","lng":"119.9077"},{"label":"Infanta","lat":"14.74495","lng":"121.64953"},{"label":"Inicbulan","lat":"13.82043","lng":"120.98345"},{"label":"Initao","lat":"8.49972","lng":"124.30389"},{"label":"Inobulan","lat":"8.88639","lng":"124.79472"},{"label":"Intampilan","lat":"11.4813","lng":"122.7434"},{"label":"Ipil","lat":"13.5132","lng":"121.9841"},{"label":"Ipil","lat":"10.97472","lng":"124.63639"},{"label":"Ipil","lat":"9.7907","lng":"125.4386"},{"label":"Ipil","lat":"7.78444","lng":"122.58611"},{"label":"Ipilan","lat":"8.84306","lng":"117.90333"},{"label":"Iraga","lat":"17.7015","lng":"121.6546"},{"label":"Irahuan","lat":"9.80798","lng":"118.69191"},{"label":"Iraray","lat":"8.99361","lng":"118.05111"},{"label":"Irasan","lat":"8.526","lng":"123.206"},{"label":"Iraya","lat":"13.25","lng":"123.51667"},{"label":"Iriga City","lat":"13.4324","lng":"123.4115"},{"label":"Irirum","lat":"12.61603","lng":"120.93061"},{"label":"Irosin","lat":"12.70013","lng":"124.03221"},{"label":"Isabang","lat":"13.95694","lng":"121.57083"},{"label":"Isabel","lat":"10.9267","lng":"124.434"},{"label":"Isabela","lat":"10.2048","lng":"122.9888"},{"label":"Isla","lat":"15.89507","lng":"120.30137"},{"label":"Isugod","lat":"9.34077","lng":"118.1196"},{"label":"Isulan","lat":"6.62944","lng":"124.605"},{"label":"Itbayat","lat":"20.78733","lng":"121.84177"},{"label":"Itogon","lat":"16.36389","lng":"120.67694"},{"label":"Ivana","lat":"20.37005","lng":"121.91457"},{"label":"Ivisan","lat":"11.52167","lng":"122.69083"},{"label":"Jabonga","lat":"9.34306","lng":"125.51556"},{"label":"Jaclupan","lat":"10.30138","lng":"123.8165"},{"label":"Jaen","lat":"15.3275","lng":"120.9192"},{"label":"Jaena","lat":"11.41667","lng":"122.4"},{"label":"Jagna","lat":"9.6531","lng":"124.3697"},{"label":"Jaguimitan","lat":"11.14","lng":"122.7236"},{"label":"Jagupit","lat":"9.24222","lng":"125.55806"},{"label":"Jalajala","lat":"14.353","lng":"121.3225"},{"label":"Jalaud","lat":"10.89333","lng":"122.7475"},{"label":"Jalaud","lat":"10.8436","lng":"122.6404"},{"label":"Jamabalod","lat":"10.8788","lng":"122.6212"},{"label":"Jamindan","lat":"11.40023","lng":"122.49833"},{"label":"Jampang","lat":"9.90761","lng":"123.60015"},{"label":"Janagdong","lat":"13.9034","lng":"121.5134"},{"label":"Jandayan Norte","lat":"10.16852","lng":"124.18148"},{"label":"Janiuay","lat":"10.9493","lng":"122.5061"},{"label":"Janopol","lat":"14.08586","lng":"121.09489"},{"label":"Jantianon","lat":"9.4442","lng":"123.1657"},{"label":"Japitan","lat":"10.76524","lng":"123.5444"},{"label":"Japitan","lat":"10.1279","lng":"123.5035"},{"label":"Jarigue","lat":"11.86538","lng":"121.44041"},{"label":"Jaro","lat":"11.18375","lng":"124.78267"},{"label":"Jasaan","lat":"8.65417","lng":"124.75556"},{"label":"Javalera","lat":"14.25813","lng":"120.91558"},{"label":"Javier","lat":"8.48889","lng":"126.085"},{"label":"Jayubó","lat":"11.05","lng":"122.38333"},{"label":"Jetafe","lat":"10.14722","lng":"124.15389"},{"label":"Jiabong","lat":"11.7625","lng":"124.95194"},{"label":"Jibao-an","lat":"10.78333","lng":"122.5"},{"label":"Jimalalud","lat":"9.9797","lng":"123.1999"},{"label":"Jimenez","lat":"8.3365","lng":"123.8383"},{"label":"Jolo","lat":"6.05222","lng":"121.00222"},{"label":"Jones","lat":"16.5571","lng":"121.7029"},{"label":"Jordan","lat":"10.65836","lng":"122.5963"},{"label":"Joroan","lat":"13.4885","lng":"123.6189"},{"label":"Jose Pañganiban","lat":"14.2906","lng":"122.6917"},{"label":"Jose Rizal","lat":"8.87722","lng":"117.50415"},{"label":"Josefina","lat":"8.2","lng":"123.53333"},{"label":"Jovellar","lat":"13.0695","lng":"123.5999"},{"label":"Jovellar","lat":"7.0635","lng":"126.45558"},{"label":"Juban","lat":"12.84778","lng":"123.98778"},{"label":"Jubasan","lat":"12.4844","lng":"124.2872"},{"label":"Jugno","lat":"9.4683","lng":"123.2038"},{"label":"Julita","lat":"10.97472","lng":"124.96167"},{"label":"Kabac","lat":"11.2353","lng":"123.6979"},{"label":"Kabacan","lat":"7.10667","lng":"124.82917"},{"label":"Kabalantian","lat":"8.37083","lng":"124.3275"},{"label":"Kabalen","lat":"6.31944","lng":"125.01056"},{"label":"Kabankalan","lat":"9.9839","lng":"122.81423"},{"label":"Kabasalan","lat":"7.79722","lng":"122.765"},{"label":"Kabasalan","lat":"7.06667","lng":"124.65"},{"label":"Kabayan","lat":"16.62388","lng":"120.83994"},{"label":"Kabilauan","lat":"10.861","lng":"122.5734"},{"label":"Kablalan","lat":"5.77972","lng":"125.19778"},{"label":"Kabugao","lat":"18.01698","lng":"121.18173"},{"label":"Kabulohan","lat":"8.04333","lng":"125.27667"},{"label":"Kabulusan","lat":"14.3615","lng":"121.4004"},{"label":"Kabungahan","lat":"10.51667","lng":"123.98333"},{"label":"Kabuynan","lat":"11.08056","lng":"125.02472"},{"label":"Kadingilan","lat":"7.60111","lng":"124.90861"},{"label":"Kagay","lat":"6.0088","lng":"120.9074"},{"label":"Kajatian","lat":"6.03111","lng":"120.99194"},{"label":"Kalaisan","lat":"7.01028","lng":"125.045"},{"label":"Kalamangog","lat":"6.72556","lng":"124.06889"},{"label":"Kalamansig","lat":"6.55187","lng":"124.05111"},{"label":"Kalandagan","lat":"6.67826","lng":"124.72477"},{"label":"Kalang","lat":"5.91972","lng":"121.36306"},{"label":"Kalanganan","lat":"8.08333","lng":"124.24667"},{"label":"Kalawit","lat":"8.06667","lng":"122.51667"},{"label":"Kalayaan","lat":"14.35","lng":"121.56667"},{"label":"Kalbay","lat":"5.72333","lng":"125.49861"},{"label":"Kalbugan","lat":"6.95972","lng":"124.65917"},{"label":"Kalian","lat":"6.12306","lng":"125.70028"},{"label":"Kalian","lat":"7.5916","lng":"123.2319"},{"label":"Kalibo (poblacion)","lat":"11.70611","lng":"122.36444"},{"label":"Kaligutan","lat":"7.70306","lng":"125.81306"},{"label":"Kalilangan","lat":"7.74514","lng":"124.74777"},{"label":"Kaliling","lat":"9.9804","lng":"122.4814"},{"label":"Kaliliog","lat":"13.9039","lng":"123.2925"},{"label":"Kalugmanan","lat":"8.27778","lng":"124.85972"},{"label":"Kamanga","lat":"5.85778","lng":"125.05611"},{"label":"Kambing","lat":"5.94646","lng":"121.30757"},{"label":"Kampokpok","lat":"11.2962","lng":"124.405"},{"label":"Kananya","lat":"11.1867","lng":"124.5601"},{"label":"Kandabong","lat":"9.6859","lng":"123.0728"},{"label":"Kanlagay","lat":"5.87568","lng":"121.29146"},{"label":"Kanluran","lat":"14.41667","lng":"120.85"},{"label":"Kansipati","lat":"6.00111","lng":"121.23444"},{"label":"Kaongkod","lat":"11.25028","lng":"123.75556"},{"label":"Kapalong","lat":"7.77056","lng":"125.55861"},{"label":"Kapangan","lat":"16.5746","lng":"120.5971"},{"label":"Kapatagan","lat":"7.9003","lng":"123.7692"},{"label":"Kapatalan","lat":"14.4741","lng":"121.4903"},{"label":"Kapatan","lat":"5.90056","lng":"125.2375"},{"label":"Kapaya","lat":"6.54258","lng":"124.56314"},{"label":"Kapingkong","lat":"6.67503","lng":"124.62632"},{"label":"Kaputian","lat":"6.96583","lng":"125.72611"},{"label":"Karligan","lat":"14.97561","lng":"122.04272"},{"label":"Karungdong","lat":"5.8844","lng":"121.263"},{"label":"Kasibu","lat":"16.3167","lng":"121.2965"},