[{"label":"Abbottabad","lat":"34.1463","lng":"73.21168"},{"label":"Adilpur","lat":"27.93677","lng":"69.31941"},{"label":"Ahmadpur East","lat":"29.14269","lng":"71.25771"},{"label":"Ahmadpur Sial","lat":"30.67791","lng":"71.74344"},{"label":"Akora","lat":"34.00337","lng":"72.12561"},{"label":"Aliabad","lat":"36.30703","lng":"74.61545"},{"label":"Alik Ghund","lat":"30.48976","lng":"67.52177"},{"label":"Alipur","lat":"29.38242","lng":"70.91106"},{"label":"Alizai","lat":"33.53613","lng":"70.34607"},{"label":"Alpurai","lat":"34.92039","lng":"72.63265"},{"label":"Aman Garh","lat":"34.00584","lng":"71.92971"},{"label":"Amirabad","lat":"34.18729","lng":"73.09078"},{"label":"Arifwala","lat":"30.29058","lng":"73.06574"},{"label":"Ashanagro Koto","lat":"34.10773","lng":"72.24517"},{"label":"Athmuqam","lat":"34.57173","lng":"73.89724"},{"label":"Attock City","lat":"33.76671","lng":"72.35977"},{"label":"Awaran","lat":"26.45677","lng":"65.23144"},{"label":"Baddomalhi","lat":"31.99042","lng":"74.6641"},{"label":"Badin","lat":"24.656","lng":"68.837"},{"label":"Baffa","lat":"34.4377","lng":"73.22368"},{"label":"Bagarji","lat":"27.75431","lng":"68.75866"},{"label":"Bagh","lat":"33.98111","lng":"73.77608"},{"label":"Bahawalnagar","lat":"29.99835","lng":"73.25272"},{"label":"Bahawalnagar","lat":"30.55083","lng":"73.39083"},{"label":"Bahawalpur","lat":"29.39779","lng":"71.6752"},{"label":"Bakhri Ahmad Khan","lat":"30.73586","lng":"70.83796"},{"label":"Bandhi","lat":"26.58761","lng":"68.30215"},{"label":"Banian","lat":"32.61799","lng":"73.99235"},{"label":"Bannu","lat":"32.98527","lng":"70.60403"},{"label":"Barishal","lat":"36.32162","lng":"74.69502"},{"label":"Barkhan","lat":"29.89773","lng":"69.52558"},{"label":"Basirpur","lat":"30.57759","lng":"73.83912"},{"label":"Basti Dosa","lat":"30.78769","lng":"70.86853"},{"label":"Bat Khela","lat":"34.6178","lng":"71.97247"},{"label":"Battagram","lat":"34.67719","lng":"73.02329"},{"label":"Begowala","lat":"32.43816","lng":"74.26794"},{"label":"Bela","lat":"26.22718","lng":"66.31178"},{"label":"Berani","lat":"25.78497","lng":"68.80754"},{"label":"Bhag","lat":"29.04174","lng":"67.82394"},{"label":"Bhagwal","lat":"32.82111","lng":"73.95528"},{"label":"Bhakkar","lat":"31.62685","lng":"71.06471"},{"label":"Bhalwal","lat":"32.26576","lng":"72.89809"},{"label":"Bhan","lat":"26.55831","lng":"67.72139"},{"label":"Bhawana","lat":"31.56884","lng":"72.64917"},{"label":"Bhera","lat":"32.48206","lng":"72.90865"},{"label":"Bhimber","lat":"32.97465","lng":"74.07846"},{"label":"Bhiria","lat":"26.91041","lng":"68.19466"},{"label":"Bhit Shah","lat":"25.80565","lng":"68.49143"},{"label":"Bhopalwala","lat":"32.42968","lng":"74.3635"},{"label":"Bozdar Wada","lat":"27.183","lng":"68.6358"},{"label":"Bulri","lat":"24.86667","lng":"68.33333"},{"label":"Burewala","lat":"30.16667","lng":"72.65"},{"label":"Chak","lat":"27.85838","lng":"68.83378"},{"label":"Chak Azam Sahu","lat":"30.75202","lng":"73.02834"},{"label":"Chak Eighty Three Twelve L","lat":"30.28068","lng":"72.50178"},{"label":"Chak Eighty-eight -Six Right","lat":"30.71727","lng":"73.08187"},{"label":"Chak Fifty-six -Four Right","lat":"30.73972","lng":"73.09342"},{"label":"Chak Five Hundred Seventy-five","lat":"31.54514","lng":"73.82891"},{"label":"Chak Hundred One","lat":"30.64411","lng":"72.92556"},{"label":"Chak Jhumra","lat":"31.56808","lng":"73.18317"},{"label":"Chak Ninety-eight -Nine Left","lat":"30.595","lng":"73.11335"},{"label":"Chak Ninety-nine -Nine Left","lat":"30.61742","lng":"73.12186"},{"label":"Chak Ninety-nine -Six Right","lat":"30.6362","lng":"73.00173"},{"label":"Chak One Hundred -Nine Left","lat":"30.59378","lng":"73.09016"},{"label":"Chak One Hundred Eight -Nine Left","lat":"30.56043","lng":"73.09316"},{"label":"Chak One Hundred Eighteen Nine Left","lat":"30.47779","lng":"73.056"},{"label":"Chak One Hundred Eighty-eight Nine A Left","lat":"30.62234","lng":"72.96035"},{"label":"Chak One Hundred Eighty-five A Nine Left","lat":"30.56427","lng":"72.92878"},{"label":"Chak One Hundred Eighty-seven Nine Left","lat":"30.60569","lng":"72.95684"},{"label":"Chak One Hundred Eighty-six Nine Left","lat":"30.58736","lng":"72.95292"},{"label":"Chak One Hundred Fifty-three -Nine Left","lat":"30.44539","lng":"72.99238"},{"label":"Chak One Hundred Forty Nine Left","lat":"30.4977","lng":"72.98525"},{"label":"Chak One Hundred Forty-one Nine Left","lat":"30.51562","lng":"72.96403"},{"label":"Chak One Hundred Forty-three Nine Left","lat":"30.52978","lng":"72.93996"},{"label":"Chak One Hundred Forty-two Nine Left","lat":"30.55177","lng":"72.94758"},{"label":"Chak One Hundred Four -Nine Left","lat":"30.59539","lng":"73.03006"},{"label":"Chak One Hundred Four Seven Right","lat":"30.61919","lng":"72.82404"},{"label":"Chak One Hundred Ninety Nine A Left","lat":"30.62561","lng":"72.9248"},{"label":"Chak One Hundred Seventeen Nine Left","lat":"30.49799","lng":"73.0799"},{"label":"Chak One Hundred Six -Nine Left","lat":"30.56919","lng":"73.05113"},{"label":"Chak One Hundred Ten -Nine Left","lat":"30.56437","lng":"73.13949"},{"label":"Chak One Hundred Thirty-eight Nine Left","lat":"30.55988","lng":"72.96739"},{"label":"Chak One Hundred Thirty-nine Nine Left","lat":"30.52962","lng":"72.98869"},{"label":"Chak One Hundred Thirty-two -Nine Left","lat":"30.62251","lng":"73.0127"},{"label":"Chak One Hundred Three Seven Right","lat":"30.61657","lng":"72.84482"},{"label":"Chak One Hundred Twelve -Nine Left","lat":"30.53561","lng":"73.13924"},{"label":"Chak One Hundred Twenty Nine Left","lat":"30.42919","lng":"73.04522"},{"label":"Chak One Hundred Twenty-nine -Nine Left","lat":"30.56816","lng":"73.01283"},{"label":"Chak One Hundred Twenty-one Nine Left","lat":"30.42899","lng":"73.00773"},{"label":"Chak Pindi","lat":"32.59677","lng":"73.97301"},{"label":"Chak Sixty-five A Gugera Distributary","lat":"30.81901","lng":"73.22666"},{"label":"Chak Thirty-one -Eleven Left","lat":"30.42388","lng":"72.69737"},{"label":"Chak Three Ten Left","lat":"30.58218","lng":"72.88106"},{"label":"Chakwal","lat":"32.93286","lng":"72.85394"},{"label":"Chaman","lat":"30.91769","lng":"66.45259"},{"label":"Chamber","lat":"25.29362","lng":"68.81176"},{"label":"Charsadda","lat":"34.14822","lng":"71.7406"},{"label":"Chawinda","lat":"32.34434","lng":"74.70507"},{"label":"Chenab Nagar","lat":"31.75511","lng":"72.91403"},{"label":"Cherat Cantonement","lat":"33.82342","lng":"71.89292"},{"label":"Chhor","lat":"25.5126","lng":"69.78437"},{"label":"Chichawatni","lat":"30.5301","lng":"72.69155"},{"label":"Chilas","lat":"35.41287","lng":"74.10407"},{"label":"Chiniot","lat":"31.72091","lng":"72.97836"},{"label":"Chishtian","lat":"29.79713","lng":"72.85772"},{"label":"Chitral","lat":"35.8518","lng":"71.78636"},{"label":"Choa Saidan Shah","lat":"32.71962","lng":"72.98625"},{"label":"Chowki Jamali","lat":"28.01944","lng":"67.92083"},{"label":"Chuhar Kana","lat":"31.75","lng":"73.8"},{"label":"Chunian","lat":"30.96621","lng":"73.97908"},{"label":"Dadhar","lat":"29.47489","lng":"67.65167"},{"label":"Dadu","lat":"26.73033","lng":"67.7769"},{"label":"Dagga Maira New Name Basty Salaar Khan","lat":"34.07555","lng":"73.24339"},{"label":"Daggar","lat":"34.51106","lng":"72.48438"},{"label":"Daira Din Panah","lat":"30.57053","lng":"70.93722"},{"label":"Dajal","lat":"29.55769","lng":"70.37614"},{"label":"Dalbandin","lat":"28.88846","lng":"64.40616"},{"label":"Dambudas","lat":"35.59759","lng":"75.22493"},{"label":"Dandot RS","lat":"32.64167","lng":"72.975"},{"label":"Daromehar","lat":"24.79382","lng":"68.17978"},{"label":"Darya Khan","lat":"31.78447","lng":"71.10197"},{"label":"Darya Khan Marri","lat":"26.67765","lng":"68.28666"},{"label":"Daska Kalan","lat":"32.32422","lng":"74.35039"},{"label":"Dasu","lat":"35.29169","lng":"73.2906"},{"label":"Daud Khel","lat":"32.87533","lng":"71.57118"},{"label":"Daulatpur","lat":"26.50158","lng":"67.97079"},{"label":"Daultala","lat":"33.19282","lng":"73.14099"},{"label":"Daur","lat":"26.45528","lng":"68.31835"},{"label":"Dera Allahyar","lat":"28.37353","lng":"68.35078"},{"label":"Dera Bugti","lat":"29.03619","lng":"69.15849"},{"label":"Dera Ghazi Khan","lat":"30.04587","lng":"70.64029"},{"label":"Dera Ismail Khan","lat":"31.83129","lng":"70.9017"},{"label":"Dera Murad Jamali","lat":"28.54657","lng":"68.22308"},{"label":"Dhanot","lat":"29.57991","lng":"71.75213"},{"label":"Dhaunkal","lat":"32.40613","lng":"74.13706"},{"label":"Dhoro Naro","lat":"25.50484","lng":"69.5709"},{"label":"Digri","lat":"25.15657","lng":"69.11098"},{"label":"Dijkot","lat":"31.21735","lng":"72.99621"},{"label":"Dinan Bashnoian Wala","lat":"29.76584","lng":"73.26557"},{"label":"Dinga","lat":"32.64101","lng":"73.72039"},{"label":"Dipalpur","lat":"30.66984","lng":"73.65306"},{"label":"Diplo","lat":"24.46688","lng":"69.58114"},{"label":"Dittewal","lat":"32.5969","lng":"73.9905"},{"label":"Doaba","lat":"33.4245","lng":"70.73676"},{"label":"Dokri","lat":"27.37421","lng":"68.09715"},{"label":"Duki","lat":"30.15307","lng":"68.57323"},{"label":"Dullewala","lat":"31.83439","lng":"71.43639"},{"label":"Dunga Bunga","lat":"29.74975","lng":"73.24294"},{"label":"Dunyapur","lat":"29.80275","lng":"71.74344"},{"label":"Eidghah","lat":"35.34712","lng":"74.85632"},{"label":"Eminabad","lat":"32.04237","lng":"74.25996"},{"label":"Faisalabad","lat":"31.41554","lng":"73.08969"},{"label":"Faqirwali","lat":"29.46799","lng":"73.03489"},{"label":"Faruka","lat":"31.88642","lng":"72.41362"},{"label":"Fatehpur","lat":"31.17772","lng":"71.2048"},{"label":"Fazilpur","lat":"32.17629","lng":"75.06583"},{"label":"Fort Abbas","lat":"29.19344","lng":"72.85525"},{"label":"Gadani","lat":"25.11879","lng":"66.73219"},{"label":"Gahkuch","lat":"36.17683","lng":"73.76383"},{"label":"Gambat","lat":"27.3517","lng":"68.5215"},{"label":"Gandava","lat":"28.61321","lng":"67.48564"},{"label":"Garh Maharaja","lat":"30.83383","lng":"71.90491"},{"label":"Garhi Khairo","lat":"28.06029","lng":"67.98033"},{"label":"Garhiyasin","lat":"27.90631","lng":"68.5121"},{"label":"Gharo","lat":"24.74182","lng":"67.58534"},{"label":"Ghauspur","lat":"28.13882","lng":"69.08245"},{"label":"Ghotki","lat":"28.00437","lng":"69.31569"},{"label":"Gilgit","lat":"35.91869","lng":"74.31245"},{"label":"Gojra","lat":"31.14926","lng":"72.68323"},{"label":"Goth Garelo","lat":"27.43521","lng":"68.07572"},{"label":"Goth Phulji","lat":"26.88099","lng":"67.68239"},{"label":"Goth Radhan","lat":"27.19846","lng":"67.95348"},{"label":"Gujar Khan","lat":"33.25411","lng":"73.30433"},{"label":"Gujranwala","lat":"32.15567","lng":"74.18705"},{"label":"Gujrat","lat":"32.5742","lng":"74.07542"},{"label":"Gulishah Kach","lat":"32.67087","lng":"70.33917"},{"label":"Gwadar","lat":"25.12163","lng":"62.32541"},{"label":"Hadali","lat":"32.64043","lng":"74.56898"},{"label":"Hafizabad","lat":"32.07095","lng":"73.68802"},{"label":"Hala","lat":"25.81459","lng":"68.42198"},{"label":"Hangu","lat":"33.53198","lng":"71.0595"},{"label":"Harappa","lat":"30.63251","lng":"72.87032"},{"label":"Haripur","lat":"33.99783","lng":"72.93493"},{"label":"Harnai","lat":"30.10077","lng":"67.93824"},{"label":"Harnoli","lat":"32.27871","lng":"71.55429"},{"label":"Harunabad","lat":"29.61206","lng":"73.13802"},{"label":"Hasilpur","lat":"29.69221","lng":"72.54566"},{"label":"Hattian Bala","lat":"34.1691","lng":"73.7432"},{"label":"Haveli Lakha","lat":"30.45097","lng":"73.69371"},{"label":"Havelian","lat":"34.05348","lng":"73.15993"},{"label":"Hazro City","lat":"33.9099","lng":"72.49179"},{"label":"Hingorja","lat":"27.21088","lng":"68.41598"},{"label":"Hujra Shah Muqim","lat":"30.74168","lng":"73.82327"},{"label":"Hyderabad","lat":"25.39689","lng":"68.37718"},{"label":"Islamabad","lat":"33.72148","lng":"73.04329"},{"label":"Islamkot","lat":"24.69904","lng":"70.17982"},{"label":"Jacobabad","lat":"28.28187","lng":"68.43761"},{"label":"Jahanian Shah","lat":"31.80541","lng":"72.2774"},{"label":"Jalalpur Jattan","lat":"32.64118","lng":"74.20561"},{"label":"Jalalpur Pirwala","lat":"29.5051","lng":"71.22202"},{"label":"Jām Sāhib","lat":"26.29583","lng":"68.62917"},{"label":"Jampur","lat":"29.64235","lng":"70.59518"},{"label":"Jamshoro","lat":"25.43608","lng":"68.28017"},{"label":"Jand","lat":"33.43304","lng":"72.01877"},{"label":"Jandiala Sher Khan","lat":"31.82098","lng":"73.91815"},{"label":"Jaranwala","lat":"31.3332","lng":"73.41868"},{"label":"Jati","lat":"24.35492","lng":"68.26732"},{"label":"Jatoi Shimali","lat":"29.51827","lng":"70.84474"},{"label":"Jauharabad","lat":"32.29016","lng":"72.28182"},{"label":"Jhang City","lat":"31.30568","lng":"72.32594"},{"label":"Jhang Sadr","lat":"31.26981","lng":"72.31687"},{"label":"Jhawarian","lat":"32.36192","lng":"72.62275"},{"label":"Jhelum","lat":"32.93448","lng":"73.73102"},{"label":"Jhol","lat":"25.95533","lng":"68.88871"},{"label":"Jiwani","lat":"25.04852","lng":"61.74573"},{"label":"Johi","lat":"26.69225","lng":"67.61431"},{"label":"Kabirwala","lat":"30.40472","lng":"71.86269"},{"label":"Kadhan","lat":"24.48041","lng":"68.98551"},{"label":"Kahna Nau","lat":"31.36709","lng":"74.36899"},{"label":"Kahror Pakka","lat":"29.6243","lng":"71.91437"},{"label":"Kahuta","lat":"33.59183","lng":"73.38736"},{"label":"Kakad Wari Dir Upper","lat":"34.99798","lng":"72.07295"},{"label":"Kalabagh","lat":"32.96164","lng":"71.54638"},{"label":"Kalaswala","lat":"32.20081","lng":"74.64858"},{"label":"Kalat","lat":"29.02663","lng":"66.59361"},{"label":"Kaleke Mandi","lat":"31.97597","lng":"73.59999"},{"label":"Kallar Kahar","lat":"32.77998","lng":"72.69793"},{"label":"Kalur Kot","lat":"32.15512","lng":"71.26631"},{"label":"Kamalia","lat":"30.72708","lng":"72.64607"},{"label":"Kamar Mushani","lat":"32.84318","lng":"71.36192"},{"label":"Kambar","lat":"27.58753","lng":"68.00066"},{"label":"Kamoke","lat":"31.97526","lng":"74.22304"},{"label":"Kamra","lat":"33.74698","lng":"73.51229"},{"label":"Kandhkot","lat":"28.24574","lng":"69.17974"},{"label":"Kandiari","lat":"26.9155","lng":"68.52193"},{"label":"Kandiaro","lat":"27.05918","lng":"68.21022"},{"label":"Kanganpur","lat":"30.76468","lng":"74.12286"},{"label":"Karachi","lat":"24.8608","lng":"67.0104"},{"label":"Karak","lat":"33.11633","lng":"71.09354"},{"label":"Karaundi","lat":"26.89709","lng":"68.40643"},{"label":"Kario Ghanwar","lat":"24.80817","lng":"68.60483"},{"label":"Karor","lat":"31.2246","lng":"70.95153"},{"label":"Kashmor","lat":"28.4326","lng":"69.58364"},{"label":"Kasur","lat":"31.11866","lng":"74.45025"},{"label":"Kaure Shah Zerin","lat":"30.84219","lng":"73.1078"},{"label":"Keshupur","lat":"32.26","lng":"72.5"},{"label":"Keti Bandar","lat":"24.14422","lng":"67.45094"},{"label":"Khadan Khak","lat":"30.75236","lng":"67.71133"},{"label":"Khadro","lat":"26.14713","lng":"68.71777"},{"label":"Khairpur","lat":"28.06437","lng":"69.70363"},{"label":"Khairpur Mir’s","lat":"27.52948","lng":"68.75915"},{"label":"Khairpur Nathan Shah","lat":"27.09064","lng":"67.73489"},{"label":"Khairpur Tamewah","lat":"29.58139","lng":"72.23804"},{"label":"Khalabat","lat":"34.05997","lng":"72.88963"},{"label":"Khandowa","lat":"32.74255","lng":"72.73478"},{"label":"Khanewal","lat":"30.30173","lng":"71.93212"},{"label":"Khangah Dogran","lat":"31.83294","lng":"73.62213"},{"label":"Khangarh","lat":"29.91446","lng":"71.16067"},{"label":"Khanpur","lat":"28.64739","lng":"70.65694"},{"label":"Khanpur Mahar","lat":"27.84088","lng":"69.41302"},{"label":"Khaplu","lat":"35.16221","lng":"76.33381"},{"label":"Kharan","lat":"28.58459","lng":"65.41501"},{"label":"Kharian","lat":"32.81612","lng":"73.88697"},{"label":"Khewra","lat":"32.6491","lng":"73.01059"},{"label":"Khurrianwala","lat":"31.49936","lng":"73.26763"},{"label":"Khushāb","lat":"32.29667","lng":"72.3525"},{"label":"Khuzdar","lat":"27.81193","lng":"66.61096"},{"label":"Kohat","lat":"33.58196","lng":"71.44929"},{"label":"Kohlu","lat":"29.903","lng":"69.231"},{"label":"Kot Addu","lat":"30.46907","lng":"70.96699"},{"label":"Kot Diji","lat":"27.34156","lng":"68.70821"},{"label":"Kot Ghulam Muhammad","lat":"32.33311","lng":"74.54694"},{"label":"Kot Malik Barkhurdar","lat":"30.20379","lng":"66.98723"},{"label":"Kot Mumin","lat":"32.18843","lng":"73.02987"},{"label":"Kot Radha Kishan","lat":"31.17068","lng":"74.10126"},{"label":"Kot Rajkour","lat":"32.41208","lng":"74.62855"},{"label":"Kot Samaba","lat":"28.55207","lng":"70.46837"},{"label":"Kot Sultan","lat":"30.7737","lng":"70.93125"},{"label":"Kotli","lat":"33.51836","lng":"73.9022"},{"label":"Kotli Loharan","lat":"32.58893","lng":"74.49466"},{"label":"Kotri","lat":"25.36566","lng":"68.30831"},{"label":"Kulachi","lat":"31.93058","lng":"70.45959"},{"label":"Kundian","lat":"32.45775","lng":"71.47892"},{"label":"Kunjah","lat":"32.52982","lng":"73.97486"},{"label":"Kunri","lat":"25.17874","lng":"69.56572"},{"label":"Lachi","lat":"33.38291","lng":"71.33733"},{"label":"Ladhewala Waraich","lat":"32.15692","lng":"74.11564"},{"label":"Lahore","lat":"31.558","lng":"74.35071"},{"label":"Lakhi","lat":"27.84884","lng":"68.69972"},{"label":"Lakki","lat":"32.60724","lng":"70.91234"},{"label":"Lala Musa","lat":"32.70138","lng":"73.95746"},{"label":"Lalian","lat":"31.82462","lng":"72.80116"},{"label":"Landi Kotal","lat":"34.0988","lng":"71.14108"},{"label":"Larkana","lat":"27.55898","lng":"68.21204"},{"label":"Layyah","lat":"30.96128","lng":"70.93904"},{"label":"Liliani","lat":"32.20393","lng":"72.9512"},{"label":"Lodhran","lat":"29.5339","lng":"71.63244"},{"label":"Loralai","lat":"30.37051","lng":"68.59795"},{"label":"Mach","lat":"29.86371","lng":"67.33018"},{"label":"Madeji","lat":"27.75314","lng":"68.45166"},{"label":"Mailsi","lat":"29.80123","lng":"72.17398"},{"label":"Malakand","lat":"34.56561","lng":"71.93043"},{"label":"Malakwal","lat":"32.55449","lng":"73.21274"},{"label":"Malakwal City","lat":"32.55492","lng":"73.2122"},{"label":"Malir Cantonment","lat":"24.94343","lng":"67.20591"},{"label":"Mamu Kanjan","lat":"30.83044","lng":"72.79943"},{"label":"Mananwala","lat":"31.58803","lng":"73.68927"},{"label":"Mandi Bahauddin","lat":"32.58704","lng":"73.49123"},{"label":"Mangla","lat":"31.89306","lng":"72.38167"},{"label":"Mankera","lat":"31.38771","lng":"71.44047"},{"label":"Mansehra","lat":"34.33023","lng":"73.19679"},{"label":"Mardan","lat":"34.19794","lng":"72.04965"},{"label":"Mastung","lat":"29.79966","lng":"66.84553"},{"label":"Matiari","lat":"25.59709","lng":"68.4467"},{"label":"Matli","lat":"25.0429","lng":"68.65591"},{"label":"Mehar","lat":"27.18027","lng":"67.82051"},{"label":"Mehmand Chak","lat":"32.78518","lng":"73.82306"},{"label":"Mehrabpur","lat":"28.10773","lng":"68.02554"},{"label":"Mian Channun","lat":"30.44067","lng":"72.35679"},{"label":"Mian Sahib","lat":"28.15341","lng":"68.64182"},{"label":"Mianke Mor","lat":"31.2024","lng":"73.94857"},{"label":"Mianwali","lat":"32.57756","lng":"71.52847"},{"label":"Minchianabad","lat":"30.16356","lng":"73.56858"},{"label":"Mingora","lat":"34.7795","lng":"72.36265"},{"label":"Miran Shah","lat":"33.00059","lng":"70.07117"},{"label":"Mirdad Muafi","lat":"30.67676","lng":"72.92855"},{"label":"Miro Khan","lat":"27.75985","lng":"68.09195"},{"label":"Mirpur Bhtoro","lat":"24.72852","lng":"68.2601"},{"label":"Mirpur Khas","lat":"25.5276","lng":"69.01255"},{"label":"Mirpur Mathelo","lat":"28.02136","lng":"69.54914"},{"label":"Mirpur Sakro","lat":"24.54692","lng":"67.62797"},{"label":"Mirwah Gorchani","lat":"25.30981","lng":"69.05019"},{"label":"Mitha Tiwana","lat":"32.2454","lng":"72.10615"},{"label":"Mithi","lat":"24.73701","lng":"69.79707"},{"label":"Moro","lat":"26.66317","lng":"68.00016"},{"label":"Moza Shahwala","lat":"30.80563","lng":"70.84911"},{"label":"Mughalabad","lat":"33.89731","lng":"73.42545"},{"label":"Muhammad Moryal Sahito Jo Goth","lat":"27.16825","lng":"68.40328"},{"label":"Muhammad Pur","lat":"30.71015","lng":"73.01782"},{"label":"Multan","lat":"30.19679","lng":"71.47824"},{"label":"Muridke","lat":"31.80258","lng":"74.25772"},{"label":"Murree","lat":"33.90836","lng":"73.3903"},{"label":"Musa Khel Bazar","lat":"30.85944","lng":"69.82208"},{"label":"Mustafabad","lat":"30.89222","lng":"73.49889"},{"label":"Muzaffarābād","lat":"34.37002","lng":"73.47082"},{"label":"Muzaffargarh","lat":"30.07258","lng":"71.19379"},{"label":"Nabisar","lat":"25.06717","lng":"69.6434"},{"label":"Nagir","lat":"36.27542","lng":"74.71959"},{"label":"Nankana Sahib","lat":"31.4501","lng":"73.70653"},{"label":"Nao Mian Sahib","lat":"28.15441","lng":"68.63706"},{"label":"Narang Mandi","lat":"31.90376","lng":"74.51587"},{"label":"Narowal","lat":"32.10197","lng":"74.87303"},{"label":"Nasirabad","lat":"27.38137","lng":"67.91644"},{"label":"Naudero","lat":"27.66684","lng":"68.3609"},{"label":"Naukot","lat":"24.85822","lng":"69.40153"},{"label":"Naushahra Virkan","lat":"31.96258","lng":"73.97117"},{"label":"Naushahro Firoz","lat":"26.8401","lng":"68.12265"},{"label":"Nawabshah","lat":"26.23939","lng":"68.40369"},{"label":"Nazir Town","lat":"33.30614","lng":"73.4833"},{"label":"New Badah","lat":"27.34167","lng":"68.03194"},{"label":"New Mirpur","lat":"33.14782","lng":"73.75187"},{"label":"Noorabad","lat":"34.25195","lng":"71.96656"},{"label":"Nowshera","lat":"34.01583","lng":"71.98123"},{"label":"Nowshera Cantonment","lat":"33.99829","lng":"71.99834"},{"label":"Nushki","lat":"29.55218","lng":"66.02288"},{"label":"Okara","lat":"30.81029","lng":"73.45155"},{"label":"Ormara","lat":"25.21018","lng":"64.63626"},{"label":"Pabbi","lat":"34.00968","lng":"71.79445"},{"label":"Pad Idan","lat":"26.77455","lng":"68.30094"},{"label":"Paharpur","lat":"32.10502","lng":"70.97055"},{"label":"Pakpattan","lat":"30.34314","lng":"73.38944"},{"label":"Pallandri","lat":"33.71527","lng":"73.68366"},{"label":"Panjgur","lat":"26.97186","lng":"64.09459"},{"label":"Pano Aqil","lat":"27.85619","lng":"69.11111"},{"label":"Parachinar","lat":"33.89968","lng":"70.10012"},{"label":"Pasni","lat":"25.26302","lng":"63.46921"},{"label":"Pasrur","lat":"32.26286","lng":"74.66327"},{"label":"Patan","lat":"35.10964","lng":"73.00781"},{"label":"Pattoki","lat":"31.02021","lng":"73.85333"},{"label":"Peshawar","lat":"34.008","lng":"71.57849"},{"label":"Phalia","lat":"32.43104","lng":"73.579"},{"label":"Pind Dadan Khan","lat":"32.58662","lng":"73.04456"},{"label":"Pindi Bhattian","lat":"31.89844","lng":"73.27339"},{"label":"Pindi Gheb","lat":"33.24095","lng":"72.2648"},{"label":"Pir Jo Goth","lat":"27.59178","lng":"68.61848"},{"label":"Pir Mahal","lat":"30.76663","lng":"72.43455"},{"label":"Pishin","lat":"30.58176","lng":"66.99406"},{"label":"Pithoro","lat":"25.51122","lng":"69.37803"},{"label":"Qadirpur Ran","lat":"30.29184","lng":"71.67164"},{"label":"Qila Abdullah","lat":"30.72803","lng":"66.66117"},{"label":"Qila Saifullah","lat":"30.70077","lng":"68.35984"},{"label":"Quetta","lat":"30.18414","lng":"67.00141"},{"label":"Rahim Yar Khan","lat":"28.41987","lng":"70.30345"},{"label":"Raiwind","lat":"31.24895","lng":"74.21534"},{"label":"Raja Jang","lat":"31.22078","lng":"74.25483"},{"label":"Rajanpur","lat":"29.10408","lng":"70.32969"},{"label":"Rajo Khanani","lat":"24.98391","lng":"68.8537"},{"label":"Ranipur","lat":"27.2872","lng":"68.50623"},{"label":"Rasulnagar","lat":"32.32794","lng":"73.7804"},{"label":"Ratodero","lat":"27.80227","lng":"68.28902"},{"label":"Rawalakot","lat":"33.85782","lng":"73.76043"},{"label":"Rawalpindi","lat":"33.59733","lng":"73.0479"},{"label":"Renala Khurd","lat":"30.87878","lng":"73.59857"},{"label":"Risalpur Cantonment","lat":"34.06048","lng":"71.99276"},{"label":"Rohri","lat":"27.69203","lng":"68.89503"},{"label":"Rojhan","lat":"28.68735","lng":"69.9535"},{"label":"Rustam","lat":"27.96705","lng":"68.80386"},{"label":"Saddiqabad","lat":"28.3091","lng":"70.12652"},{"label":"Sahiwal","lat":"31.97386","lng":"72.33109"},{"label":"Sahiwal","lat":"30.66595","lng":"73.10186"},{"label":"Saidu Sharif","lat":"34.74655","lng":"72.35568"},{"label":"Sakrand","lat":"26.13845","lng":"68.27444"},{"label":"Samaro","lat":"25.28143","lng":"69.39623"},{"label":"Sambrial","lat":"32.47835","lng":"74.35338"},{"label":"Sanghar","lat":"26.04694","lng":"68.94917"},{"label":"Sangla Hill","lat":"31.71667","lng":"73.38333"},{"label":"Sanjwal","lat":"33.76105","lng":"72.43315"},{"label":"Sann","lat":"26.0403","lng":"68.13763"},{"label":"Sarai Alamgir","lat":"32.90495","lng":"73.75518"},{"label":"Sarai Naurang","lat":"32.82581","lng":"70.78107"},{"label":"Sarai Sidhu","lat":"30.59476","lng":"71.9699"},{"label":"Sargodha","lat":"32.08586","lng":"72.67418"},{"label":"Sehwan","lat":"26.42495","lng":"67.86126"},{"label":"Setharja Old","lat":"27.2127","lng":"68.46883"},{"label":"Shabqadar","lat":"34.21599","lng":"71.5548"},{"label":"Shahdad Kot","lat":"27.84726","lng":"67.90679"},{"label":"Shahdadpur","lat":"25.92539","lng":"68.6228"},{"label":"Shahkot","lat":"31.5709","lng":"73.48531"},{"label":"Shahpur","lat":"32.2682","lng":"72.46884"},{"label":"Shahpur Chakar","lat":"26.15411","lng":"68.65013"},{"label":"Shahr Sultan","lat":"29.57517","lng":"71.02209"},{"label":"Shakargarh","lat":"32.26361","lng":"75.16008"},{"label":"Sharqpur Sharif","lat":"31.46116","lng":"74.10091"},{"label":"Shekhupura","lat":"31.71287","lng":"73.98556"},{"label":"Shigar","lat":"35.42376","lng":"75.73911"},{"label":"Shikarpur","lat":"27.95558","lng":"68.63823"},{"label":"Shingli Bala","lat":"34.67872","lng":"72.98491"},{"label":"Shinpokh","lat":"34.32959","lng":"71.17852"},{"label":"Shooli","lat":"25.56831","lng":"62.14419"},{"label":"Shorkot","lat":"31.91023","lng":"70.87757"},{"label":"Shujaabad","lat":"29.88092","lng":"71.29344"},{"label":"Sialkot","lat":"32.49268","lng":"74.53134"},{"label":"Sibi","lat":"29.54299","lng":"67.87726"},{"label":"Sillanwali","lat":"31.82539","lng":"72.54064"},{"label":"Sinjhoro","lat":"26.03008","lng":"68.80867"},{"label":"Sita Road","lat":"27.03333","lng":"67.85"},{"label":"Skardu","lat":"35.29787","lng":"75.63372"},{"label":"Sobhodero","lat":"27.30475","lng":"68.39715"},{"label":"Sodhri","lat":"32.46211","lng":"74.18207"},{"label":"Sohbatpur","lat":"28.52038","lng":"68.54298"},{"label":"Sook Kalan","lat":"32.59702","lng":"74.14652"},{"label":"Sukheke Mandi","lat":"31.86541","lng":"73.50875"},{"label":"Sukkur","lat":"27.70323","lng":"68.85889"},{"label":"Surab","lat":"28.49276","lng":"66.25999"},{"label":"Surkhpur","lat":"32.71816","lng":"74.44773"},{"label":"Swabi","lat":"34.12018","lng":"72.46982"},{"label":"Talagang","lat":"32.92766","lng":"72.41594"},{"label":"Talamba","lat":"30.52693","lng":"72.24079"},{"label":"Talhar","lat":"24.88454","lng":"68.81437"},{"label":"Tandlianwala","lat":"31.03359","lng":"73.13268"},{"label":"Tando Adam","lat":"25.76818","lng":"68.66196"},{"label":"Tando Allahyar","lat":"25.4605","lng":"68.71745"},{"label":"Tando Bago","lat":"24.78914","lng":"68.96535"},{"label":"Tando Jam","lat":"25.42813","lng":"68.52923"},{"label":"Tando Mitha Khan","lat":"25.99625","lng":"69.20251"},{"label":"Tando Muhammad Khan","lat":"25.12384","lng":"68.53677"},{"label":"Tangi","lat":"34.3009","lng":"71.65238"},{"label":"Tangwani","lat":"28.27886","lng":"68.9976"},{"label":"Tank","lat":"32.21707","lng":"70.38315"},{"label":"Taunsa","lat":"30.70358","lng":"70.65054"},{"label":"Thal","lat":"35.47836","lng":"72.24383"},{"label":"Thamewali","lat":"32.78357","lng":"71.7808"},{"label":"Tharu Shah","lat":"26.9423","lng":"68.11759"},{"label":"Thatta","lat":"24.74745","lng":"67.92353"},{"label":"Thul","lat":"28.2403","lng":"68.7755"},{"label":"Tibbi Jay Singh","lat":"30.87699","lng":"73.21607"},{"label":"Timargara","lat":"34.82659","lng":"71.84423"},{"label":"Toba Tek Singh","lat":"30.97127","lng":"72.48275"},{"label":"Tolti","lat":"35.02819","lng":"76.09213"},{"label":"Topi","lat":"34.07034","lng":"72.62147"},{"label":"Tordher","lat":"33.99047","lng":"72.2863"},{"label":"Turbat","lat":"26.00122","lng":"63.04849"},{"label":"Ubauro","lat":"28.16429","lng":"69.73114"},{"label":"Umarkot","lat":"25.36329","lng":"69.74184"},{"label":"Upper Dir","lat":"35.2074","lng":"71.8768"},{"label":"Usta Muhammad","lat":"28.17723","lng":"68.04367"},{"label":"Uthal","lat":"25.80722","lng":"66.62194"},{"label":"Utmanzai","lat":"34.18775","lng":"71.76274"},{"label":"Vihari","lat":"30.0445","lng":"72.3556"},{"label":"Wana","lat":"32.29889","lng":"69.5725"},{"label":"Warah","lat":"27.44805","lng":"67.79654"},{"label":"Wazirabad","lat":"32.44324","lng":"74.12"},{"label":"Yazman","lat":"29.12122","lng":"71.74459"},{"label":"Zafarwal","lat":"32.34464","lng":"74.8999"},{"label":"Zahir Pir","lat":"28.81284","lng":"70.52341"},{"label":"Zaida","lat":"34.0595","lng":"72.4669"},{"label":"Zhob","lat":"31.34082","lng":"69.4493"},{"label":"Ziarat","lat":"30.38244","lng":"67.72562"}]