[{"label":"Abramów","lat":"51.45647","lng":"22.31521"},{"label":"Adamów","lat":"51.74335","lng":"22.26414"},{"label":"Adamówka","lat":"50.25857","lng":"22.69595"},{"label":"Albigowa","lat":"50.01425","lng":"22.22414"},{"label":"Aleksandrów","lat":"50.4663","lng":"22.89225"},{"label":"Aleksandrów","lat":"51.27126","lng":"19.99005"},{"label":"Aleksandrów Kujawski","lat":"52.87659","lng":"18.69345"},{"label":"Aleksandrów Łódzki","lat":"51.81965","lng":"19.30384"},{"label":"Alwernia","lat":"50.06056","lng":"19.53953"},{"label":"Andrespol","lat":"51.72783","lng":"19.64175"},{"label":"Andrychów","lat":"49.85497","lng":"19.33834"},{"label":"Annopol","lat":"50.88551","lng":"21.85678"},{"label":"Augustów","lat":"53.84321","lng":"22.97979"},{"label":"Babiak","lat":"52.3453","lng":"18.66663"},{"label":"Babica","lat":"49.93476","lng":"21.87035"},{"label":"Babice","lat":"50.06882","lng":"19.44906"},{"label":"Babice","lat":"50.05565","lng":"19.19955"},{"label":"Babimost","lat":"52.16488","lng":"15.82769"},{"label":"Baborów","lat":"50.1576","lng":"17.98513"},{"label":"Baboszewo","lat":"52.6807","lng":"20.25527"},{"label":"Bachowice","lat":"49.95812","lng":"19.49369"},{"label":"Baćkowice","lat":"50.79194","lng":"21.23211"},{"label":"Bąków","lat":"49.89342","lng":"18.71495"},{"label":"Balice","lat":"50.08799","lng":"19.79462"},{"label":"Baligród","lat":"49.3309","lng":"22.28566"},{"label":"Balin","lat":"50.16799","lng":"19.3834"},{"label":"Bałtów","lat":"51.01845","lng":"21.54385"},{"label":"Banie","lat":"53.10031","lng":"14.66228"},{"label":"Banie Mazurskie","lat":"54.24662","lng":"22.03617"},{"label":"Banino","lat":"54.39215","lng":"18.40622"},{"label":"Baniocha","lat":"52.01653","lng":"21.13984"},{"label":"Baranów","lat":"51.55786","lng":"22.13625"},{"label":"Baranów","lat":"51.26342","lng":"18.0047"},{"label":"Baranów Sandomierski","lat":"50.49912","lng":"21.54204"},{"label":"Baranowo","lat":"53.17554","lng":"21.29803"},{"label":"Baranowo","lat":"52.43525","lng":"16.78631"},{"label":"Barciany","lat":"54.21993","lng":"21.35347"},{"label":"Barcin","lat":"52.86607","lng":"17.94625"},{"label":"Barczewo","lat":"53.83055","lng":"20.69112"},{"label":"Bardo","lat":"50.50589","lng":"16.73986"},{"label":"Barlinek","lat":"52.99464","lng":"15.21864"},{"label":"Bartniczka","lat":"53.24776","lng":"19.60433"},{"label":"Bartoszyce","lat":"54.25354","lng":"20.80819"},{"label":"Baruchowo","lat":"52.49412","lng":"19.26496"},{"label":"Barwałd Górny","lat":"49.86211","lng":"19.61746"},{"label":"Barwałd Średni","lat":"49.86632","lng":"19.5936"},{"label":"Barwice","lat":"53.7449","lng":"16.3553"},{"label":"Batorz","lat":"50.8505","lng":"22.49313"},{"label":"Bażanowice","lat":"49.73791","lng":"18.70345"},{"label":"Bębło","lat":"50.18053","lng":"19.78741"},{"label":"Bęczarka","lat":"49.87793","lng":"19.86723"},{"label":"Będków","lat":"51.58763","lng":"19.74956"},{"label":"Bedlno","lat":"52.20829","lng":"19.57592"},{"label":"Będzin","lat":"50.32607","lng":"19.12565"},{"label":"Bejsce","lat":"50.23903","lng":"20.59834"},{"label":"Bełchatów","lat":"51.36883","lng":"19.35671"},{"label":"Bełk","lat":"50.13048","lng":"18.71667"},{"label":"Belsk Duży","lat":"51.82561","lng":"20.80847"},{"label":"Bełsznica","lat":"49.97811","lng":"18.36313"},{"label":"Bełżec","lat":"50.38453","lng":"23.43839"},{"label":"Bełżyce","lat":"51.17415","lng":"22.28027"},{"label":"Bemowo","lat":"52.2546","lng":"20.90844"},{"label":"Besko","lat":"49.58757","lng":"21.95292"},{"label":"Bestwina","lat":"49.89712","lng":"19.05776"},{"label":"Bestwinka","lat":"49.93272","lng":"19.06694"},{"label":"Biała","lat":"50.38587","lng":"17.66035"},{"label":"Biała","lat":"52.60524","lng":"19.64956"},{"label":"Biała Piska","lat":"53.61191","lng":"22.06321"},{"label":"Biała Podlaska","lat":"52.03238","lng":"23.11652"},{"label":"Biała Rawska","lat":"51.80779","lng":"20.47259"},{"label":"Biała Róża","lat":"51.26162","lng":"19.54569"},{"label":"Białaczów","lat":"51.29815","lng":"20.29724"},{"label":"Białe Błota","lat":"53.09516","lng":"17.91621"},{"label":"Białka","lat":"49.69306","lng":"19.67033"},{"label":"Białka Tatrzańska","lat":"49.38975","lng":"20.10507"},{"label":"Białobrzegi","lat":"52.44199","lng":"21.05255"},{"label":"Białobrzegi","lat":"51.64695","lng":"20.95041"},{"label":"Białobrzegi","lat":"50.10252","lng":"22.31907"},{"label":"Białogard","lat":"54.00696","lng":"15.98751"},{"label":"Białołeka","lat":"52.32127","lng":"20.97204"},{"label":"Białośliwie","lat":"53.10461","lng":"17.12533"},{"label":"Białowieża","lat":"52.7","lng":"23.86667"},{"label":"Biały Bór","lat":"53.8967","lng":"16.83543"},{"label":"Biały Dunajec","lat":"49.3738","lng":"20.00898"},{"label":"Białystok","lat":"53.13333","lng":"23.16433"},{"label":"Biecz","lat":"49.73596","lng":"21.26301"},{"label":"Bielany","lat":"52.34174","lng":"22.24929"},{"label":"Bielany","lat":"52.29242","lng":"20.93531"},{"label":"Bielany Wrocławskie","lat":"51.0361","lng":"16.9677"},{"label":"Bielawa","lat":"50.69075","lng":"16.623"},{"label":"Bielawy","lat":"52.07539","lng":"19.65557"},{"label":"Bielice","lat":"53.20022","lng":"14.7276"},{"label":"Bieliny","lat":"50.84947","lng":"20.94149"},{"label":"Bieliny","lat":"50.44237","lng":"22.30482"},{"label":"Bielsk","lat":"52.6718","lng":"19.805"},{"label":"Bielsk Podlaski","lat":"52.76512","lng":"23.18647"},{"label":"Bielsko-Biala","lat":"49.82245","lng":"19.04686"},{"label":"Bieniewice","lat":"52.18268","lng":"20.56306"},{"label":"Bieńkówka","lat":"49.776","lng":"19.77179"},{"label":"Bierawa","lat":"50.28111","lng":"18.24177"},{"label":"Bierdzany","lat":"50.81852","lng":"18.15808"},{"label":"Bieruń","lat":"50.09","lng":"19.09291"},{"label":"Bierutów","lat":"51.12443","lng":"17.54607"},{"label":"Bierzwnik","lat":"53.03567","lng":"15.665"},{"label":"Bieżuń","lat":"52.96107","lng":"19.88976"},{"label":"Biłgoraj","lat":"50.54114","lng":"22.72204"},{"label":"Binarowa","lat":"49.75621","lng":"21.22816"},{"label":"Bircza","lat":"49.69173","lng":"22.47854"},{"label":"Biskupice Radłowskie","lat":"50.12069","lng":"20.85943"},{"label":"Biskupiec","lat":"53.86467","lng":"20.95692"},{"label":"Biskupiec","lat":"53.50056","lng":"19.35056"},{"label":"Biskupin","lat":"51.10097","lng":"17.10442"},{"label":"Biszcza","lat":"50.40146","lng":"22.65063"},{"label":"Bisztynek","lat":"54.08633","lng":"20.90192"},{"label":"Blachownia","lat":"50.78015","lng":"18.96389"},{"label":"Błaszki","lat":"51.65163","lng":"18.43472"},{"label":"Błażowa","lat":"49.88521","lng":"22.10037"},{"label":"Błędów","lat":"51.77767","lng":"20.69798"},{"label":"Bledzew","lat":"52.51711","lng":"15.41382"},{"label":"Blizanów","lat":"51.90372","lng":"18.01003"},{"label":"Blizne","lat":"49.75332","lng":"21.97351"},{"label":"Bliżyn","lat":"51.10778","lng":"20.75935"},{"label":"Błonie","lat":"52.19849","lng":"20.61709"},{"label":"Bobolice","lat":"53.95508","lng":"16.58893"},{"label":"Bobowa","lat":"49.70866","lng":"20.94767"},{"label":"Bobowo","lat":"53.88378","lng":"18.55681"},{"label":"Bobrowice","lat":"51.9485","lng":"15.09058"},{"label":"Bobrowniki","lat":"52.06442","lng":"20.01949"},{"label":"Bobrowniki","lat":"52.78086","lng":"18.96026"},{"label":"Bobrowniki","lat":"50.37985","lng":"18.98661"},{"label":"Bobrowo","lat":"53.28549","lng":"19.27053"},{"label":"Bochnia","lat":"49.96905","lng":"20.43028"},{"label":"Boćki","lat":"52.65155","lng":"23.04485"},{"label":"Bodzanów","lat":"52.49992","lng":"20.02945"},{"label":"Bodzechów","lat":"50.90715","lng":"21.43715"},{"label":"Bodzentyn","lat":"50.94115","lng":"20.95719"},{"label":"Bogatynia","lat":"50.90747","lng":"14.95634"},{"label":"Bogdaniec","lat":"52.68897","lng":"15.07127"},{"label":"Bogoria","lat":"50.65175","lng":"21.26"},{"label":"Boguchwała","lat":"49.98473","lng":"21.94528"},{"label":"Boguszów-Gorce","lat":"50.75514","lng":"16.20494"},{"label":"Boguty-Pianki","lat":"52.7168","lng":"22.41546"},{"label":"Bojadła","lat":"51.95321","lng":"15.81036"},{"label":"Bojano","lat":"54.47123","lng":"18.38408"},{"label":"Bojanów","lat":"50.42531","lng":"21.95111"},{"label":"Bojanowo","lat":"51.70749","lng":"16.74827"},{"label":"Bojanowo Stare","lat":"51.99302","lng":"16.58369"},{"label":"Bojszowy","lat":"50.0578","lng":"19.10145"},{"label":"Bojszowy Nowe","lat":"50.05284","lng":"19.05012"},{"label":"Bolechowice","lat":"50.14831","lng":"19.79273"},{"label":"Bolęcin","lat":"50.1175","lng":"19.48116"},{"label":"Bolesław","lat":"50.29729","lng":"19.48073"},{"label":"Bolesławiec","lat":"51.26418","lng":"15.5697"},{"label":"Bolesławiec","lat":"51.19866","lng":"18.19147"},{"label":"Boleszkowice","lat":"52.72493","lng":"14.56901"},{"label":"Bolimów","lat":"52.07671","lng":"20.16352"},{"label":"Bolków","lat":"50.92203","lng":"16.10111"},{"label":"Bolszewo","lat":"54.61801","lng":"18.17585"},{"label":"Boniewo","lat":"52.46532","lng":"18.89116"},{"label":"Borek","lat":"50.01778","lng":"20.53087"},{"label":"Borek Wielkopolski","lat":"51.91674","lng":"17.24133"},{"label":"Borki","lat":"51.72161","lng":"22.52129"},{"label":"Borkowice","lat":"51.32025","lng":"20.68339"},{"label":"Borne Sulinowo","lat":"53.57661","lng":"16.53395"},{"label":"Boronów","lat":"50.6746","lng":"18.90678"},{"label":"Borowa","lat":"50.38548","lng":"21.3515"},{"label":"Borowie","lat":"51.94908","lng":"21.7658"},{"label":"Borowno","lat":"50.93247","lng":"19.2738"},{"label":"Borucin","lat":"50.00763","lng":"18.15748"},{"label":"Borzechów","lat":"51.09258","lng":"22.28414"},{"label":"Borzęcin","lat":"50.0654","lng":"20.71103"},{"label":"Borzęta","lat":"49.86228","lng":"19.97924"},{"label":"Borzytuchom","lat":"54.20021","lng":"17.36801"},{"label":"Bozkow","lat":"50.51315","lng":"16.57528"},{"label":"Bralin","lat":"51.28581","lng":"17.90325"},{"label":"Branice","lat":"50.05108","lng":"17.79399"},{"label":"Braniewo","lat":"54.37971","lng":"19.81959"},{"label":"Brańsk","lat":"52.7444","lng":"22.83774"},{"label":"Brańszczyk","lat":"52.62931","lng":"21.58745"},{"label":"Brąszewice","lat":"51.49902","lng":"18.44982"},{"label":"Brdów","lat":"52.3539","lng":"18.7298"},{"label":"Brenna","lat":"49.72576","lng":"18.90249"},{"label":"Brenno","lat":"51.92257","lng":"16.21488"},{"label":"Brochów","lat":"52.3195","lng":"20.26257"},{"label":"Brodła","lat":"50.04331","lng":"19.58879"},{"label":"Brodnica","lat":"53.25967","lng":"19.39653"},{"label":"Brodnica","lat":"52.14123","lng":"16.89096"},{"label":"Brody","lat":"51.02466","lng":"21.22147"},{"label":"Brody","lat":"51.79046","lng":"14.77335"},{"label":"Brody","lat":"49.86742","lng":"19.69746"},{"label":"Brody-Parcele","lat":"52.47797","lng":"20.74974"},{"label":"Brojce","lat":"53.95705","lng":"15.35975"},{"label":"Brójce","lat":"52.31745","lng":"15.67414"},{"label":"Brójce","lat":"51.66436","lng":"19.64802"},{"label":"Brok","lat":"52.69948","lng":"21.85704"},{"label":"Broniszewice","lat":"51.96696","lng":"17.81648"},{"label":"Bronów","lat":"49.87782","lng":"18.92103"},{"label":"Brudzeń Duży","lat":"52.66884","lng":"19.50399"},{"label":"Brudzew","lat":"52.09949","lng":"18.60432"},{"label":"Brusy","lat":"53.88446","lng":"17.71786"},{"label":"Brwinów","lat":"52.14269","lng":"20.71697"},{"label":"Brzączowice","lat":"49.87478","lng":"20.03709"},{"label":"Brzeg","lat":"50.86079","lng":"17.4674"},{"label":"Brzeg Dolny","lat":"51.27299","lng":"16.70815"},{"label":"Brześć Kujawski","lat":"52.60532","lng":"18.90173"},{"label":"Brzesko","lat":"49.96911","lng":"20.60606"},{"label":"Brzeszcze","lat":"49.98203","lng":"19.15157"},{"label":"Brzezinka","lat":"50.04237","lng":"19.1902"},{"label":"Brzeziny","lat":"50.77273","lng":"20.57319"},{"label":"Brzeziny","lat":"51.80023","lng":"19.75144"},{"label":"Brzeziny Śląskie","lat":"50.35439","lng":"18.98129"},{"label":"Brzeźnica","lat":"50.10065","lng":"21.48025"},{"label":"Brzeźnica","lat":"49.95763","lng":"20.49139"},{"label":"Brzeźnica","lat":"49.96497","lng":"19.61952"},{"label":"Brzeźnio","lat":"51.494","lng":"18.62234"},{"label":"Brzostek","lat":"49.87954","lng":"21.41102"},{"label":"Brzóza Królewska","lat":"50.23908","lng":"22.32559"},{"label":"Brzóza Stadnicka","lat":"50.19965","lng":"22.28233"},{"label":"Brzozie","lat":"53.32554","lng":"19.60485"},{"label":"Brzozów","lat":"49.69501","lng":"22.01926"},{"label":"Brzuze","lat":"53.05458","lng":"19.26195"},{"label":"Brzyska","lat":"49.82226","lng":"21.39004"},{"label":"Buczek","lat":"51.50228","lng":"19.16419"},{"label":"Buczkowice","lat":"49.72858","lng":"19.06908"},{"label":"Budziszewice","lat":"51.66739","lng":"19.93581"},{"label":"Budzów","lat":"50.59337","lng":"16.71038"},{"label":"Budzów","lat":"49.77622","lng":"19.67274"},{"label":"Budzyń","lat":"52.88954","lng":"16.98812"},{"label":"Bujaków","lat":"49.85182","lng":"19.19432"},{"label":"Buk","lat":"52.35532","lng":"16.51958"},{"label":"Bukowiec","lat":"53.43383","lng":"18.24048"},{"label":"Bukowina Tatrzańska","lat":"49.34302","lng":"20.10807"},{"label":"Bukowno","lat":"50.26474","lng":"19.45962"},{"label":"Bukowsko","lat":"49.48039","lng":"22.06329"},{"label":"Bulkowo","lat":"52.54087","lng":"20.11889"},{"label":"Bulowice","lat":"49.8765","lng":"19.28873"},{"label":"Burzenin","lat":"51.46077","lng":"18.83233"},{"label":"Busko-Zdrój","lat":"50.47078","lng":"20.71884"},{"label":"Bychawa","lat":"51.01608","lng":"22.53296"},{"label":"Byczyna","lat":"51.11387","lng":"18.21413"},{"label":"Bydgoszcz","lat":"53.1235","lng":"18.00762"},{"label":"Bystra","lat":"49.66235","lng":"21.08628"},{"label":"Bystra","lat":"49.76042","lng":"19.05973"},{"label":"Bystra","lat":"49.64796","lng":"19.77994"},{"label":"Bystrzyca","lat":"50.96048","lng":"17.39702"},{"label":"Bystrzyca Kłodzka","lat":"50.30179","lng":"16.64231"},{"label":"Bytnica","lat":"52.15066","lng":"15.16946"},{"label":"Bytom","lat":"50.34802","lng":"18.93282"},{"label":"Bytom Odrzański","lat":"51.73062","lng":"15.82362"},{"label":"Bytoń","lat":"52.55757","lng":"18.59522"},{"label":"Bytów","lat":"54.17057","lng":"17.49187"},{"label":"Cedry Wielkie","lat":"54.24707","lng":"18.84567"},{"label":"Cedynia","lat":"52.87931","lng":"14.20249"},{"label":"Cegłów","lat":"52.14782","lng":"21.73739"},{"label":"Cekcyn","lat":"53.57294","lng":"18.01123"},{"label":"Celestynów","lat":"52.06093","lng":"21.39107"},{"label":"Ceranów","lat":"52.63082","lng":"22.22826"},{"label":"Cerkwica","lat":"54.00777","lng":"15.10903"},{"label":"Cewice","lat":"54.43551","lng":"17.73485"},{"label":"Chałupki","lat":"49.92559","lng":"18.3173"},{"label":"Chąśno","lat":"52.19535","lng":"19.94259"},{"label":"Chęciny","lat":"50.80021","lng":"20.46229"},{"label":"Chełm","lat":"51.14312","lng":"23.4716"},{"label":"Chełm Śląski","lat":"50.10825","lng":"19.19552"},{"label":"Chełmek","lat":"50.10163","lng":"19.24801"},{"label":"Chełmiec","lat":"49.63051","lng":"20.66425"},{"label":"Chełmno","lat":"53.34855","lng":"18.4251"},{"label":"Chełmża","lat":"53.18463","lng":"18.60466"},{"label":"Chłapowo","lat":"54.80365","lng":"18.37352"},{"label":"Chlewiska","lat":"51.24376","lng":"20.76871"},{"label":"Chmielnik","lat":"50.6144","lng":"20.75206"},{"label":"Chmielnik","lat":"49.97386","lng":"22.14535"},{"label":"Chmielno","lat":"54.32543","lng":"18.0986"},{"label":"Chmielowice","lat":"50.64957","lng":"17.86669"},{"label":"Choceń","lat":"52.48618","lng":"19.01339"},{"label":"Chocianów","lat":"51.41867","lng":"15.90172"},{"label":"Chociwel","lat":"53.46696","lng":"15.33342"},{"label":"Chocz","lat":"51.97642","lng":"17.86995"},{"label":"Choczewo","lat":"54.73993","lng":"17.89175"},{"label":"Chocznia","lat":"49.87417","lng":"19.45438"},{"label":"Chodecz","lat":"52.40513","lng":"19.02759"},{"label":"Chodel","lat":"51.11177","lng":"22.13269"},{"label":"Chodów","lat":"52.24961","lng":"19.01218"},{"label":"Chodzież","lat":"52.99505","lng":"16.9198"},{"label":"Chojna","lat":"52.96389","lng":"14.42797"},{"label":"Chojnice","lat":"53.69554","lng":"17.55701"},{"label":"Chojnów","lat":"51.27373","lng":"15.93661"},{"label":"Chorkówka","lat":"49.64668","lng":"21.67156"},{"label":"Choroń","lat":"50.68178","lng":"19.26058"},{"label":"Choroszcz","lat":"53.14332","lng":"22.98889"},{"label":"Chorzele","lat":"53.26075","lng":"20.89728"},{"label":"Chorzów","lat":"50.30582","lng":"18.9742"},{"label":"Choszczno","lat":"53.16905","lng":"15.42054"},{"label":"Chotcza","lat":"51.24043","lng":"21.77662"},{"label":"Chróścice","lat":"50.78076","lng":"17.81227"},{"label":"Chrościna","lat":"50.66578","lng":"17.81759"},{"label":"Chróścina","lat":"50.62306","lng":"17.36861"},{"label":"Chrostkowo","lat":"52.94378","lng":"19.25328"},{"label":"Chruszczobród","lat":"50.4147","lng":"19.32718"},{"label":"Chrzanów","lat":"50.77256","lng":"22.60351"},{"label":"Chrzanów","lat":"50.13546","lng":"19.40203"},{"label":"Chrząstowice","lat":"50.66622","lng":"18.07294"},{"label":"Chrzypsko Wielkie","lat":"52.62817","lng":"16.22852"},{"label":"Chwałowice","lat":"50.76665","lng":"21.88683"},{"label":"Chwaszczyno","lat":"54.44379","lng":"18.41875"},{"label":"Chybie","lat":"49.90249","lng":"18.82756"},{"label":"Chynów","lat":"51.90425","lng":"21.08208"},{"label":"Chyżne","lat":"49.42672","lng":"19.66956"},{"label":"Ciasna","lat":"50.75427","lng":"18.60835"},{"label":"Ciechanów","lat":"52.88141","lng":"20.61996"},{"label":"Ciechanowiec","lat":"52.67828","lng":"22.49815"},{"label":"Ciechocin","lat":"53.05581","lng":"18.92635"},{"label":"Ciechocinek","lat":"52.87908","lng":"18.79505"},{"label":"Ciechów","lat":"51.13218","lng":"16.56773"},{"label":"Cięcina","lat":"49.6022","lng":"19.14102"},{"label":"Cielądz","lat":"51.71576","lng":"20.34428"},{"label":"Cielmice","lat":"50.08826","lng":"19.01896"},{"label":"Ciepielów","lat":"51.24838","lng":"21.57475"},{"label":"Cieplice Śląskie Zdrój","lat":"50.86545","lng":"15.68367"},{"label":"Ciepłowody","lat":"50.67477","lng":"16.90871"},{"label":"Cieszanów","lat":"50.24564","lng":"23.13163"},{"label":"Cieszków","lat":"51.63104","lng":"17.35726"},{"label":"Cieszyn","lat":"49.75133","lng":"18.63213"},{"label":"Ciężkowice","lat":"49.78575","lng":"20.97324"},{"label":"Cisek","lat":"50.28232","lng":"18.19988"},{"label":"Cisiec","lat":"49.59213","lng":"19.1054"},{"label":"Cisna","lat":"49.21328","lng":"22.32795"},{"label":"Cisownica","lat":"49.72276","lng":"18.76207"},{"label":"Ćmielów","lat":"50.89028","lng":"21.51426"},{"label":"Cmolas","lat":"50.29526","lng":"21.74417"},{"label":"Cybinka","lat":"52.19446","lng":"14.79567"},{"label":"Cyców","lat":"51.29928","lng":"23.14124"},{"label":"Cynków","lat":"50.56203","lng":"19.11956"},{"label":"Czajków","lat":"51.49197","lng":"18.32726"},{"label":"Czaniec","lat":"49.85071","lng":"19.25354"},{"label":"Czaplinek","lat":"53.55775","lng":"16.23333"},{"label":"Czapury","lat":"52.31719","lng":"16.91268"},{"label":"Czarków","lat":"50.01833","lng":"18.90678"},{"label":"Czarna","lat":"50.10979","lng":"22.18165"},{"label":"Czarna","lat":"50.06717","lng":"21.25614"},{"label":"Czarna","lat":"49.33116","lng":"22.65896"},{"label":"Czarna Białostocka","lat":"53.30509","lng":"23.28146"},{"label":"Czarna Dąbrówka","lat":"54.35631","lng":"17.56456"},{"label":"Czarna Góra","lat":"49.37662","lng":"20.13047"},{"label":"Czarna Woda","lat":"53.84458","lng":"18.10006"},{"label":"Czarne","lat":"53.6842","lng":"16.93834"},{"label":"Czarnia","lat":"53.35614","lng":"21.1952"},{"label":"Czarnków","lat":"52.90214","lng":"16.56413"},{"label":"Czarnochowice","lat":"50.00471","lng":"20.0679"},{"label":"Czarnocin","lat":"50.3408","lng":"20.5162"},{"label":"Czarnocin","lat":"51.59142","lng":"19.68158"},{"label":"Czarnowąsy","lat":"50.72858","lng":"17.89819"},{"label":"Czarnożyły","lat":"51.28533","lng":"18.56106"},{"label":"Czarny Bór","lat":"50.77083","lng":"16.1305"},{"label":"Czarny Dunajec","lat":"49.43663","lng":"19.85161"},{"label":"Czastary","lat":"51.25869","lng":"18.31953"},{"label":"Czaszyn","lat":"49.44854","lng":"22.2165"},{"label":"Czchów","lat":"49.83726","lng":"20.68056"},{"label":"Czechowice-Dziedzice","lat":"49.91342","lng":"19.00479"},{"label":"Czeladź","lat":"50.31542","lng":"19.07824"},{"label":"Czemierniki","lat":"51.67298","lng":"22.63887"},{"label":"Czempiń","lat":"52.14404","lng":"16.76408"},{"label":"Czeremcha","lat":"52.51667","lng":"23.35"},{"label":"Czermin","lat":"50.33911","lng":"21.33356"},{"label":"Czermin","lat":"51.95008","lng":"17.74957"},{"label":"Czernica","lat":"51.04609","lng":"17.2451"},{"label":"Czernica","lat":"50.08391","lng":"18.40068"},{"label":"Czernice Borowe","lat":"53.03197","lng":"20.71944"},{"label":"Czernichów","lat":"49.9892","lng":"19.68115"},{"label":"Czernichów","lat":"49.75443","lng":"19.20947"},{"label":"Czerniejewo","lat":"52.4264","lng":"17.48925"},{"label":"Czerniewice","lat":"51.65419","lng":"20.15553"},{"label":"Czerniewice","lat":"52.51157","lng":"19.08694"},{"label":"Czernikowo","lat":"52.94688","lng":"18.93803"},{"label":"Czersk","lat":"53.79589","lng":"17.97647"},{"label":"Czerwieńsk","lat":"52.01289","lng":"15.42317"},{"label":"Czerwin","lat":"52.94905","lng":"21.75842"},{"label":"Czerwińsk Nad Wisłą","lat":"52.39828","lng":"20.3096"},{"label":"Czerwionka-Leszczyny","lat":"50.15007","lng":"18.67762"},{"label":"Czerwonak","lat":"52.46459","lng":"16.98169"},{"label":"Czerwonka","lat":"53.91627","lng":"20.89685"},{"label":"Czerwonka","lat":"52.89254","lng":"21.21494"},{"label":"Częstochowa","lat":"50.79646","lng":"19.12409"},{"label":"Człopa","lat":"53.08856","lng":"16.12098"},{"label":"Człuchów","lat":"53.66722","lng":"17.35883"},{"label":"Czudec","lat":"49.94487","lng":"21.84134"},{"label":"Czułów","lat":"50.05956","lng":"19.70106"},{"label":"Czyżew","lat":"52.79768","lng":"22.31237"},{"label":"Czyżowice","lat":"49.9849","lng":"18.40433"},{"label":"Dąbie","lat":"52.08668","lng":"18.8225"},{"label":"Dąbie","lat":"52.01056","lng":"15.15221"},{"label":"Dąbie","lat":"51.10573","lng":"17.08108"},{"label":"Dąbrowa","lat":"52.74668","lng":"17.94342"},{"label":"Dąbrowa","lat":"50.68352","lng":"17.74957"},{"label":"Dąbrowa Białostocka","lat":"53.65364","lng":"23.34792"},{"label":"Dąbrowa Chełmińska","lat":"53.17518","lng":"18.30537"},{"label":"Dąbrowa Górnicza","lat":"50.33394","lng":"19.20479"},{"label":"Dąbrowa Tarnowska","lat":"50.17462","lng":"20.98633"},{"label":"Dąbrowa Zielona","lat":"50.84394","lng":"19.55652"},{"label":"Dąbrowice","lat":"52.31142","lng":"19.08437"},{"label":"Dąbrówka","lat":"52.48388","lng":"21.29794"},{"label":"Dąbrówno","lat":"53.43408","lng":"20.03529"},{"label":"Dalachów","lat":"51.07732","lng":"18.5784"},{"label":"Daleszyce","lat":"50.80229","lng":"20.80791"},{"label":"Dalików","lat":"51.88476","lng":"19.11904"},{"label":"Damasławek","lat":"52.83979","lng":"17.50062"},{"label":"Damnica","lat":"54.50025","lng":"17.27154"},{"label":"Darłowo","lat":"54.42095","lng":"16.4107"},{"label":"Daszewice","lat":"52.30002","lng":"16.95723"},{"label":"Daszyna","lat":"52.15503","lng":"19.18153"},{"label":"Dębe Wielkie","lat":"52.19961","lng":"21.44334"},{"label":"Dębica","lat":"50.05146","lng":"21.41141"},{"label":"Dęblin","lat":"51.55912","lng":"21.84829"},{"label":"Dębnica Kaszubska","lat":"54.37831","lng":"17.16116"},{"label":"Dębno","lat":"50.19811","lng":"22.51837"},{"label":"Dębno","lat":"49.96701","lng":"20.71979"},{"label":"Dębno","lat":"52.73901","lng":"14.698"},{"label":"Dębów","lat":"50.0449","lng":"22.43614"},{"label":"Dębowa Kłoda","lat":"51.59446","lng":"23.0064"},{"label":"Dębowa Łąka","lat":"53.25541","lng":"19.09595"},{"label":"Dębowiec","lat":"49.68374","lng":"21.46068"},{"label":"Dębowiec","lat":"49.81406","lng":"18.72062"},{"label":"Debrzno","lat":"53.53817","lng":"17.23643"},{"label":"Deszczno","lat":"52.66988","lng":"15.31975"},{"label":"Długie","lat":"49.57866","lng":"22.04338"},{"label":"Długołęka","lat":"51.17902","lng":"17.19137"},{"label":"Długomiłowice","lat":"50.28298","lng":"18.14873"},{"label":"Długosiodło","lat":"52.75998","lng":"21.59183"},{"label":"Dłutów","lat":"51.55936","lng":"19.39198"},{"label":"Dmosin","lat":"51.92437","lng":"19.75934"},{"label":"Dobczyce","lat":"49.88109","lng":"20.08936"},{"label":"Dobiegniew","lat":"52.96947","lng":"15.75362"},{"label":"Dobieszowice","lat":"50.39697","lng":"19.01304"},{"label":"Dobra","lat":"49.71793","lng":"20.25347"},{"label":"Dobra","lat":"53.58625","lng":"15.30977"},{"label":"Dobra","lat":"53.48835","lng":"14.38617"},{"label":"Dobra","lat":"51.91664","lng":"18.61556"},{"label":"Dobre","lat":"52.32097","lng":"21.67881"},{"label":"Dobre","lat":"52.68398","lng":"18.57762"},{"label":"Dobre Miasto","lat":"53.98668","lng":"20.39749"},{"label":"Dobrodzień","lat":"50.72874","lng":"18.44501"},{"label":"Dobroń","lat":"51.63885","lng":"19.24539"},{"label":"Dobroszyce","lat":"51.26776","lng":"17.34205"},{"label":"Dobrzany","lat":"53.35914","lng":"15.42886"},{"label":"Dobrzeń Wielki","lat":"50.76844","lng":"17.84652"},{"label":"Dobrzyca","lat":"51.86663","lng":"17.60336"},{"label":"Dobrzyń nad Wisłą","lat":"52.63814","lng":"19.31875"},{"label":"Dobrzyniewo Duże","lat":"53.20022","lng":"23.01129"},{"label":"Dołhobyczów","lat":"50.58591","lng":"24.03594"},{"label":"Dolice","lat":"53.19081","lng":"15.20267"},{"label":"Dolsk","lat":"51.9818","lng":"17.06273"},{"label":"Domanice","lat":"52.03739","lng":"22.17642"},{"label":"Domaniewice","lat":"52.00623","lng":"19.80294"},{"label":"Domaradz","lat":"49.78675","lng":"21.94571"},{"label":"Domaszowice","lat":"50.87488","lng":"20.68288"},{"label":"Domaszowice","lat":"51.0429","lng":"17.88875"},{"label":"Dominowo","lat":"52.29158","lng":"17.35754"},{"label":"Dopiewo","lat":"52.35726","lng":"16.67562"},{"label":"Dorohusk","lat":"51.15475","lng":"23.80325"},{"label":"Doruchów","lat":"51.41719","lng":"18.07697"},{"label":"Drawno","lat":"53.21986","lng":"15.75946"},{"label":"Drawsko","lat":"52.85421","lng":"16.03125"},{"label":"Drawsko Pomorskie","lat":"53.53056","lng":"15.80967"},{"label":"Drelów","lat":"51.91219","lng":"22.87165"},{"label":"Drezdenko","lat":"52.83831","lng":"15.83079"},{"label":"Drobin","lat":"52.73775","lng":"19.98928"},{"label":"Drogomyśl","lat":"49.86964","lng":"18.75727"},{"label":"Drohiczyn","lat":"52.40011","lng":"22.65853"},{"label":"Drużbice","lat":"51.46369","lng":"19.39404"},{"label":"Drzewica","lat":"51.45085","lng":"20.47701"},{"label":"Drzycim","lat":"53.5052","lng":"18.3094"},{"label":"Dubiecko","lat":"49.82608","lng":"22.39117"},{"label":"Dubienka","lat":"51.04862","lng":"23.89252"},{"label":"Duczki","lat":"52.36271","lng":"21.29047"},{"label":"Dukla","lat":"49.55554","lng":"21.68317"},{"label":"Duszniki","lat":"52.44691","lng":"16.40602"},{"label":"Duszniki-Zdrój","lat":"50.40327","lng":"16.39091"},{"label":"Dwikozy","lat":"50.73613","lng":"21.78864"},{"label":"Dydnia","lat":"49.6864","lng":"22.17196"},{"label":"Dygowo","lat":"54.13031","lng":"15.71993"},{"label":"Dynów","lat":"49.81506","lng":"22.23388"},{"label":"Dywity","lat":"53.83759","lng":"20.47817"},{"label":"Dziadkowice","lat":"52.5638","lng":"22.91689"},{"label":"Dziadowa Kłoda","lat":"51.23543","lng":"17.70919"},{"label":"Działdowo","lat":"53.23958","lng":"20.17004"},{"label":"Działoszyce","lat":"50.36534","lng":"20.35226"},{"label":"Działoszyn","lat":"51.11699","lng":"18.86524"},{"label":"Dziećmorowice","lat":"50.76947","lng":"16.35212"},{"label":"Dzięgielów","lat":"49.72259","lng":"18.70491"},{"label":"Dziekanów Leśny","lat":"52.35243","lng":"20.85124"},{"label":"Dziemiany","lat":"54.00636","lng":"17.76755"},{"label":"Dziergowice","lat":"50.24248","lng":"18.28606"},{"label":"Dzierzążnia","lat":"52.62811","lng":"20.23364"},{"label":"Dzierzgoń","lat":"53.92196","lng":"19.34705"},{"label":"Dzierzgowo","lat":"53.15279","lng":"20.66322"},{"label":"Dzierzkowice","lat":"50.96019","lng":"22.06639"},{"label":"Dzierżoniów","lat":"50.7282","lng":"16.65141"},{"label":"Dziewin","lat":"50.07554","lng":"20.45491"},{"label":"Dzików Stary","lat":"50.24699","lng":"22.92984"},{"label":"Dzikowiec","lat":"50.27288","lng":"21.84365"},{"label":"Dziwnów","lat":"54.02819","lng":"14.76691"},{"label":"Dźwierzuty","lat":"53.70494","lng":"20.96037"},{"label":"Dzwola","lat":"50.69657","lng":"22.56729"},{"label":"Elbląg","lat":"54.1522","lng":"19.40884"},{"label":"Ełk","lat":"53.82824","lng":"22.36469"},{"label":"Fabianki","lat":"52.71929","lng":"19.10943"},{"label":"Fajsławice","lat":"51.09592","lng":"22.96323"},{"label":"Fałków","lat":"51.13606","lng":"20.1061"},{"label":"Filipów","lat":"54.18037","lng":"22.62076"},{"label":"Filipowice","lat":"50.15573","lng":"19.56579"},{"label":"Firlej","lat":"51.55882","lng":"22.50841"},{"label":"Fordon","lat":"53.14821","lng":"18.17036"},{"label":"Frampol","lat":"50.67159","lng":"22.67061"},{"label":"Fredropol","lat":"49.69578","lng":"22.74625"},{"label":"Frombork","lat":"54.35766","lng":"19.68029"},{"label":"Frydek","lat":"49.99626","lng":"19.07278"},{"label":"Frydman","lat":"49.44927","lng":"20.22961"},{"label":"Frydrychowice","lat":"49.90481","lng":"19.41936"},{"label":"Frysztak","lat":"49.84164","lng":"21.60942"},{"label":"Gąbin","lat":"52.39849","lng":"19.73509"},{"label":"Gać","lat":"50.02693","lng":"22.35898"},{"label":"Gądów Mały","lat":"51.11853","lng":"16.98596"},{"label":"Galewice","lat":"51.34471","lng":"18.25756"},{"label":"Gałków Mały","lat":"51.72554","lng":"19.71359"},{"label":"Garbatka-Letnisko","lat":"51.4832","lng":"21.61079"},{"label":"Garbów","lat":"51.35517","lng":"22.32937"},{"label":"Garcz","lat":"54.3476","lng":"18.10169"},{"label":"Gardawice","lat":"50.11667","lng":"18.8"},{"label":"Gardeja","lat":"53.61125","lng":"18.94687"},{"label":"Garwolin","lat":"51.89747","lng":"21.61466"},{"label":"Gąsawa","lat":"52.76757","lng":"17.75579"},{"label":"Gąsocin","lat":"52.73754","lng":"20.7118"},{"label":"Gaszowice","lat":"50.10858","lng":"18.43042"},{"label":"Gaworzyce","lat":"51.62773","lng":"15.88198"},{"label":"Gdańsk","lat":"54.35227","lng":"18.64912"},{"label":"Gdów","lat":"49.90818","lng":"20.19879"},{"label":"Gdynia","lat":"54.51889","lng":"18.53188"},{"label":"Gidle","lat":"50.96199","lng":"19.47181"},{"label":"Giebułtów","lat":"50.14556","lng":"19.87856"},{"label":"Giedlarowa","lat":"50.22689","lng":"22.40593"},{"label":"Gielniów","lat":"51.40076","lng":"20.48126"},{"label":"Gierałtowice","lat":"50.22486","lng":"18.73384"},{"label":"Gierałtowice","lat":"49.94426","lng":"19.3907"},{"label":"Gierłoż","lat":"54.08134","lng":"21.49551"},{"label":"Gierzwałd","lat":"53.54128","lng":"20.08867"},{"label":"Gietrzwałd","lat":"53.74617","lng":"20.23742"},{"label":"Gilowice","lat":"49.99505","lng":"19.09613"},{"label":"Gilowice","lat":"49.71277","lng":"19.31045"},{"label":"Gizałki","lat":"52.04267","lng":"17.76936"},{"label":"Giżycko","lat":"54.03811","lng":"21.76441"},{"label":"Glinojeck","lat":"52.81983","lng":"20.29198"},{"label":"Gliwice","lat":"50.29761","lng":"18.67658"},{"label":"Głogoczów","lat":"49.89452","lng":"19.8741"},{"label":"Głogów","lat":"51.66361","lng":"16.0845"},{"label":"Głogów Małopolski","lat":"50.15122","lng":"21.96287"},{"label":"Głogówek","lat":"50.35355","lng":"17.86405"},{"label":"Główczyce","lat":"54.61935","lng":"17.3723"},{"label":"Głowno","lat":"51.96463","lng":"19.71565"},{"label":"Głubczyce","lat":"50.20086","lng":"17.82858"},{"label":"Głuchołazy","lat":"50.31505","lng":"17.38355"},{"label":"Głuchów","lat":"51.77947","lng":"20.07666"},{"label":"Głuchów","lat":"50.08171","lng":"22.27135"},{"label":"Głuszyca","lat":"50.68743","lng":"16.37173"},{"label":"Głuszyca Górna","lat":"50.66606","lng":"16.37585"},{"label":"Gniazdów","lat":"50.59621","lng":"19.11132"},{"label":"Gniechowice","lat":"50.98804","lng":"16.83363"},{"label":"Gniew","lat":"53.83602","lng":"18.8231"},{"label":"Gniewino","lat":"54.71709","lng":"18.01663"},{"label":"Gniewkowo","lat":"52.89461","lng":"18.40785"},{"label":"Gnieżdżewo","lat":"54.74741","lng":"18.37944"},{"label":"Gniezno","lat":"52.53481","lng":"17.58259"},{"label":"Gnojnik","lat":"49.89397","lng":"20.60863"},{"label":"Gnojno","lat":"50.60263","lng":"20.84913"},{"label":"Goczałkowice Zdrój","lat":"49.94454","lng":"18.96927"},{"label":"Godów","lat":"49.92481","lng":"18.4783"},{"label":"Godzianów","lat":"51.89694","lng":"20.03589"},{"label":"Godziszka","lat":"49.71288","lng":"19.07587"},{"label":"Godziszów","lat":"50.74889","lng":"22.49794"},{"label":"Godziszów Pierwszy","lat":"50.75753","lng":"22.48386"},{"label":"Gogolin","lat":"50.49222","lng":"18.01994"},{"label":"Gołańcz","lat":"52.94326","lng":"17.29995"},{"label":"Golcowa","lat":"49.77162","lng":"22.02501"},{"label":"Golczewo","lat":"53.82426","lng":"14.97847"},{"label":"Gołdap","lat":"54.30631","lng":"22.30362"},{"label":"Goleniów","lat":"53.56392","lng":"14.82854"},{"label":"Goleszów","lat":"49.7358","lng":"18.73675"},{"label":"Golina","lat":"52.24315","lng":"18.09268"},{"label":"Golina","lat":"51.91489","lng":"17.48268"},{"label":"Gołkowice","lat":"49.91418","lng":"18.51419"},{"label":"Golub-Dobrzyń","lat":"53.11087","lng":"19.05381"},{"label":"Gołuchów","lat":"51.85036","lng":"17.9314"},{"label":"Gołymin-Ośrodek","lat":"52.808","lng":"20.87325"},{"label":"Gomunice","lat":"51.1689","lng":"19.49335"},{"label":"Goniadz","lat":"53.48953","lng":"22.73578"},{"label":"Góra","lat":"51.66638","lng":"16.53494"},{"label":"Góra","lat":"49.97971","lng":"19.10471"},{"label":"Góra Kalwaria","lat":"51.97653","lng":"21.21537"},{"label":"Góra Świętej Małgorzaty","lat":"52.05713","lng":"19.31997"},{"label":"Goraj","lat":"50.72184","lng":"22.66651"},{"label":"Górażdże","lat":"50.52903","lng":"18.01003"},{"label":"Gorenice","lat":"50.208","lng":"19.62038"},{"label":"Górki","lat":"49.64385","lng":"22.04304"},{"label":"Górki Wielkie","lat":"49.77971","lng":"18.83117"},{"label":"Gorlice","lat":"49.65563","lng":"21.16035"},{"label":"Gorliczyna","lat":"50.09217","lng":"22.48764"},{"label":"Górno","lat":"50.84774","lng":"20.82501"},{"label":"Górno","lat":"50.28243","lng":"22.145"},{"label":"Górowo Iławeckie","lat":"54.28559","lng":"20.48886"},{"label":"Gorzków","lat":"50.94778","lng":"23.01267"},{"label":"Gorzkowice","lat":"51.21533","lng":"19.59626"},{"label":"Górzno","lat":"51.84681","lng":"21.70933"},{"label":"Górzno","lat":"53.19779","lng":"19.64317"},{"label":"Gorzów Śląski","lat":"51.02871","lng":"18.42304"},{"label":"Gorzów Wielkopolski","lat":"52.73679","lng":"15.22878"},{"label":"Górzyca","lat":"52.49447","lng":"14.65503"},{"label":"Gorzyce","lat":"50.6672","lng":"21.84013"},{"label":"Gorzyce","lat":"50.12841","lng":"22.57926"},{"label":"Gorzyce","lat":"49.95945","lng":"18.39884"},{"label":"Gorzyce Wielkie","lat":"51.63725","lng":"17.72953"},{"label":"Gorzyczki","lat":"49.94912","lng":"18.4033"},{"label":"Gościcino","lat":"54.60459","lng":"18.15491"},{"label":"Gościeradów","lat":"50.86859","lng":"22.00536"},{"label":"Gościno","lat":"54.05123","lng":"15.65256"},{"label":"Gostycyn","lat":"53.49014","lng":"17.80978"},{"label":"Gostyń","lat":"51.88247","lng":"17.01225"},{"label":"Gostyń","lat":"50.10528","lng":"18.88241"},{"label":"Gostynin","lat":"52.42938","lng":"19.46194"},{"label":"Goszczanów","lat":"51.79163","lng":"18.5057"},{"label":"Goszczyn","lat":"51.73187","lng":"20.85154"},{"label":"Gowarczów","lat":"51.27845","lng":"20.43835"},{"label":"Goworowo","lat":"52.90083","lng":"21.55578"},{"label":"Gózd","lat":"51.37832","lng":"21.37914"},{"label":"Gozdnica","lat":"51.4363","lng":"15.09856"},{"label":"Gozdowo","lat":"52.72455","lng":"19.68501"},{"label":"Grabica","lat":"51.47989","lng":"19.53137"},{"label":"Grabiszyn","lat":"51.09369","lng":"16.97819"},{"label":"Grabiszynek","lat":"51.08703","lng":"16.98629"},{"label":"Grabów","lat":"52.12717","lng":"19.00257"},{"label":"Grabów nad Prosną","lat":"51.50596","lng":"18.11929"},{"label":"Grabowiec","lat":"50.8209","lng":"23.55057"},{"label":"Grabownica Starzeńska","lat":"49.65896","lng":"22.07754"},{"label":"Grabowo Kościerskie","lat":"54.16816","lng":"18.14692"},{"label":"Grajewo","lat":"53.64728","lng":"22.45537"},{"label":"Granica","lat":"52.13359","lng":"20.80313"},{"label":"Granowo","lat":"52.22244","lng":"16.52859"},{"label":"Grębków","lat":"52.26931","lng":"21.90974"},{"label":"Grębocice","lat":"51.59909","lng":"16.16741"},{"label":"Gręboszów","lat":"50.24501","lng":"20.77669"},{"label":"Grębów","lat":"50.56536","lng":"21.87404"},{"label":"Grodków","lat":"50.69836","lng":"17.38449"},{"label":"Grodziec","lat":"52.03855","lng":"18.05972"},{"label":"Grodziec","lat":"49.80307","lng":"18.86866"},{"label":"Grodzisk Mazowiecki","lat":"52.10387","lng":"20.6337"},{"label":"Grodzisk Wielkopolski","lat":"52.22762","lng":"16.36534"},{"label":"Grodzisko Dolne","lat":"50.16238","lng":"22.46292"},{"label":"Grodzisko Górne","lat":"50.1869","lng":"22.43786"},{"label":"Grojec","lat":"50.08975","lng":"19.55704"},{"label":"Grojec","lat":"49.98147","lng":"19.23792"},{"label":"Grójec","lat":"51.86252","lng":"20.86757"},{"label":"Gromadka","lat":"51.36063","lng":"15.76452"},{"label":"Gromnik","lat":"49.83843","lng":"20.96123"},{"label":"Gronowo Elbląskie","lat":"54.08588","lng":"19.30598"},{"label":"Gronowo Górne","lat":"54.13863","lng":"19.45988"},{"label":"Grudki","lat":"53.09488","lng":"23.66848"},{"label":"Grudusk","lat":"53.05845","lng":"20.62494"},{"label":"Grudziądz","lat":"53.48411","lng":"18.75366"},{"label":"Gruszów Wielki","lat":"50.19163","lng":"21.03144"},{"label":"Gruta","lat":"53.45315","lng":"18.957"},{"label":"Grybów","lat":"49.62439","lng":"20.94797"},{"label":"Gryfice","lat":"53.9165","lng":"15.20027"},{"label":"Gryfino","lat":"53.25243","lng":"14.48831"},{"label":"Gryfów Śląski","lat":"51.03081","lng":"15.42017"},{"label":"Grzechynia","lat":"49.7136","lng":"19.64561"},{"label":"Grzegorzew","lat":"52.20177","lng":"18.73409"},{"label":"Grzegórzki","lat":"50.06423","lng":"19.96761"},{"label":"Grzęska","lat":"50.08303","lng":"22.45399"},{"label":"Grzmiąca","lat":"53.83734","lng":"16.43512"},{"label":"Grzybowa Góra","lat":"51.13326","lng":"20.96174"},{"label":"Grzybowo","lat":"54.15892","lng":"15.48557"},{"label":"Gubin","lat":"51.94956","lng":"14.72837"},{"label":"Guzów","lat":"52.11626","lng":"20.33672"},{"label":"Gwoźnica Górna","lat":"49.82791","lng":"21.99772"},{"label":"Gzy","lat":"52.74045","lng":"20.94372"},{"label":"Haczów","lat":"49.66152","lng":"21.8979"},{"label":"Hajnówka","lat":"52.74328","lng":"23.58122"},{"label":"Halinów","lat":"52.2288","lng":"21.3551"},{"label":"Handzlówka","lat":"49.99527","lng":"22.22311"},{"label":"Hańsk","lat":"51.41286","lng":"23.39942"},{"label":"Harasiuki","lat":"50.47515","lng":"22.47288"},{"label":"Harbutowice","lat":"49.81235","lng":"19.78045"},{"label":"Hażlach","lat":"49.80714","lng":"18.65178"},{"label":"Hel","lat":"54.60384","lng":"18.80351"},{"label":"Henryków","lat":"50.65327","lng":"17.01027"},{"label":"Herby","lat":"50.75318","lng":"18.88756"},{"label":"Hornówek","lat":"52.28638","lng":"20.80793"},{"label":"Horodło","lat":"50.89459","lng":"24.03723"},{"label":"Horyniec-Zdrój","lat":"50.19152","lng":"23.36277"},{"label":"Hrubieszów","lat":"50.80502","lng":"23.89251"},{"label":"Humniska","lat":"49.67507","lng":"22.05368"},{"label":"Husów","lat":"49.97971","lng":"22.28645"},{"label":"Huta Stara B","lat":"50.73792","lng":"19.13295"},{"label":"Hyżne","lat":"49.91769","lng":"22.18131"},{"label":"Iława","lat":"53.59601","lng":"19.56849"},{"label":"Iłów","lat":"52.33953","lng":"20.0273"},{"label":"Iłowa","lat":"51.5006","lng":"15.1998"},{"label":"Iłowo -Osada","lat":"53.16808","lng":"20.29295"},{"label":"Iłża","lat":"51.16313","lng":"21.23979"},{"label":"Imielin","lat":"50.14534","lng":"19.18599"},{"label":"Imielno","lat":"50.58569","lng":"20.44813"},{"label":"Inowłódz","lat":"51.52717","lng":"20.223"},{"label":"Inowrocław","lat":"52.79886","lng":"18.26387"},{"label":"Ińsko","lat":"53.43613","lng":"15.5502"},{"label":"Inwałd","lat":"49.86355","lng":"19.39276"},{"label":"Istebna","lat":"49.56319","lng":"18.90567"},{"label":"Iwaniska","lat":"50.73146","lng":"21.2806"},{"label":"Iwierzyce","lat":"50.02958","lng":"21.75396"},{"label":"Iwkowa","lat":"49.81716","lng":"20.59018"},{"label":"Iwonicz-Zdrój","lat":"49.56319","lng":"21.78992"},{"label":"Izabelin","lat":"52.29992","lng":"20.81729"},{"label":"Izabelin C","lat":"52.29929","lng":"20.80381"},{"label":"Izbica","lat":"50.88728","lng":"23.15248"},{"label":"Izbica Kujawska","lat":"52.42073","lng":"18.7627"},{"label":"Izbicko","lat":"50.57163","lng":"18.15585"},{"label":"Izdebnik","lat":"49.87218","lng":"19.76801"},{"label":"Jabłoń","lat":"51.72501","lng":"23.08743"},{"label":"Jabłonica Polska","lat":"49.69784","lng":"21.89961"},{"label":"Jabłonka","lat":"49.69417","lng":"22.11565"},{"label":"Jabłonka","lat":"49.47968","lng":"19.6937"},{"label":"Jabłonna","lat":"52.37885","lng":"20.91745"},{"label":"Jabłonna","lat":"51.08875","lng":"22.59364"},{"label":"Jabłonna","lat":"52.20598","lng":"16.20741"},{"label":"Jabłonna Lacka","lat":"52.47664","lng":"22.44228"},{"label":"Jabłonowo Pomorskie","lat":"53.39137","lng":"19.15509"},{"label":"Jadów","lat":"52.47849","lng":"21.63199"},{"label":"Jadowniki","lat":"49.95884","lng":"20.64434"},{"label":"Jadowniki Mokre","lat":"50.16546","lng":"20.72845"},{"label":"Jagiełła","lat":"50.0946","lng":"22.57261"},{"label":"Jakubów","lat":"52.21965","lng":"21.68032"},{"label":"Jakubowice Murowane","lat":"51.26992","lng":"22.63415"},{"label":"Janikowo","lat":"52.75328","lng":"18.11328"},{"label":"Janków Przygodzki","lat":"51.59808","lng":"17.78824"},{"label":"Jankowice","lat":"50.0009","lng":"18.98901"},{"label":"Jankowice Rybnickie","lat":"50.04479","lng":"18.54707"},{"label":"Janów","lat":"53.46747","lng":"23.23052"},{"label":"Janów Lubelski","lat":"50.70695","lng":"22.41039"},{"label":"Janów Podlaski","lat":"52.19398","lng":"23.21218"},{"label":"Janowice","lat":"49.89154","lng":"20.86081"},{"label":"Janowice","lat":"49.88496","lng":"19.09376"},{"label":"Janowice Wielkie","lat":"50.87569","lng":"15.92322"},{"label":"Janowiec","lat":"51.32359","lng":"21.8894"},{"label":"Janowiec Wielkopolski","lat":"52.75583","lng":"17.48981"},{"label":"Januszkowice","lat":"50.39189","lng":"18.1368"},{"label":"Jaraczewo","lat":"51.96854","lng":"17.29707"},{"label":"Jarczów","lat":"50.42438","lng":"23.58576"},{"label":"Jarnołtów-Jerzmanowo","lat":"51.12163","lng":"16.86621"},{"label":"Jarocin","lat":"50.56459","lng":"22.32121"},{"label":"Jarocin","lat":"51.97266","lng":"17.50256"},{"label":"Jarosław","lat":"50.01623","lng":"22.67776"},{"label":"Jaroszowice","lat":"49.86267","lng":"19.51962"},{"label":"Jasień","lat":"49.96988","lng":"20.5719"},{"label":"Jasień","lat":"51.75142","lng":"15.01419"},{"label":"Jasienica","lat":"52.41415","lng":"21.4115"},{"label":"Jasienica","lat":"49.82281","lng":"19.84191"},{"label":"Jasienica","lat":"49.81312","lng":"18.92155"},{"label":"Jasienica Rosielna","lat":"49.75144","lng":"21.94176"},{"label":"Jasieniec","lat":"51.82104","lng":"20.94099"},{"label":"Jasionów","lat":"49.65841","lng":"21.97678"},{"label":"Jaśliska","lat":"49.44229","lng":"21.80795"},{"label":"Jasło","lat":"49.74506","lng":"21.47252"},{"label":"Jastarnia","lat":"54.6983","lng":"18.6773"},{"label":"Jastków","lat":"51.30411","lng":"22.43546"},{"label":"Jastrowie","lat":"53.42048","lng":"16.81756"},{"label":"Jastrząb","lat":"51.24725","lng":"20.94758"},{"label":"Jastrząb","lat":"50.67019","lng":"19.1817"},{"label":"Jastrzębia","lat":"51.49742","lng":"21.23709"},{"label":"Jastrzębia","lat":"49.79733","lng":"20.88089"},{"label":"Jastrzębia Góra","lat":"54.83135","lng":"18.31301"},{"label":"Jastrzębie Zdrój","lat":"49.95542","lng":"18.57479"},{"label":"Jawor","lat":"51.05132","lng":"16.19347"},{"label":"Jawornik","lat":"49.8464","lng":"21.89404"},{"label":"Jawornik","lat":"49.8558","lng":"19.89315"},{"label":"Jawornik Polski","lat":"49.89082","lng":"22.28868"},{"label":"Jaworze","lat":"49.79351","lng":"18.9479"},{"label":"Jaworzno","lat":"50.20528","lng":"19.27498"},{"label":"Jaworzyna Śląska","lat":"50.9134","lng":"16.43241"},{"label":"Jaworzynka","lat":"49.54019","lng":"18.86996"},{"label":"Jedlicze","lat":"49.71749","lng":"21.64886"},{"label":"Jedlina-Zdrój","lat":"50.72005","lng":"16.34645"},{"label":"Jedlińsk","lat":"51.514","lng":"21.11577"},{"label":"Jedlnia-Letnisko","lat":"51.43074","lng":"21.33536"},{"label":"Jednorożec","lat":"53.14116","lng":"21.05161"},{"label":"Jędrzejów","lat":"50.63945","lng":"20.30454"},{"label":"Jedwabne","lat":"53.28554","lng":"22.30353"},{"label":"Jedwabno","lat":"53.5299","lng":"20.72657"},{"label":"Jejkowice","lat":"50.10814","lng":"18.46767"},{"label":"Jelcz","lat":"51.02102","lng":"17.32095"},{"label":"Jelcz Laskowice","lat":"51.02134","lng":"17.31649"},{"label":"Jelenia Góra","lat":"50.89973","lng":"15.72899"},{"label":"Jeleśnia","lat":"49.64246","lng":"19.32701"},{"label":"Jemielnica","lat":"50.54573","lng":"18.37807"},{"label":"Jemielno","lat":"51.52434","lng":"16.54326"},{"label":"Jenin","lat":"52.69647","lng":"15.09796"},{"label":"Jerzmanowice","lat":"50.21267","lng":"19.74672"},{"label":"Jeżewo","lat":"53.51061","lng":"18.49437"},{"label":"Jeziora Wielkie","lat":"52.53043","lng":"18.26803"},{"label":"Jeziorany","lat":"53.97578","lng":"20.74639"},{"label":"Jeziorzany","lat":"51.60245","lng":"22.27667"},{"label":"Jeżów","lat":"51.81376","lng":"19.96877"},{"label":"Jeżów Sudecki","lat":"50.93507","lng":"15.74306"},{"label":"Jeżowe","lat":"50.37486","lng":"22.12749"},{"label":"Jodłowa","lat":"49.87229","lng":"21.27897"},{"label":"Jodłówka","lat":"49.99295","lng":"20.54821"},{"label":"Jodłówka","lat":"49.8943","lng":"22.46653"},{"label":"Jodłówka-Wałki","lat":"50.04992","lng":"21.13332"},{"label":"Joniec","lat":"52.60128","lng":"20.58177"},{"label":"Jonkowo","lat":"53.82817","lng":"20.31054"},{"label":"Jordanów","lat":"49.64935","lng":"19.82981"},{"label":"Jordanów Śląski","lat":"50.86421","lng":"16.86873"},{"label":"Józefosław","lat":"52.1005","lng":"21.04629"},{"label":"Józefów","lat":"52.19446","lng":"20.69592"},{"label":"Józefów","lat":"52.13707","lng":"21.23589"},{"label":"Józefów","lat":"50.48119","lng":"23.05404"},{"label":"Józefów nad Wisłą","lat":"51.04183","lng":"21.83018"},{"label":"Jugów","lat":"50.62758","lng":"16.51812"},{"label":"Juszczyn","lat":"49.6929","lng":"19.69128"},{"label":"Juszczyna","lat":"49.62984","lng":"19.22032"},{"label":"Jutrosin","lat":"51.65009","lng":"17.16957"},{"label":"Kabaty","lat":"52.13012","lng":"21.08148"},{"label":"Kaczory","lat":"53.10348","lng":"16.88169"},{"label":"Kaczyce","lat":"49.82752","lng":"18.59161"},{"label":"Kadzidło","lat":"53.23435","lng":"21.46454"},{"label":"Kalej","lat":"50.83662","lng":"18.98429"},{"label":"Kalety","lat":"50.5627","lng":"18.8926"},{"label":"Kaliska","lat":"53.90535","lng":"18.21885"},{"label":"Kalisz","lat":"51.76109","lng":"18.09102"},{"label":"Kalisz Pomorski","lat":"53.29908","lng":"15.90631"},{"label":"Kałuszyn","lat":"52.20669","lng":"21.80838"},{"label":"Kalwaria Zebrzydowska","lat":"49.86759","lng":"19.6772"},{"label":"Kamesznica","lat":"49.56469","lng":"19.0212"},{"label":"Kamień","lat":"50.34064","lng":"22.13539"},{"label":"Kamień","lat":"50.01215","lng":"19.58536"},{"label":"Kamień Krajeński","lat":"53.53352","lng":"17.52019"},{"label":"Kamień Pomorski","lat":"53.96849","lng":"14.77262"},{"label":"Kamienica","lat":"49.57533","lng":"20.34505"},{"label":"Kamienica","lat":"50.45007","lng":"16.95396"},{"label":"Kamienica Polska","lat":"50.6709","lng":"19.12265"},{"label":"Kamieniec","lat":"52.16614","lng":"16.46164"},{"label":"Kamieniec Wrocławski","lat":"51.07182","lng":"17.18193"},{"label":"Kamieniec Ząbkowicki","lat":"50.52541","lng":"16.87921"},{"label":"Kamienna Góra","lat":"50.78314","lng":"16.03037"},{"label":"Kamiennik","lat":"50.57032","lng":"17.14979"},{"label":"Kamieńsk","lat":"51.20242","lng":"19.49661"},{"label":"Kamionka","lat":"51.47165","lng":"22.46275"},{"label":"Kamionka Wielka","lat":"49.56848","lng":"20.82364"},{"label":"Kampinos","lat":"52.26837","lng":"20.46307"},{"label":"Kamyk","lat":"50.90179","lng":"19.02875"},{"label":"Kańczuga","lat":"49.98346","lng":"22.41168"},{"label":"Kaniów","lat":"50.98577","lng":"20.66391"},{"label":"Kaniów","lat":"49.94316","lng":"19.05098"},{"label":"Karczew","lat":"52.07655","lng":"21.24962"},{"label":"Karczmiska","lat":"51.22952","lng":"21.98158"},{"label":"Kargowa","lat":"52.0714","lng":"15.86138"},{"label":"Karlino","lat":"54.03515","lng":"15.87739"},{"label":"Karłowice","lat":"51.14132","lng":"17.05212"},{"label":"Karnice","lat":"54.03001","lng":"15.05496"},{"label":"Karniewo","lat":"52.837","lng":"20.98886"},{"label":"Karpacz","lat":"50.77669","lng":"15.75594"},{"label":"Karsin","lat":"53.90768","lng":"17.92093"},{"label":"Kartuzy","lat":"54.33424","lng":"18.19735"},{"label":"Kasina Wielka","lat":"49.72969","lng":"20.13554"},{"label":"Kaszów","lat":"50.03884","lng":"19.71934"},{"label":"Katowice","lat":"50.25841","lng":"19.02754"},{"label":"Kąty Wrocławskie","lat":"51.03098","lng":"16.76767"},{"label":"Kawęczyn","lat":"51.90923","lng":"18.53102"},{"label":"Kawęczyn Nowy","lat":"51.88597","lng":"20.24703"},{"label":"Kazanów","lat":"51.27593","lng":"21.46737"},{"label":"Kazimierz Biskupi","lat":"52.311","lng":"18.16581"},{"label":"Kazimierz Dolny","lat":"51.31911","lng":"21.95502"},{"label":"Kazimierza Wielka","lat":"50.26564","lng":"20.49358"},{"label":"Kaźmierz","lat":"52.51309","lng":"16.58403"},{"label":"Kcynia","lat":"52.99192","lng":"17.4883"},{"label":"Kędzierzyn-Koźle","lat":"50.34984","lng":"18.22606"},{"label":"Kępice","lat":"54.24111","lng":"16.88968"},{"label":"Kępie Żaleszańskie","lat":"50.63983","lng":"21.88133"},{"label":"Kępno","lat":"51.2784","lng":"17.98908"},{"label":"Kęsowo","lat":"53.55872","lng":"17.7158"},{"label":"Kętrzyn","lat":"54.07676","lng":"21.37527"},{"label":"Kęty","lat":"49.88214","lng":"19.22333"},{"label":"Kielanówka","lat":"50.02616","lng":"21.92905"},{"label":"Kielce","lat":"50.87033","lng":"20.62752"},{"label":"Kiełczów","lat":"51.13999","lng":"17.17798"},{"label":"Kiełpin","lat":"52.35796","lng":"20.86214"},{"label":"Kiernozia","lat":"52.26858","lng":"19.87092"},{"label":"Kietrz","lat":"50.08042","lng":"18.00432"},{"label":"Kije","lat":"50.60721","lng":"20.57121"},{"label":"Kikół","lat":"52.90994","lng":"19.12016"},{"label":"Kisielice","lat":"53.60855","lng":"19.2635"},{"label":"Kiszkowo","lat":"52.58871","lng":"17.2663"},{"label":"Kłaj","lat":"49.99246","lng":"20.29904"},{"label":"Kłecko","lat":"52.63181","lng":"17.43075"},{"label":"Klecza Dolna","lat":"49.88291","lng":"19.53764"},{"label":"Kleczew","lat":"52.37057","lng":"18.17714"},{"label":"Klembów","lat":"52.4065","lng":"21.33176"},{"label":"Klenica","lat":"51.99217","lng":"15.78392"},{"label":"Kleszczele","lat":"52.57314","lng":"23.32539"},{"label":"Kleszczewo","lat":"52.33377","lng":"17.17163"},{"label":"Kleszczów","lat":"51.22355","lng":"19.30418"},{"label":"Klikuszowa","lat":"49.5193","lng":"19.9849"},{"label":"Klimontów","lat":"50.65588","lng":"21.45587"},{"label":"Klimontów","lat":"50.22843","lng":"20.3199"},{"label":"Kłobuck","lat":"50.90081","lng":"18.93674"},{"label":"Kłoczew","lat":"51.72134","lng":"21.96493"},{"label":"Kłodawa","lat":"52.78595","lng":"15.21452"},{"label":"Kłodawa","lat":"52.25447","lng":"18.91352"},{"label":"Kłodzko","lat":"50.43488","lng":"16.66145"},{"label":"Kłomnice","lat":"50.92165","lng":"19.35679"},{"label":"Klonowa","lat":"51.41928","lng":"18.41815"},{"label":"Kluczbork","lat":"50.97281","lng":"18.21816"},{"label":"Klucze","lat":"50.33565","lng":"19.56236"},{"label":"Kluki","lat":"51.34187","lng":"19.23938"},{"label":"Kluszkowce","lat":"49.451","lng":"20.30179"},{"label":"Klwów","lat":"51.53448","lng":"20.63644"},{"label":"Knurów","lat":"50.21971","lng":"18.65067"},{"label":"Knyszyn","lat":"53.31406","lng":"22.91963"},{"label":"Kobiernice","lat":"49.85497","lng":"19.21646"},{"label":"Kobierzyce","lat":"50.97054","lng":"16.93508"},{"label":"Kobiór","lat":"50.06089","lng":"18.93468"},{"label":"Kobyla Góra","lat":"51.37923","lng":"17.83811"},{"label":"Kobylanka","lat":"49.66891","lng":"21.22293"},{"label":"Kobylanka","lat":"53.34492","lng":"14.87143"},{"label":"Kobylin","lat":"51.71645","lng":"17.22682"},{"label":"Kobyłka","lat":"52.33953","lng":"21.19589"},{"label":"Kobylnica","lat":"54.43975","lng":"16.99782"},{"label":"Kobylnica","lat":"52.44597","lng":"17.07644"},{"label":"Kochanowice","lat":"50.70548","lng":"18.74911"},{"label":"Kocierzew Południowy","lat":"52.21728","lng":"20.01812"},{"label":"Kock","lat":"51.63997","lng":"22.44391"},{"label":"Koczała","lat":"53.90449","lng":"17.06529"},{"label":"Kodeń","lat":"51.91171","lng":"23.60301"},{"label":"Kokotów","lat":"50.01254","lng":"20.07829"},{"label":"Kołaczkowo","lat":"52.21739","lng":"17.62413"},{"label":"Kołaczyce","lat":"49.80743","lng":"21.43407"},{"label":"Kołbaskowo","lat":"53.33641","lng":"14.43835"},{"label":"Kołbiel","lat":"52.06431","lng":"21.48153"},{"label":"Kolbudy","lat":"54.26989","lng":"18.46639"},{"label":"Kolbuszowa","lat":"50.2441","lng":"21.7761"},{"label":"Kołczygłowy","lat":"54.23895","lng":"17.23154"},{"label":"Koleczkowo","lat":"54.48629","lng":"18.34373"},{"label":"Kolno","lat":"53.41148","lng":"21.92905"},{"label":"Koło","lat":"52.20024","lng":"18.63865"},{"label":"Kołobrzeg","lat":"54.17565","lng":"15.58342"},{"label":"Kolonowskie","lat":"50.65338","lng":"18.38493"},{"label":"Kolsko","lat":"51.96146","lng":"15.95987"},{"label":"Koluszki","lat":"51.73872","lng":"19.81994"},{"label":"Komańcza","lat":"49.33922","lng":"22.06166"},{"label":"Komarów-Osada","lat":"50.62888","lng":"23.4774"},{"label":"Komarówka Podlaska","lat":"51.80315","lng":"22.94392"},{"label":"Komorniki","lat":"52.3387","lng":"16.81063"},{"label":"Komorów","lat":"52.1456","lng":"20.81566"},{"label":"Komprachcice","lat":"50.63678","lng":"17.82635"},{"label":"Konary","lat":"51.6569","lng":"17.04185"},{"label":"Kończyce","lat":"50.42575","lng":"22.15376"},{"label":"Kończyce Małe","lat":"49.85824","lng":"18.62964"},{"label":"Kończyce Wielkie","lat":"49.8351","lng":"18.64474"},{"label":"Koniaków","lat":"49.55066","lng":"18.9491"},{"label":"Koniecpol","lat":"50.77468","lng":"19.68896"},{"label":"Konieczkowa","lat":"49.84208","lng":"21.9282"},{"label":"Konin","lat":"52.22338","lng":"18.25121"},{"label":"Konopiska","lat":"50.72695","lng":"19.00781"},{"label":"Konotop","lat":"51.93157","lng":"15.90391"},{"label":"Końskie","lat":"51.19166","lng":"20.40607"},{"label":"Końskowola","lat":"51.40922","lng":"22.05175"},{"label":"Konstancin-Jeziorna","lat":"52.0938","lng":"21.11761"},{"label":"Konstantynów","lat":"52.20746","lng":"23.0853"},{"label":"Konstantynów Łódzki","lat":"51.74776","lng":"19.32564"},{"label":"Koprzywnica","lat":"50.5934","lng":"21.5838"},{"label":"Korbielów","lat":"49.5682","lng":"19.35001"},{"label":"Korczew","lat":"52.35327","lng":"22.61338"},{"label":"Korczyna","lat":"49.71555","lng":"21.80941"},{"label":"Korfantów","lat":"50.48894","lng":"17.59898"},{"label":"Kórnik","lat":"52.24772","lng":"17.08949"},{"label":"Kornowac","lat":"50.07179","lng":"18.32846"},{"label":"Koronowo","lat":"53.3137","lng":"17.93698"},{"label":"Korsze","lat":"54.17002","lng":"21.13915"},{"label":"Kortowo","lat":"53.75731","lng":"20.4562"},{"label":"Korytnica","lat":"52.41441","lng":"21.84949"},{"label":"Korzenna","lat":"49.68635","lng":"20.84355"},{"label":"Kosakowo","lat":"54.58927","lng":"18.48484"},{"label":"Kościan","lat":"52.08829","lng":"16.64866"},{"label":"Kościelec","lat":"52.17425","lng":"18.57067"},{"label":"Kościelec","lat":"50.89713","lng":"19.2156"},{"label":"Kościelisko","lat":"49.29073","lng":"19.88929"},{"label":"Kościerzyna","lat":"54.12226","lng":"17.98119"},{"label":"Kosina","lat":"50.07213","lng":"22.32903"},{"label":"Kosów Lacki","lat":"52.59541","lng":"22.14707"},{"label":"Kostomłoty Drugie","lat":"50.92684","lng":"20.56529"},{"label":"Kostomłoty Pierwsze","lat":"50.92322","lng":"20.5949"},{"label":"Kostrzyn","lat":"52.39847","lng":"17.22811"},{"label":"Kostrzyn nad Odrą","lat":"52.58713","lng":"14.64953"},{"label":"Koszalin","lat":"54.19438","lng":"16.17222"},{"label":"Koszarawa","lat":"49.64462","lng":"19.40083"},{"label":"Koszęcin","lat":"50.63411","lng":"18.8413"},{"label":"Koszyce","lat":"49.97226","lng":"20.94166"},{"label":"Koszyce Wielkie","lat":"49.98076","lng":"20.94552"},{"label":"Kotla","lat":"51.74542","lng":"16.03575"},{"label":"Kotlin","lat":"51.91913","lng":"17.64825"},{"label":"Kotuń","lat":"52.17643","lng":"22.06819"},{"label":"Kowal","lat":"52.53019","lng":"19.14767"},{"label":"Kowala","lat":"51.32503","lng":"21.06972"},{"label":"Kowale","lat":"54.30976","lng":"18.56149"},{"label":"Kowale Oleckie","lat":"54.16354","lng":"22.41666"},{"label":"Kowale-Popiele","lat":"51.1309","lng":"17.10175"},{"label":"Kowalewo Pomorskie","lat":"53.15432","lng":"18.89868"},{"label":"Kowary","lat":"50.79313","lng":"15.83559"},{"label":"Kowiesy","lat":"51.88942","lng":"20.41929"},{"label":"Kozanów","lat":"51.14447","lng":"16.96937"},{"label":"Koziegłowy","lat":"50.60035","lng":"19.16299"},{"label":"Kozielice","lat":"53.10679","lng":"14.82237"},{"label":"Kozienice","lat":"51.58294","lng":"21.54779"},{"label":"Koźle","lat":"50.3356","lng":"18.14332"},{"label":"Kozłów","lat":"50.48394","lng":"20.02456"},{"label":"Kozłowo","lat":"53.30652","lng":"20.29098"},{"label":"Koźmin Wielkopolski","lat":"51.82712","lng":"17.45391"},{"label":"Koźminek","lat":"51.79874","lng":"18.33893"},{"label":"Kozubszczyzna","lat":"51.22323","lng":"22.42747"},{"label":"Kożuchów","lat":"51.74558","lng":"15.59492"},{"label":"Kozy","lat":"49.84756","lng":"19.14891"},{"label":"Kraczkowa","lat":"50.03796","lng":"22.16801"},{"label":"Krajenka","lat":"53.29759","lng":"16.99079"},{"label":"Kraków","lat":"50.06143","lng":"19.93658"},{"label":"Kramarzówka","lat":"49.86034","lng":"22.50137"},{"label":"Kramsk","lat":"52.26469","lng":"18.42407"},{"label":"Krapkowice","lat":"50.47515","lng":"17.96539"},{"label":"Krasiczyn","lat":"49.77644","lng":"22.65252"},{"label":"Krasne","lat":"52.92401","lng":"20.96732"},{"label":"Krasne","lat":"50.05626","lng":"22.08638"},{"label":"Kraśniczyn","lat":"50.93171","lng":"23.34929"},{"label":"Kraśnik","lat":"50.9236","lng":"22.22706"},{"label":"Krasnobród","lat":"50.54551","lng":"23.21308"},{"label":"Krasnopol","lat":"54.11613","lng":"23.20476"},{"label":"Krasnosielc","lat":"53.03378","lng":"21.15735"},{"label":"Krasnystaw","lat":"50.98464","lng":"23.1742"},{"label":"Krasocin","lat":"50.88874","lng":"20.11863"},{"label":"Kraszewice","lat":"51.51868","lng":"18.21997"},{"label":"Krempna","lat":"49.51128","lng":"21.50042"},{"label":"Krobia","lat":"51.77405","lng":"16.98237"},{"label":"Kroczyce","lat":"50.56176","lng":"19.57"},{"label":"Krokowa","lat":"54.77921","lng":"18.1616"},{"label":"Krościenko nad Dunajcem","lat":"49.44081","lng":"20.42624"},{"label":"Krościenko Wyżne","lat":"49.67946","lng":"21.82898"},{"label":"Krośnica","lat":"49.44787","lng":"20.33956"},{"label":"Krośnice","lat":"51.47641","lng":"17.35917"},{"label":"Krośniewice","lat":"52.25592","lng":"19.17037"},{"label":"Krosno","lat":"49.68866","lng":"21.77058"},{"label":"Krosno","lat":"52.22357","lng":"16.83251"},{"label":"Krosno Odrzańskie","lat":"52.05492","lng":"15.09882"},{"label":"Krotoszyn","lat":"51.69868","lng":"17.43738"},{"label":"Kruklanki","lat":"54.08855","lng":"21.92227"},{"label":"Krupski Młyn","lat":"50.57337","lng":"18.62251"},{"label":"Kruszwica","lat":"52.67562","lng":"18.33131"},{"label":"Krynica Morska","lat":"54.38051","lng":"19.44413"},{"label":"Krynica-Zdrój","lat":"49.42225","lng":"20.95942"},{"label":"Krynice","lat":"50.5876","lng":"23.38157"},{"label":"Krynki","lat":"53.26444","lng":"23.77304"},{"label":"Kryry","lat":"50.01667","lng":"18.80568"},{"label":"Kryspinów","lat":"50.0438","lng":"19.79822"},{"label":"Krzanowice","lat":"50.01822","lng":"18.12251"},{"label":"Krzczonów","lat":"49.73813","lng":"19.91821"},{"label":"Krzczonów","lat":"51.00727","lng":"22.71097"},{"label":"Krzęcin","lat":"53.0816","lng":"15.49008"},{"label":"Krzęcin","lat":"49.94316","lng":"19.74157"},{"label":"Krzeczów","lat":"49.98876","lng":"20.48779"},{"label":"Krzeczowice","lat":"49.9892","lng":"22.46378"},{"label":"Krzemienica","lat":"50.0621","lng":"22.18054"},{"label":"Krzemieniewo","lat":"51.85905","lng":"16.83354"},{"label":"Krzepice","lat":"50.97059","lng":"18.72886"},{"label":"Krzeszów","lat":"50.40381","lng":"22.34241"},{"label":"Krzeszów","lat":"50.73434","lng":"16.06991"},{"label":"Krzeszów","lat":"49.75915","lng":"19.48915"},{"label":"Krzeszowice","lat":"50.14248","lng":"19.63223"},{"label":"Krzeszyce","lat":"52.58329","lng":"15.00707"},{"label":"Krzyki","lat":"51.07085","lng":"16.99475"},{"label":"Krzykosy","lat":"52.11041","lng":"17.37411"},{"label":"Krzymów","lat":"52.1896","lng":"18.4311"},{"label":"Krzynowłoga Mała","lat":"53.15773","lng":"20.78579"},{"label":"Krzyszkowice","lat":"49.88346","lng":"19.92285"},{"label":"Krzywaczka","lat":"49.89353","lng":"19.83221"},{"label":"Krzywcza","lat":"49.79894","lng":"22.54549"},{"label":"Krzywda","lat":"51.79519","lng":"22.19994"},{"label":"Krzywiń","lat":"51.96296","lng":"16.81985"},{"label":"Krzyż Wielkopolski","lat":"52.88097","lng":"16.01116"},{"label":"Krzyżanów","lat":"52.18409","lng":"19.45619"},{"label":"Krzyżanowice","lat":"49.98247","lng":"18.26846"},{"label":"Krzyżowa","lat":"49.59235","lng":"19.34469"},{"label":"Krzyżowice","lat":"49.98528","lng":"18.67281"},{"label":"Ksawerów","lat":"51.68288","lng":"19.4028"},{"label":"Książ Wielkopolski","lat":"52.06167","lng":"17.23952"},{"label":"Książenice","lat":"50.15524","lng":"18.59925"},{"label":"Książki","lat":"53.3298","lng":"19.07029"},{"label":"Księże Małe-Księże Wielkie","lat":"51.07293","lng":"17.08881"},{"label":"Księżomierz","lat":"50.90855","lng":"21.98965"},{"label":"Księżpol","lat":"50.42323","lng":"22.73526"},{"label":"Kuczbork-Osada","lat":"53.08619","lng":"20.04782"},{"label":"Kudowa-Zdrój","lat":"50.44297","lng":"16.24397"},{"label":"Kuków","lat":"49.73252","lng":"19.48485"},{"label":"Kunice","lat":"51.22231","lng":"16.24809"},{"label":"Kunice Żarskie","lat":"51.59944","lng":"15.16495"},{"label":"Kunów","lat":"50.96156","lng":"21.28058"},{"label":"Kup","lat":"50.80659","lng":"17.88351"},{"label":"Kurów","lat":"51.38941","lng":"22.18637"},{"label":"Kuryłówka","lat":"50.29976","lng":"22.46601"},{"label":"Kurzętnik","lat":"53.39858","lng":"19.57858"},{"label":"Kuślin","lat":"52.36386","lng":"16.31538"},{"label":"Kutno","lat":"52.23064","lng":"19.36409"},{"label":"Kuźnia Raciborska","lat":"50.20058","lng":"18.31146"},{"label":"Kuźnica","lat":"53.51094","lng":"23.64953"},{"label":"Kwaczała","lat":"50.06408","lng":"19.49215"},{"label":"Kwidzyn","lat":"53.72495","lng":"18.93114"},{"label":"Kwilcz","lat":"52.55506","lng":"16.08562"},{"label":"Łabiszyn","lat":"52.9521","lng":"17.91971"},{"label":"Łabowa","lat":"49.52766","lng":"20.85497"},{"label":"Łabunie","lat":"50.65517","lng":"23.3662"},{"label":"Lachowice","lat":"49.71555","lng":"19.47455"},{"label":"Łąck","lat":"52.46621","lng":"19.61137"},{"label":"Łącko","lat":"49.55757","lng":"20.43586"},{"label":"Łączany","lat":"49.98407","lng":"19.57867"},{"label":"Łączna","lat":"51.00231","lng":"20.79712"},{"label":"Lądek","lat":"52.20929","lng":"17.92994"},{"label":"Lądek-Zdrój","lat":"50.34371","lng":"16.87946"},{"label":"Łagiewniki","lat":"50.79088","lng":"16.84457"},{"label":"Łagów","lat":"50.77517","lng":"21.08431"},{"label":"Łagów","lat":"52.33429","lng":"15.29769"},{"label":"Łagów","lat":"51.15835","lng":"15.04372"},{"label":"Łajski","lat":"52.42873","lng":"20.94946"},{"label":"Łąka Prudnicka","lat":"50.31061","lng":"17.52809"},{"label":"Laliki","lat":"49.53446","lng":"19.00549"},{"label":"Łambinowice","lat":"50.53869","lng":"17.56096"},{"label":"Lanckorona","lat":"49.84496","lng":"19.71578"},{"label":"Łańcut","lat":"50.06871","lng":"22.22912"},{"label":"Łanięta","lat":"52.36203","lng":"19.28032"},{"label":"Łapanów","lat":"49.86538","lng":"20.29149"},{"label":"Łapczyca","lat":"49.95994","lng":"20.38445"},{"label":"Łapsze Niżne","lat":"49.39807","lng":"20.24343"},{"label":"Łapy","lat":"52.9911","lng":"22.88422"},{"label":"Lasek","lat":"49.50883","lng":"19.98078"},{"label":"Łasin","lat":"53.51794","lng":"19.08832"},{"label":"Łask","lat":"51.59056","lng":"19.13278"},{"label":"Łaskarzew","lat":"51.78993","lng":"21.59122"},{"label":"Laskowa","lat":"49.76147","lng":"20.45045"},{"label":"Łaszczów","lat":"50.53332","lng":"23.72562"},{"label":"Laszki","lat":"50.0202","lng":"22.89997"},{"label":"Latowicz","lat":"52.02636","lng":"21.80829"},{"label":"Łaziska","lat":"51.14226","lng":"21.87919"},{"label":"Łaziska","lat":"49.9357","lng":"18.44707"},{"label":"Łaziska Górne","lat":"50.14952","lng":"18.84215"},{"label":"Łazy","lat":"50.42769","lng":"19.39465"},{"label":"Łeba","lat":"54.76099","lng":"17.55547"},{"label":"Lębork","lat":"54.53921","lng":"17.75012"},{"label":"Lecka","lat":"49.8786","lng":"22.01368"},{"label":"Łęczna","lat":"51.30121","lng":"22.88135"},{"label":"Łęczyca","lat":"52.05959","lng":"19.19972"},{"label":"Łęczyce","lat":"54.59405","lng":"17.85931"},{"label":"Lędziny","lat":"50.14264","lng":"19.13149"},{"label":"Legionowo","lat":"52.40149","lng":"20.92664"},{"label":"Legnica","lat":"51.21006","lng":"16.1619"},{"label":"Legnickie Pole","lat":"51.14419","lng":"16.24208"},{"label":"Łęgowo","lat":"54.22641","lng":"18.64277"},{"label":"Łęka Opatowska","lat":"51.21231","lng":"18.1071"},{"label":"Łękawica","lat":"49.72209","lng":"19.26496"},{"label":"Łęki","lat":"49.80996","lng":"21.66023"},{"label":"Łęki Dolne","lat":"49.97386","lng":"21.24739"},{"label":"Łęki Dukielskie","lat":"49.59959","lng":"21.67663"},{"label":"Łęki Górne","lat":"49.97386","lng":"21.17426"},{"label":"Łęki Szlacheckie","lat":"51.18774","lng":"19.79796"},{"label":"Łęknica","lat":"51.54148","lng":"14.73584"},{"label":"Lelkowo","lat":"54.32458","lng":"20.2248"},{"label":"Lelów","lat":"50.68335","lng":"19.62562"},{"label":"Leńcze","lat":"49.89895","lng":"19.73539"},{"label":"Lesko","lat":"49.4701","lng":"22.33042"},{"label":"Leśna","lat":"51.02431","lng":"15.26413"},{"label":"Leśna","lat":"49.67041","lng":"19.12763"},{"label":"Leśna Podlaska","lat":"52.13317","lng":"23.02786"},{"label":"Leśnica","lat":"49.40092","lng":"20.06001"},{"label":"Leśnica","lat":"50.43083","lng":"18.18684"},{"label":"Leśnica-Ratyń-Pustki","lat":"51.14228","lng":"16.84773"},{"label":"Leszno","lat":"52.25799","lng":"20.59121"},{"label":"Leszno","lat":"51.84034","lng":"16.57494"},{"label":"Lesznowola","lat":"52.09095","lng":"20.93479"},{"label":"Łętownia","lat":"50.32481","lng":"22.23401"},{"label":"Łętownia","lat":"49.69745","lng":"19.87109"},{"label":"Lewin Brzeski","lat":"50.7487","lng":"17.61688"},{"label":"Lewin Kłodzki","lat":"50.40559","lng":"16.29101"},{"label":"Leżajsk","lat":"50.26257","lng":"22.41932"},{"label":"Lgota Wielka","lat":"51.14904","lng":"19.32735"},{"label":"Libertów","lat":"49.97242","lng":"19.89461"},{"label":"Libiąż","lat":"50.10396","lng":"19.31568"},{"label":"Licheń Stary","lat":"52.31226","lng":"18.35515"},{"label":"Lidzbark","lat":"53.26283","lng":"19.82663"},{"label":"Lidzbark Warmiński","lat":"54.12588","lng":"20.57954"},{"label":"Ligota","lat":"49.89856","lng":"18.9509"},{"label":"Limanowa","lat":"49.70594","lng":"20.42204"},{"label":"Linia","lat":"54.45143","lng":"17.93454"},{"label":"Liniewo","lat":"54.07661","lng":"18.22675"},{"label":"Lipce Reymontowskie","lat":"51.89863","lng":"19.94173"},{"label":"Lipiany","lat":"53.00336","lng":"14.96919"},{"label":"Lipie","lat":"51.01257","lng":"18.79658"},{"label":"Lipinki","lat":"49.67296","lng":"21.29288"},{"label":"Lipinki Łużyckie","lat":"51.63954","lng":"14.99874"},{"label":"Lipka","lat":"53.49601","lng":"17.25085"},{"label":"Lipkowo","lat":"54.00075","lng":"22.56191"},{"label":"Lipnica","lat":"50.28939","lng":"21.88811"},{"label":"Lipnica","lat":"53.99623","lng":"17.40702"},{"label":"Lipnica Mała","lat":"49.51507","lng":"19.63497"},{"label":"Lipnica Wielka","lat":"49.70489","lng":"20.86844"},{"label":"Lipnica Wielka","lat":"49.47404","lng":"19.63883"},{"label":"Lipnik","lat":"50.72977","lng":"21.49389"},{"label":"Lipnik","lat":"49.78902","lng":"20.08455"},{"label":"Lipno","lat":"52.84436","lng":"19.17852"},{"label":"Lipno","lat":"51.91722","lng":"16.56708"},{"label":"Lipowa","lat":"49.67574","lng":"19.09398"},{"label":"Lipowiec Kościelny","lat":"53.10459","lng":"20.17639"},{"label":"Lipsk","lat":"53.73312","lng":"23.40225"},{"label":"Lipsko","lat":"51.15954","lng":"21.64933"},{"label":"Lipusz","lat":"54.09806","lng":"17.78455"},{"label":"Lisewo","lat":"53.2958","lng":"18.68714"},{"label":"Lisewo Malborskie","lat":"54.09665","lng":"18.82928"},{"label":"Lisia Góra","lat":"50.08039","lng":"21.04397"},{"label":"Lisków","lat":"51.83313","lng":"18.39789"},{"label":"Liszki","lat":"50.03884","lng":"19.76835"},{"label":"Liw","lat":"52.37515","lng":"21.96768"},{"label":"Lniano","lat":"53.52801","lng":"18.21267"},{"label":"Łobez","lat":"53.63918","lng":"15.62129"},{"label":"Łobodno","lat":"50.93079","lng":"18.9909"},{"label":"Łobżenica","lat":"53.26244","lng":"17.25574"},{"label":"Łochów","lat":"52.53076","lng":"21.68158"},{"label":"Łodygowice","lat":"49.72992","lng":"19.13939"},{"label":"Łódź","lat":"51.77058","lng":"19.47395"},{"label":"Łomazy","lat":"51.90435","lng":"23.17656"},{"label":"Łomianki","lat":"52.33413","lng":"20.88602"},{"label":"Łomża","lat":"53.17806","lng":"22.05935"},{"label":"Łoniów","lat":"50.56443","lng":"21.52599"},{"label":"Łopiennik Górny","lat":"51.0408","lng":"23.01833"},{"label":"Łopuszka Wielka","lat":"49.93454","lng":"22.39305"},{"label":"Łopuszna","lat":"49.47281","lng":"20.13021"},{"label":"Łopuszno","lat":"50.94864","lng":"20.25081"},{"label":"Łosice","lat":"52.21129","lng":"22.71801"},{"label":"Łosiów","lat":"50.79096","lng":"17.56594"},{"label":"Łososina Dolna","lat":"49.74977","lng":"20.63129"},{"label":"Łowicz","lat":"52.10714","lng":"19.94525"},{"label":"Lubaczów","lat":"50.157","lng":"23.12339"},{"label":"Lubań","lat":"51.12014","lng":"15.28768"},{"label":"Lubanie","lat":"52.74689","lng":"18.9194"},{"label":"Lubartów","lat":"51.46026","lng":"22.60952"},{"label":"Lubasz","lat":"52.85213","lng":"16.52344"},{"label":"Lubawa","lat":"53.50428","lng":"19.74966"},{"label":"Lubawka","lat":"50.70456","lng":"16.00026"},{"label":"Lubenia","lat":"49.93078","lng":"21.92665"},{"label":"Łubianka","lat":"53.13864","lng":"18.48115"},{"label":"Lubichowo","lat":"53.85136","lng":"18.39901"},{"label":"Lubicz Dolny","lat":"53.03151","lng":"18.74559"},{"label":"Lubicz Górny","lat":"53.02686","lng":"18.771"},{"label":"Lubień","lat":"49.71921","lng":"19.97847"},{"label":"Lubień Kujawski","lat":"52.40574","lng":"19.1644"},{"label":"Lubiewo","lat":"53.46542","lng":"18.02994"},{"label":"Lubin","lat":"51.40089","lng":"16.20149"},{"label":"Lubiszyn","lat":"52.78075","lng":"14.94793"},{"label":"Lublewo Gdańskie","lat":"54.28457","lng":"18.50389"},{"label":"Lublin","lat":"51.25","lng":"22.56667"},{"label":"Lubliniec","lat":"50.66897","lng":"18.6844"},{"label":"Łubniany","lat":"50.78597","lng":"18.0011"},{"label":"Łubnice","lat":"50.41164","lng":"21.15014"},{"label":"Łubnice","lat":"51.16406","lng":"18.29069"},{"label":"Lubniewice","lat":"52.51638","lng":"15.25005"},{"label":"Lubochnia","lat":"51.60794","lng":"20.05391"},{"label":"Lubomia","lat":"50.03972","lng":"18.3082"},{"label":"Lubomierz","lat":"49.60854","lng":"20.20214"},{"label":"Lubomierz","lat":"51.01278","lng":"15.50969"},{"label":"Lubomino","lat":"54.06684","lng":"20.23956"},{"label":"Luboń","lat":"52.34705","lng":"16.89267"},{"label":"Lubowidz","lat":"53.11865","lng":"19.84594"},{"label":"Łubowo","lat":"53.58634","lng":"16.39177"},{"label":"Łubowo","lat":"52.51168","lng":"17.45333"},{"label":"Lubraniec","lat":"52.54178","lng":"18.83254"},{"label":"Lubrza","lat":"52.30418","lng":"15.44317"},{"label":"Lubrza","lat":"50.33631","lng":"17.62636"},{"label":"Lubsko","lat":"51.78467","lng":"14.97196"},{"label":"Lubsza","lat":"50.91591","lng":"17.52173"},{"label":"Lubycza Królewska","lat":"50.34102","lng":"23.51941"},{"label":"Ludwikowice Kłodzkie","lat":"50.62464","lng":"16.46052"},{"label":"Ludwin","lat":"51.34605","lng":"22.90581"},{"label":"Ludźmierz","lat":"49.46656","lng":"19.9825"},{"label":"Łuków","lat":"51.929","lng":"22.37956"},{"label":"Łukowa","lat":"50.37426","lng":"22.94349"},{"label":"Łukowa","lat":"50.093","lng":"20.97548"},{"label":"Łukowica","lat":"49.6111","lng":"20.48289"},{"label":"Luszowice","lat":"50.17415","lng":"19.40426"},{"label":"Lutocin","lat":"52.98152","lng":"19.76655"},{"label":"Lutomiersk","lat":"51.75376","lng":"19.21097"},{"label":"Lutoryż","lat":"49.96712","lng":"21.9124"},{"label":"Lutowiska","lat":"49.25318","lng":"22.69252"},{"label":"Lututów","lat":"51.37033","lng":"18.4348"},{"label":"Luzino","lat":"54.56604","lng":"18.10907"},{"label":"Łużna","lat":"49.71288","lng":"21.04637"},{"label":"Lwówek","lat":"52.44798","lng":"16.18106"},{"label":"Lwówek Śląski","lat":"51.11074","lng":"15.58582"},{"label":"Łyse","lat":"53.36443","lng":"21.56487"},{"label":"Lyski","lat":"50.11992","lng":"18.39146"},{"label":"Łysomice","lat":"53.08629","lng":"18.62002"},{"label":"Łyszkowice","lat":"51.98551","lng":"19.90654"},{"label":"Maciejowice","lat":"51.69222","lng":"21.55342"},{"label":"Majdan Królewski","lat":"50.37935","lng":"21.74615"},{"label":"Maków","lat":"51.94696","lng":"20.05211"},{"label":"Maków Mazowiecki","lat":"52.86493","lng":"21.10053"},{"label":"Maków Podhalański","lat":"49.73008","lng":"19.67711"},{"label":"Mała Wieś","lat":"52.45779","lng":"20.10223"},{"label":"Malanów","lat":"51.95358","lng":"18.39128"},{"label":"Malbork","lat":"54.03591","lng":"19.0266"},{"label":"Malczyce","lat":"51.22038","lng":"16.49365"},{"label":"Małdyty","lat":"53.91981","lng":"19.74398"},{"label":"Malec","lat":"49.92106","lng":"19.2453"},{"label":"Małkinia Górna","lat":"52.6922","lng":"22.02836"},{"label":"Małogoszcz","lat":"50.81214","lng":"20.26407"},{"label":"Małomice","lat":"51.55597","lng":"15.45004"},{"label":"Mały Płock","lat":"53.30385","lng":"22.02836"},{"label":"Manasterz","lat":"49.9352","lng":"22.34602"},{"label":"Maniowy","lat":"49.45976","lng":"20.26454"},{"label":"Marciszów","lat":"50.8447","lng":"16.02116"},{"label":"Margonin","lat":"52.97335","lng":"17.09464"},{"label":"Marianowo","lat":"53.38287","lng":"15.26645"},{"label":"Marki","lat":"52.32065","lng":"21.10474"},{"label":"Markłowice","lat":"50.01695","lng":"18.52098"},{"label":"Markowa","lat":"50.02633","lng":"22.3316"},{"label":"Markuszów","lat":"51.37457","lng":"22.25804"},{"label":"Marszowice","lat":"51.17198","lng":"16.88441"},{"label":"Maślice Małe","lat":"51.14937","lng":"16.94191"},{"label":"Maślice Wielkie","lat":"51.16333","lng":"16.92837"},{"label":"Masłów","lat":"50.90065","lng":"20.72322"},{"label":"Maszewo","lat":"53.49615","lng":"15.06166"},{"label":"Maszewo","lat":"52.06896","lng":"14.90553"},{"label":"Maszewo Duże","lat":"52.58026","lng":"19.62905"},{"label":"Maszkienice","lat":"49.9892","lng":"20.68657"},{"label":"Mazańcowice","lat":"49.85802","lng":"18.97708"},{"label":"Mędrzechów","lat":"50.28221","lng":"20.94749"},{"label":"Medyka","lat":"49.80526","lng":"22.92229"},{"label":"Mełgiew","lat":"51.22519","lng":"22.78414"},{"label":"Meszna","lat":"49.74567","lng":"19.05561"},{"label":"Mętków","lat":"50.05251","lng":"19.37525"},{"label":"Miączyn","lat":"50.73825","lng":"23.5013"},{"label":"Miasteczko Krajeńskie","lat":"53.09784","lng":"17.00478"},{"label":"Miasteczko Śląskie","lat":"50.50262","lng":"18.93949"},{"label":"Miastko","lat":"54.00283","lng":"16.98263"},{"label":"Miastków Kościelny","lat":"51.88407","lng":"21.82528"},{"label":"Michałów","lat":"50.73727","lng":"23.02297"},{"label":"Michałów","lat":"50.54709","lng":"23.60361"},{"label":"Michałów","lat":"50.49541","lng":"20.46178"},{"label":"Michałów-Reginów","lat":"52.41711","lng":"20.96595"},{"label":"Michałowice","lat":"52.17435","lng":"20.88089"},{"label":"Michałowice","lat":"50.15898","lng":"19.98044"},{"label":"Michałowo","lat":"53.03492","lng":"23.60996"},{"label":"Michów","lat":"51.52573","lng":"22.31435"},{"label":"Miechów","lat":"50.35648","lng":"20.02788"},{"label":"Miechów Charsznica","lat":"50.39599","lng":"19.95031"},{"label":"Miedziana Góra","lat":"50.9368","lng":"20.55096"},{"label":"Miedzichowo","lat":"52.37581","lng":"15.95876"},{"label":"Miedzna","lat":"52.46778","lng":"22.08947"},{"label":"Miedźna","lat":"49.98225","lng":"19.04883"},{"label":"Miedzno","lat":"50.96994","lng":"18.98111"},{"label":"Międzybórz","lat":"51.39626","lng":"17.6661"},{"label":"Międzybrodzie Bialskie","lat":"49.78747","lng":"19.19741"},{"label":"Międzychód","lat":"52.59882","lng":"15.89696"},{"label":"Międzylesie","lat":"52.14487","lng":"15.38283"},{"label":"Międzylesie","lat":"50.14778","lng":"16.66712"},{"label":"Międzyrzec Podlaski","lat":"51.9864","lng":"22.78248"},{"label":"Międzyrzecz","lat":"52.44461","lng":"15.57801"},{"label":"Międzyrzecze Dolne","lat":"49.85477","lng":"18.95378"},{"label":"Międzyrzecze Górne","lat":"49.84405","lng":"18.94157"},{"label":"Międzyzdroje","lat":"53.92921","lng":"14.45097"},{"label":"Miejsce Piastowe","lat":"49.6344","lng":"21.78735"},{"label":"Miejska Górka","lat":"51.65573","lng":"16.95826"},{"label":"Miękinia","lat":"51.18844","lng":"16.73595"},{"label":"Miękinia","lat":"50.15557","lng":"19.60871"},{"label":"Mielec","lat":"50.28709","lng":"21.4239"},{"label":"Mieleszyn","lat":"52.66868","lng":"17.49779"},{"label":"Mielno","lat":"54.26086","lng":"16.0621"},{"label":"Mieroszów","lat":"50.66589","lng":"16.18883"},{"label":"Mierzęcice","lat":"50.44504","lng":"19.12934"},{"label":"Mieścisko","lat":"52.74357","lng":"17.33213"},{"label":"Mieszkowice","lat":"52.7873","lng":"14.49346"},{"label":"Miętne","lat":"51.92135","lng":"21.57457"},{"label":"Mikołajki","lat":"53.80288","lng":"21.57011"},{"label":"Mikołajki Pomorskie","lat":"53.85131","lng":"19.16574"},{"label":"Mikołów","lat":"50.17103","lng":"18.9041"},{"label":"Mikstat","lat":"51.53236","lng":"17.97378"},{"label":"Miłakowo","lat":"54.00923","lng":"20.07125"},{"label":"Milanów","lat":"51.70374","lng":"22.8883"},{"label":"Milanówek","lat":"52.11879","lng":"20.67155"},{"label":"Milejczyce","lat":"52.51967","lng":"23.13206"},{"label":"Milejów","lat":"51.23226","lng":"22.92443"},{"label":"Milicz","lat":"51.5277","lng":"17.27137"},{"label":"Miłkowice","lat":"51.25601","lng":"16.07231"},{"label":"Miłomłyn","lat":"53.76449","lng":"19.838"},{"label":"Miłoradz","lat":"54.01392","lng":"18.91846"},{"label":"Miłosław","lat":"52.20318","lng":"17.48955"},{"label":"Milówka","lat":"49.5554","lng":"19.09072"},{"label":"Mińsk Mazowiecki","lat":"52.17935","lng":"21.57251"},{"label":"Mircze","lat":"50.65164","lng":"23.89604"},{"label":"Mirków","lat":"51.16105","lng":"17.17026"},{"label":"Mirocin","lat":"50.04237","lng":"22.55596"},{"label":"Mirosławiec","lat":"53.34071","lng":"16.08793"},{"label":"Mirów","lat":"51.1972","lng":"21.0329"},{"label":"Mirsk","lat":"50.97054","lng":"15.38567"},{"label":"Mirzec","lat":"51.13466","lng":"21.0571"},{"label":"Mława","lat":"53.11278","lng":"20.3841"},{"label":"Młodzieszyn","lat":"52.29945","lng":"20.20017"},{"label":"Młynary","lat":"54.1869","lng":"19.72149"},{"label":"Młynarze","lat":"52.95417","lng":"21.41141"},{"label":"Mnich","lat":"49.88944","lng":"18.80722"},{"label":"Mników","lat":"50.06044","lng":"19.72595"},{"label":"Mniów","lat":"51.01224","lng":"20.48427"},{"label":"Mniszków","lat":"51.37017","lng":"20.03915"},{"label":"Mochowo","lat":"52.7657","lng":"19.55592"},{"label":"Modliborzyce","lat":"50.75416","lng":"22.32945"},{"label":"Modlnica","lat":"50.12958","lng":"19.86461"},{"label":"Modlniczka","lat":"50.11739","lng":"19.8553"},{"label":"Mogielnica","lat":"51.69432","lng":"20.72227"},{"label":"Mogilany","lat":"49.9389","lng":"19.88972"},{"label":"Mogilno","lat":"52.65806","lng":"17.95578"},{"label":"Mokobody","lat":"52.26523","lng":"22.11182"},{"label":"Mokotów","lat":"52.1934","lng":"21.03487"},{"label":"Mokrsko","lat":"51.17897","lng":"18.48879"},{"label":"Mońki","lat":"53.40496","lng":"22.79791"},{"label":"Morąg","lat":"53.91711","lng":"19.92602"},{"label":"Morawica","lat":"50.74678","lng":"20.61756"},{"label":"Mordy","lat":"52.2116","lng":"22.51725"},{"label":"Moryń","lat":"52.85769","lng":"14.39297"},{"label":"Mosina","lat":"52.24543","lng":"16.84709"},{"label":"Mosty","lat":"54.61195","lng":"18.49634"},{"label":"Mosty","lat":"53.54796","lng":"14.95634"},{"label":"Moszczanka","lat":"50.3002","lng":"17.49109"},{"label":"Moszczenica","lat":"49.73668","lng":"21.09238"},{"label":"Moszczenica","lat":"51.50297","lng":"19.71986"},{"label":"Mrągowo","lat":"53.86437","lng":"21.30507"},{"label":"Mrocza","lat":"53.24313","lng":"17.60405"},{"label":"Mrozów","lat":"51.18817","lng":"16.78831"},{"label":"Mrozy","lat":"52.16609","lng":"21.80263"},{"label":"Mrozy","lat":"52.01975","lng":"20.36702"},{"label":"Mrzezino","lat":"54.65378","lng":"18.43025"},{"label":"Mrzeżyno","lat":"54.14384","lng":"15.29142"},{"label":"Mstów","lat":"50.82969","lng":"19.28547"},{"label":"Mszana","lat":"49.96939","lng":"18.52793"},{"label":"Mszana Dolna","lat":"49.67432","lng":"20.07992"},{"label":"Mszana Górna","lat":"49.66202","lng":"20.09734"},{"label":"Mszczonów","lat":"51.97415","lng":"20.52083"},{"label":"Murcki","lat":"50.20036","lng":"19.04351"},{"label":"Murów","lat":"50.86307","lng":"17.94557"},{"label":"Murowana Goślina","lat":"52.57463","lng":"17.00933"},{"label":"Muszyna","lat":"49.35661","lng":"20.89718"},{"label":"Mykanów","lat":"50.9236","lng":"19.2005"},{"label":"Mysiadło","lat":"52.10216","lng":"21.01856"},{"label":"Myślachowice","lat":"50.18514","lng":"19.48116"},{"label":"Mysłakowice","lat":"50.84123","lng":"15.77894"},{"label":"Myślenice","lat":"49.83383","lng":"19.9383"},{"label":"Myślibórz","lat":"52.92382","lng":"14.86785"},{"label":"Mysłowice","lat":"50.20745","lng":"19.16668"},{"label":"Myszków","lat":"50.5752","lng":"19.32461"},{"label":"Myszyniec","lat":"53.38055","lng":"21.34961"},{"label":"Nadarzyn","lat":"52.09438","lng":"20.80776"},{"label":"Nagłowice","lat":"50.67835","lng":"20.10661"},{"label":"Nakło","lat":"50.57975","lng":"18.11817"},{"label":"Nakło","lat":"50.4369","lng":"18.91056"},{"label":"Nakło nad Notecią","lat":"53.14214","lng":"17.60181"},{"label":"Nałęczów","lat":"51.28581","lng":"22.21539"},{"label":"Namysłów","lat":"51.07592","lng":"17.72284"},{"label":"Naprawa","lat":"49.64657","lng":"19.87916"},{"label":"Narew","lat":"52.91418","lng":"23.51984"},{"label":"Narol","lat":"50.34925","lng":"23.32679"},{"label":"Naruszewo","lat":"52.52687","lng":"20.35157"},{"label":"Nasielsk","lat":"52.58887","lng":"20.80553"},{"label":"Nawojowa","lat":"49.56686","lng":"20.73927"},{"label":"Nędza","lat":"50.16112","lng":"18.31103"},{"label":"Nekla","lat":"52.36496","lng":"17.41329"},{"label":"Nidek","lat":"49.90492","lng":"19.32461"},{"label":"Nidzica","lat":"53.36052","lng":"20.42749"},{"label":"Niebieszczany","lat":"49.50348","lng":"22.15651"},{"label":"Niebocko","lat":"49.67774","lng":"22.10484"},{"label":"Nieborów","lat":"52.07771","lng":"20.06902"},{"label":"Niebylec","lat":"49.85669","lng":"21.90348"},{"label":"Niechanowo","lat":"52.46527","lng":"17.67812"},{"label":"Niechobrz","lat":"49.99472","lng":"21.87824"},{"label":"Niedobczyce","lat":"50.0654","lng":"18.49531"},{"label":"Niedomice","lat":"50.10737","lng":"20.89548"},{"label":"Niedrzwica Duża","lat":"51.11462","lng":"22.38911"},{"label":"Niedzica","lat":"49.41008","lng":"20.30273"},{"label":"Niedźwiada","lat":"51.54409","lng":"22.6914"},{"label":"Niedźwiada","lat":"49.98937","lng":"21.52162"},{"label":"Niedźwiedź","lat":"49.621","lng":"20.07794"},{"label":"Niegowonice","lat":"50.38909","lng":"19.42263"},{"label":"Nielisz","lat":"50.80067","lng":"23.04451"},{"label":"Niemce","lat":"51.36155","lng":"22.63939"},{"label":"Niemcza","lat":"50.72007","lng":"16.83573"},{"label":"Niemodlin","lat":"50.642","lng":"17.61932"},{"label":"Nienadowa","lat":"49.82901","lng":"22.42704"},{"label":"Niepołomice","lat":"50.04066","lng":"20.22257"},{"label":"Nieporęt","lat":"52.43152","lng":"21.03212"},{"label":"Nieszawa","lat":"52.83452","lng":"18.89921"},{"label":"Nisko","lat":"50.51987","lng":"22.13968"},{"label":"Niwiska","lat":"50.22492","lng":"21.63036"},{"label":"Nowa Dęba","lat":"50.42974","lng":"21.75078"},{"label":"Nowa Góra","lat":"50.17305","lng":"19.5912"},{"label":"Nowa Ruda","lat":"50.58008","lng":"16.50164"},{"label":"Nowa Sarzyna","lat":"50.32086","lng":"22.34456"},{"label":"Nowa Słupia","lat":"50.86432","lng":"21.09049"},{"label":"Nowa Sól","lat":"51.80333","lng":"15.71702"},{"label":"Nowa Wieś","lat":"49.90746","lng":"19.21646"},{"label":"Nowa Wieś Lęborska","lat":"54.55878","lng":"17.72756"},{"label":"Nowa Wieś Wielka","lat":"52.97159","lng":"18.09036"},{"label":"Nowe","lat":"53.64906","lng":"18.72716"},{"label":"Nowe Brzesko","lat":"50.13222","lng":"20.37663"},{"label":"Nowe Grocholice","lat":"52.15924","lng":"20.9111"},{"label":"Nowe Lipiny","lat":"52.35789","lng":"21.27125"},{"label":"Nowe Miasteczko","lat":"51.69097","lng":"15.73174"},{"label":"Nowe Miasto","lat":"52.65691","lng":"20.62838"},{"label":"Nowe Miasto Lubawskie","lat":"53.42079","lng":"19.59515"},{"label":"Nowe Miasto nad Pilicą","lat":"51.61812","lng":"20.57619"},{"label":"Nowe Miasto nad Wartą","lat":"52.09007","lng":"17.41114"},{"label":"Nowe Ostrowy","lat":"52.30318","lng":"19.19217"},{"label":"Nowe Sioło","lat":"50.23194","lng":"23.15884"},{"label":"Nowe Skalmierzyce","lat":"51.71038","lng":"17.99337"},{"label":"Nowe Warpno","lat":"53.72256","lng":"14.28961"},{"label":"Nowodwór","lat":"51.63901","lng":"22.10183"},{"label":"Nowogard","lat":"53.67437","lng":"15.1163"},{"label":"Nowogród","lat":"53.22698","lng":"21.8821"},{"label":"Nowogród Bobrzański","lat":"51.79856","lng":"15.2352"},{"label":"Nowogródek Pomorski","lat":"52.91149","lng":"15.02947"},{"label":"Nowogrodziec","lat":"51.19543","lng":"15.39854"},{"label":"Nowosielce","lat":"50.05747","lng":"22.41056"},{"label":"Nowosielce-Gniewosz","lat":"49.56842","lng":"22.06947"},{"label":"Nowy Duninów","lat":"52.58271","lng":"19.47996"},{"label":"Nowy Dwór Gdański","lat":"54.21305","lng":"19.11771"},{"label":"Nowy Dwór Mazowiecki","lat":"52.43022","lng":"20.71652"},{"label":"Nowy Korczyn","lat":"50.30124","lng":"20.80759"},{"label":"Nowy Sącz","lat":"49.62177","lng":"20.69705"},{"label":"Nowy Staw","lat":"54.13609","lng":"19.00909"},{"label":"Nowy Targ","lat":"49.47783","lng":"20.03228"},{"label":"Nowy Tomyśl","lat":"52.3195","lng":"16.12844"},{"label":"Nowy Wiśnicz","lat":"49.91465","lng":"20.46109"},{"label":"Nowy Żmigród","lat":"49.60353","lng":"21.52376"},{"label":"Nozdrzec","lat":"49.77323","lng":"22.19865"},{"label":"Nur","lat":"52.66826","lng":"22.32207"},{"label":"Nurzec-Stacja","lat":"52.46249","lng":"23.08571"},{"label":"Nysa","lat":"50.47379","lng":"17.33437"},{"label":"Oborniki","lat":"52.64739","lng":"16.81406"},{"label":"Oborniki Śląskie","lat":"51.30137","lng":"16.91465"},{"label":"Obrazów","lat":"50.69276","lng":"21.65045"},{"label":"Obrowo","lat":"52.97149","lng":"18.87863"},{"label":"Obryte","lat":"52.71633","lng":"21.24945"},{"label":"Obrzycko","lat":"52.70338","lng":"16.52807"},{"label":"Obsza","lat":"50.3152","lng":"22.95688"},{"label":"Ochaby","lat":"49.84252","lng":"18.76894"},{"label":"Ochla","lat":"51.87903","lng":"15.47132"},{"label":"Ochojno","lat":"49.95255","lng":"19.97452"},{"label":"Ochota","lat":"52.22096","lng":"20.98526"},{"label":"Ochotnica Dolna","lat":"49.52682","lng":"20.34265"},{"label":"Odolanów","lat":"51.57419","lng":"17.67434"},{"label":"Odrzykoń","lat":"49.74057","lng":"21.74074"},{"label":"Odrzywół","lat":"51.51953","lng":"20.55559"},{"label":"Ogrodzieniec","lat":"50.45177","lng":"19.51987"},{"label":"Ojrzeń","lat":"52.7657","lng":"20.54315"},{"label":"Okocim","lat":"49.9489","lng":"20.6016"},{"label":"Okonek","lat":"53.53618","lng":"16.85158"},{"label":"Oksa","lat":"50.72874","lng":"20.10086"},{"label":"Oława","lat":"50.9466","lng":"17.2926"},{"label":"Olecko","lat":"54.03374","lng":"22.50704"},{"label":"Oleśnica","lat":"50.45357","lng":"21.06457"},{"label":"Oleśnica","lat":"51.21338","lng":"17.38986"},{"label":"Olesno","lat":"50.20152","lng":"20.92578"},{"label":"Olesno","lat":"50.87698","lng":"18.42094"},{"label":"Oleszyce","lat":"50.1675","lng":"23.03481"},{"label":"Olkusz","lat":"50.2813","lng":"19.56503"},{"label":"Ołpiny","lat":"49.80686","lng":"21.20464"},{"label":"Olszana","lat":"49.56748","lng":"20.52126"},{"label":"Olszanica","lat":"49.47741","lng":"22.44382"},{"label":"Olszanica","lat":"51.20672","lng":"15.8004"},{"label":"Olszanka","lat":"50.79514","lng":"17.4789"},{"label":"Olszówka","lat":"49.61455","lng":"20.02885"},{"label":"Olszówka","lat":"52.1903","lng":"18.86258"},{"label":"Olsztyn","lat":"53.77995","lng":"20.49416"},{"label":"Olsztyn","lat":"50.75185","lng":"19.26737"},{"label":"Olsztynek","lat":"53.58374","lng":"20.28471"},{"label":"Olszyna","lat":"51.0671","lng":"15.37228"},{"label":"Olza","lat":"49.95393","lng":"18.3391"},{"label":"Opalenica","lat":"52.30887","lng":"16.41278"},{"label":"Opatów","lat":"50.80058","lng":"21.42538"},{"label":"Opatów","lat":"51.21463","lng":"18.14615"},{"label":"Opatów","lat":"50.95567","lng":"18.81941"},{"label":"Opatówek","lat":"51.73989","lng":"18.21653"},{"label":"Opatowiec","lat":"50.24314","lng":"20.72348"},{"label":"Opinogóra Górna","lat":"52.90554","lng":"20.71781"},{"label":"Opoczno","lat":"51.37569","lng":"20.27827"},{"label":"Opole","lat":"50.67211","lng":"17.92533"},{"label":"Opole Lubelskie","lat":"51.14775","lng":"21.96897"},{"label":"Oporów","lat":"52.26448","lng":"19.56416"},{"label":"Orchowo","lat":"52.50938","lng":"18.01578"},{"label":"Orla","lat":"52.70546","lng":"23.33213"},{"label":"Orle","lat":"54.64022","lng":"18.17057"},{"label":"Orły","lat":"49.87107","lng":"22.80298"},{"label":"Orneta","lat":"54.11483","lng":"20.13328"},{"label":"Ornontowice","lat":"50.19377","lng":"18.75435"},{"label":"Orońsko","lat":"51.31339","lng":"20.99067"},{"label":"Orzech","lat":"50.42744","lng":"18.92275"},{"label":"Orzechówka","lat":"49.7308","lng":"21.94519"},{"label":"Orzesze","lat":"50.15595","lng":"18.77923"},{"label":"Orzysz","lat":"53.80967","lng":"21.94811"},{"label":"Osie","lat":"53.59918","lng":"18.34373"},{"label":"Osięciny","lat":"52.62926","lng":"18.72208"},{"label":"Osieck","lat":"51.96653","lng":"21.41913"},{"label":"Osieczany","lat":"49.84252","lng":"19.98207"},{"label":"Osieczna","lat":"51.9042","lng":"16.67862"},{"label":"Osiedle Henrykowskie","lat":"51.08999","lng":"17.05289"},{"label":"Osiedle Kosmonautów","lat":"51.12753","lng":"16.96186"},{"label":"Osiedle-Nowiny","lat":"50.8177","lng":"20.54117"},{"label":"Osiek","lat":"50.51996","lng":"21.44192"},{"label":"Osiek","lat":"53.72226","lng":"18.49051"},{"label":"Osiek","lat":"52.92629","lng":"18.80765"},{"label":"Osiek","lat":"51.36717","lng":"16.2338"},{"label":"Osiek","lat":"50.24353","lng":"19.60047"},{"label":"Osiek","lat":"49.95067","lng":"19.26444"},{"label":"Osiek Jasielski","lat":"49.63784","lng":"21.4884"},{"label":"Osiek Mały","lat":"52.2763","lng":"18.60234"},{"label":"Osiek nad Notecią","lat":"53.1203","lng":"17.29102"},{"label":"Osielec","lat":"49.68079","lng":"19.78243"},{"label":"Osielsko","lat":"53.18505","lng":"18.08418"},{"label":"Osina","lat":"53.60473","lng":"15.0123"},{"label":"Osjaków","lat":"51.28946","lng":"18.79151"},{"label":"Ośno Lubuskie","lat":"52.4536","lng":"14.87549"},{"label":"Ostaszewo","lat":"54.21256","lng":"18.95142"},{"label":"Ostrężnica","lat":"50.19262","lng":"19.57077"},{"label":"Ostróda","lat":"53.69671","lng":"19.96486"},{"label":"Ostrołęka","lat":"53.08621","lng":"21.57566"},{"label":"Ostroróg","lat":"52.6265","lng":"16.44988"},{"label":"Ostroszowice","lat":"50.64576","lng":"16.63965"},{"label":"Ostrów","lat":"50.09779","lng":"21.5932"},{"label":"Ostrów","lat":"49.96812","lng":"22.7871"},{"label":"Ostrów Lubelski","lat":"51.49416","lng":"22.85287"},{"label":"Ostrów Mazowiecka","lat":"52.80245","lng":"21.89507"},{"label":"Ostrów Wielkopolski","lat":"51.65501","lng":"17.80686"},{"label":"Ostrówek","lat":"52.5535","lng":"21.76014"},{"label":"Ostrówek","lat":"51.5815","lng":"22.61227"},{"label":"Ostrówek","lat":"52.38938","lng":"21.36738"},{"label":"Ostrowiec Świętokrzyski","lat":"50.92936","lng":"21.38525"},{"label":"Ostrowite","lat":"53.06917","lng":"19.29337"},{"label":"Ostrowite","lat":"52.38199","lng":"18.0447"},{"label":"Ostrowsko","lat":"49.47616","lng":"20.10052"},{"label":"Ostrowy","lat":"52.30444","lng":"19.16565"},{"label":"Ostrowy nad Okszą","lat":"50.97799","lng":"19.05355"},{"label":"Ostrzeszów","lat":"51.4264","lng":"17.93355"},{"label":"Oświęcim","lat":"50.03437","lng":"19.21037"},{"label":"Otmuchów","lat":"50.46627","lng":"17.17348"},{"label":"Otrębusy","lat":"52.12843","lng":"20.76073"},{"label":"Otwock","lat":"52.10577","lng":"21.26129"},{"label":"Otyń","lat":"51.84766","lng":"15.71105"},{"label":"Owczarnia","lat":"52.11114","lng":"20.70468"},{"label":"Ożarów","lat":"50.88798","lng":"21.66658"},{"label":"Ożarów","lat":"51.14489","lng":"18.5111"},{"label":"Ożarów Mazowiecki","lat":"52.21039","lng":"20.79716"},{"label":"Ożarowice","lat":"50.46182","lng":"19.04317"},{"label":"Ozimek","lat":"50.67944","lng":"18.2137"},{"label":"Ozorków","lat":"51.96336","lng":"19.29139"},{"label":"Pabianice","lat":"51.66446","lng":"19.35473"},{"label":"Pacanów","lat":"50.40031","lng":"21.04148"},{"label":"Pacyna","lat":"52.30281","lng":"19.70982"},{"label":"Paczków","lat":"50.46395","lng":"17.00658"},{"label":"Padew Narodowa","lat":"50.43947","lng":"21.50059"},{"label":"Pajęczno","lat":"51.14449","lng":"18.99612"},{"label":"Pakość","lat":"52.80178","lng":"18.0853"},{"label":"Pakosław","lat":"51.61438","lng":"17.05793"},{"label":"Pakosławice","lat":"50.54474","lng":"17.36578"},{"label":"Palcza","lat":"49.80454","lng":"19.74389"},{"label":"Pamiątkowo","lat":"52.55334","lng":"16.68094"},{"label":"Paniówki","lat":"50.23139","lng":"18.78104"},{"label":"Panki","lat":"50.88333","lng":"18.7516"},{"label":"Pantalowice","lat":"49.9521","lng":"22.43563"},{"label":"Paprotnia","lat":"52.30071","lng":"22.46756"},{"label":"Paprotnia","lat":"52.20513","lng":"20.4232"},{"label":"Paradyż","lat":"51.30604","lng":"20.11374"},{"label":"Parchowo","lat":"54.20658","lng":"17.66816"},{"label":"Parczew","lat":"51.64021","lng":"22.90057"},{"label":"Partynice","lat":"51.06798","lng":"17.01394"},{"label":"Parysów","lat":"51.97584","lng":"21.68006"},{"label":"Parzęczew","lat":"51.94855","lng":"19.20608"},{"label":"Pasłęk","lat":"54.0616","lng":"19.65932"},{"label":"Pasym","lat":"53.65069","lng":"20.79188"},{"label":"Paszowice","lat":"51.01078","lng":"16.15273"},{"label":"Pątnów","lat":"51.14403","lng":"18.61659"},{"label":"Pawlikowice","lat":"49.9531","lng":"20.05486"},{"label":"Pawłosiów","lat":"49.99533","lng":"22.64763"},{"label":"Pawłów","lat":"50.96216","lng":"21.12062"},{"label":"Pawłowice","lat":"49.96127","lng":"18.71778"},{"label":"Pawłowice-Kłokoczyce","lat":"51.16495","lng":"17.09822"},{"label":"Pawłowiczki","lat":"50.2466","lng":"18.04865"},{"label":"Pawonków","lat":"50.69499","lng":"18.58149"},{"label":"Pcim","lat":"49.75166","lng":"19.97108"},{"label":"Pecna","lat":"52.18333","lng":"16.8"},{"label":"Pęczniew","lat":"51.80384","lng":"18.72311"},{"label":"Pełczyce","lat":"53.04354","lng":"15.30447"},{"label":"Pelplin","lat":"53.92834","lng":"18.6977"},{"label":"Pępowo","lat":"51.76569","lng":"17.12661"},{"label":"Perlejewo","lat":"52.56676","lng":"22.56457"},{"label":"Perzów","lat":"51.27625","lng":"17.8097"},{"label":"Pewel Ślemieńska","lat":"49.68968","lng":"19.33431"},{"label":"Pewel Wielka","lat":"49.67457","lng":"19.37482"},{"label":"Piaseczno","lat":"52.0814","lng":"21.02397"},{"label":"Piasek","lat":"50.01055","lng":"18.94807"},{"label":"Piaski","lat":"51.13892","lng":"22.84856"},{"label":"Piaski","lat":"51.88497","lng":"17.07293"},{"label":"Piastów","lat":"52.18435","lng":"20.83952"},{"label":"Piątek","lat":"52.0689","lng":"19.4797"},{"label":"Piątnica","lat":"53.19657","lng":"22.09591"},{"label":"Piechowice","lat":"50.84963","lng":"15.59887"},{"label":"Piecki","lat":"53.75759","lng":"21.33914"},{"label":"Piekary","lat":"50.02495","lng":"19.79616"},{"label":"Piekary Śląskie","lat":"50.38017","lng":"18.92653"},{"label":"Piekielnik","lat":"49.47688","lng":"19.7681"},{"label":"Piekoszów","lat":"50.88035","lng":"20.46418"},{"label":"Pielgrzymowice","lat":"49.90547","lng":"18.64886"},{"label":"Pieniężno","lat":"54.23649","lng":"20.12833"},{"label":"Pieńsk","lat":"51.249","lng":"15.04685"},{"label":"Pierściec","lat":"49.83339","lng":"18.81409"},{"label":"Pierzchnica","lat":"50.69754","lng":"20.75489"},{"label":"Pieszyce","lat":"50.71287","lng":"16.58232"},{"label":"Pietrowice Wielkie","lat":"50.08452","lng":"18.09148"},{"label":"Pietrzykowice","lat":"49.69634","lng":"19.1599"},{"label":"Piła","lat":"53.15145","lng":"16.73782"},{"label":"Pilawa","lat":"51.95945","lng":"21.53089"},{"label":"Piława Górna","lat":"50.68357","lng":"16.74359"},{"label":"Pilchowice","lat":"50.21668","lng":"18.56132"},{"label":"Pilczyce","lat":"51.13704","lng":"16.95752"},{"label":"Pilica","lat":"50.46799","lng":"19.65729"},{"label":"Pilzno","lat":"49.97883","lng":"21.29228"},{"label":"Pińczów","lat":"50.52052","lng":"20.52649"},{"label":"Pionki","lat":"51.47604","lng":"21.44995"},{"label":"Piotrków Kujawski","lat":"52.55111","lng":"18.49905"},{"label":"Piotrków Trybunalski","lat":"51.40547","lng":"19.70321"},{"label":"Pisarzowice","lat":"51.14479","lng":"15.23057"},{"label":"Pisarzowice","lat":"49.88363","lng":"19.14565"},{"label":"Piskorowice","lat":"50.23579","lng":"22.52867"},{"label":"Pisz","lat":"53.62744","lng":"21.81253"},{"label":"Piszczac","lat":"51.98118","lng":"23.37719"},{"label":"Piwniczna-Zdrój","lat":"49.44056","lng":"20.71423"},{"label":"Pławno","lat":"50.97772","lng":"19.45524"},{"label":"Płaza","lat":"50.09988","lng":"19.46451"},{"label":"Pleśna","lat":"49.92642","lng":"20.94526"},{"label":"Pleszew","lat":"51.89636","lng":"17.78549"},{"label":"Plewiska","lat":"52.36706","lng":"16.80985"},{"label":"Płock","lat":"52.54682","lng":"19.70638"},{"label":"Płoniawy-Bramura","lat":"52.9778","lng":"21.07178"},{"label":"Płońsk","lat":"52.62348","lng":"20.37552"},{"label":"Płoty","lat":"53.80182","lng":"15.2667"},{"label":"Płużnica","lat":"53.29672","lng":"18.77692"},{"label":"Pniewy","lat":"51.91468","lng":"20.74578"},{"label":"Pniewy","lat":"52.50943","lng":"16.25668"},{"label":"Pobiedziska","lat":"52.47753","lng":"17.28767"},{"label":"Pobierowo","lat":"54.061","lng":"14.93282"},{"label":"Poddębice","lat":"51.89344","lng":"18.9573"},{"label":"Podebłocie","lat":"51.64023","lng":"21.7442"},{"label":"Podedwórze","lat":"51.68815","lng":"23.19961"},{"label":"Podegrodzie","lat":"49.57688","lng":"20.58855"},{"label":"Podgórzyn","lat":"50.83261","lng":"15.68161"},{"label":"Podkowa Leśna","lat":"52.12237","lng":"20.72665"},{"label":"Podłęże","lat":"50.01458","lng":"20.16781"},{"label":"Podwilk","lat":"49.5476","lng":"19.73874"},{"label":"Pogórska Wola","lat":"50.01855","lng":"21.15795"},{"label":"Pogórze","lat":"54.5644","lng":"18.48209"},{"label":"Pogórze","lat":"49.79961","lng":"18.84327"},{"label":"Pogorzela","lat":"51.8222","lng":"17.23017"},{"label":"Pogorzyce","lat":"50.10186","lng":"19.42228"},{"label":"Pogrzebień","lat":"50.06722","lng":"18.29876"},{"label":"Pogwizdów","lat":"49.80382","lng":"18.60106"},{"label":"Pokój","lat":"50.90265","lng":"17.83751"},{"label":"Pokrówka","lat":"51.09479","lng":"23.46345"},{"label":"Pokrzywnica","lat":"52.62072","lng":"21.01925"},{"label":"Połajewo","lat":"52.79923","lng":"16.73347"},{"label":"Polańczyk","lat":"49.36969","lng":"22.42112"},{"label":"Polanica-Zdrój","lat":"50.40373","lng":"16.51271"},{"label":"Połaniec","lat":"50.43324","lng":"21.2812"},{"label":"Polanka Wielka","lat":"49.98501","lng":"19.32615"},{"label":"Polanów","lat":"54.1193","lng":"16.68512"},{"label":"Połczyn-Zdrój","lat":"53.76424","lng":"16.09574"},{"label":"Police","lat":"53.55214","lng":"14.57182"},{"label":"Policzna","lat":"51.45545","lng":"21.62684"},{"label":"Polkowice","lat":"51.50391","lng":"16.07261"},{"label":"Połomia","lat":"49.90475","lng":"21.89198"},{"label":"Połomia","lat":"49.99185","lng":"18.55102"},{"label":"Polska Cerekiew","lat":"50.22827","lng":"18.12675"},{"label":"Pomiechówek","lat":"52.47138","lng":"20.72923"},{"label":"Poniatowa","lat":"51.17983","lng":"22.13093"},{"label":"Poniec","lat":"51.76343","lng":"16.80867"},