[{"label":"Geylang","lat":"1.31953","lng":"103.88689"},{"label":"Jurong Town","lat":"1.33417","lng":"103.72278"},{"label":"Kampong Pasir Ris","lat":"1.37833","lng":"103.93194"},{"label":"Marine Parade","lat":"1.30306","lng":"103.90778"},{"label":"Punggol","lat":"1.41444","lng":"103.90694"},{"label":"Queenstown Estate","lat":"1.29417","lng":"103.8025"},{"label":"Woodlands","lat":"1.43801","lng":"103.78877"}]