[{"label":"Admiralty","lat":"1.44069","lng":"103.80093"},{"label":"Alexandra Estate","lat":"1.29389","lng":"103.81972"},{"label":"Ang Mo Kio New Town","lat":"1.38028","lng":"103.83972"},{"label":"Bedok New Town","lat":"1.32639","lng":"103.94167"},{"label":"Bishan New Town","lat":"1.3504","lng":"103.84875"},{"label":"Boon Lay","lat":"1.311","lng":"103.694"},{"label":"Braddell Heights Estate","lat":"1.34528","lng":"103.86528"},{"label":"Brickworks Estate","lat":"1.28722","lng":"103.80833"},{"label":"Bukit Batok New Town","lat":"1.35903","lng":"103.76368"},{"label":"Bukit Ho Swee Estate","lat":"1.28778","lng":"103.83"},{"label":"Bukit Mandai Village","lat":"1.41222","lng":"103.75667"},{"label":"Bukit Merah Estate","lat":"1.28417","lng":"103.82306"},{"label":"Bukit Panjang New Town","lat":"1.37972","lng":"103.76472"},{"label":"Bukit Timah Estate","lat":"1.34028","lng":"103.77583"},{"label":"Bulim","lat":"1.37444","lng":"103.71778"},{"label":"Changi Village","lat":"1.39037","lng":"103.98674"},{"label":"Choa Chu Kang New Town","lat":"1.3825","lng":"103.74972"},{"label":"Clementi Housing Estate","lat":"1.31583","lng":"103.76472"},{"label":"Eunos","lat":"1.32252","lng":"103.89822"},{"label":"Faber Hills","lat":"1.32083","lng":"103.75972"},{"label":"Geylang","lat":"1.31953","lng":"103.88689"},{"label":"Ghim Moh","lat":"1.31111","lng":"103.78778"},{"label":"HarbourFront","lat":"1.2652","lng":"103.8201"},{"label":"Henderson Estate","lat":"1.28917","lng":"103.82333"},{"label":"Hillcrest Park","lat":"1.33472","lng":"103.80917"},{"label":"Holland Village","lat":"1.31194","lng":"103.79333"},{"label":"Hong Kah","lat":"1.35944","lng":"103.72278"},{"label":"Hougang New Town","lat":"1.35667","lng":"103.89083"},{"label":"Jurong East","lat":"1.32888","lng":"103.73995"},{"label":"Jurong Town","lat":"1.33417","lng":"103.72278"},{"label":"Jurong West","lat":"1.35028","lng":"103.72278"},{"label":"Kaki Bukit Estate","lat":"1.3375","lng":"103.90917"},{"label":"Kalang","lat":"1.33333","lng":"103.86667"},{"label":"Kampong Java Teban","lat":"1.33333","lng":"103.73333"},{"label":"Kampong Loyang","lat":"1.37778","lng":"103.95944"},{"label":"Kampong Pasir Ris","lat":"1.37833","lng":"103.93194"},{"label":"Kampong Potong Pasir","lat":"1.33333","lng":"103.86667"},{"label":"Kampong Ubi","lat":"1.31667","lng":"103.9"},{"label":"Kampong Ulu Pandan","lat":"1.34611","lng":"103.745"},{"label":"Kangkar","lat":"1.37611","lng":"103.90167"},{"label":"Keat Hong Village","lat":"1.37778","lng":"103.74417"},{"label":"Kembangan","lat":"1.32228","lng":"103.91135"},{"label":"Lam San Village","lat":"1.37694","lng":"103.73139"},{"label":"Lavender","lat":"1.30717","lng":"103.86301"},{"label":"Leedon Park","lat":"1.31694","lng":"103.79417"},{"label":"Loyang","lat":"1.37861","lng":"103.97167"},{"label":"Lucky Hills","lat":"1.32556","lng":"103.95278"},{"label":"MacPherson","lat":"1.32713","lng":"103.88413"},{"label":"Marina Bay","lat":"1.28105","lng":"103.85972"},{"label":"Marine Parade","lat":"1.30306","lng":"103.90778"},{"label":"Marsiling","lat":"1.44111","lng":"103.77083"},{"label":"Matilda Estate","lat":"1.39944","lng":"103.90278"},{"label":"Mount Emily Park","lat":"1.30472","lng":"103.84722"},{"label":"Mount Vernon","lat":"1.33583","lng":"103.8975"},{"label":"Newton","lat":"1.30902","lng":"103.83757"},{"label":"Novena","lat":"1.31697","lng":"103.8438"},{"label":"Outram Park","lat":"1.2825","lng":"103.83806"},{"label":"Pandan Valley","lat":"1.31833","lng":"103.77583"},{"label":"Pasir Panjang","lat":"1.29278","lng":"103.77083"},{"label":"Pasir Ris New Town","lat":"1.37222","lng":"103.94778"},{"label":"Paya Lebar","lat":"1.35389","lng":"103.89056"},{"label":"Punggol","lat":"1.41444","lng":"103.90694"},{"label":"Queenstown Estate","lat":"1.29417","lng":"103.8025"},{"label":"River Valley","lat":"1.29606","lng":"103.83608"},{"label":"Sembawang Estate","lat":"1.45083","lng":"103.82861"},{"label":"Sembawang Hills Estate","lat":"1.37278","lng":"103.83028"},{"label":"Sengkang New Town","lat":"1.39167","lng":"103.89444"},{"label":"Sennett Estate","lat":"1.33194","lng":"103.87167"},{"label":"Sentosa","lat":"1.24969","lng":"103.83119"},{"label":"Serangoon","lat":"1.36278","lng":"103.8975"},{"label":"Serangoon Garden Estate","lat":"1.36389","lng":"103.8575"},{"label":"Serangoon New Town","lat":"1.35083","lng":"103.87083"},{"label":"Simei New Town","lat":"1.34111","lng":"103.95611"},{"label":"Singapore","lat":"1.28967","lng":"103.85007"},{"label":"Somapah Changi","lat":"1.34167","lng":"103.96361"},{"label":"Sungai Simpang","lat":"1.43806","lng":"103.82667"},{"label":"Tai Seng","lat":"1.33611","lng":"103.90361"},{"label":"Tampines Estate","lat":"1.35806","lng":"103.94028"},{"label":"Tampines New Town","lat":"1.34917","lng":"103.94972"},{"label":"Tanglin","lat":"1.31667","lng":"103.81667"},{"label":"Tanglin Halt","lat":"1.30139","lng":"103.7975"},{"label":"Telok Blangah New Town","lat":"1.27472","lng":"103.81167"},{"label":"Thomson","lat":"1.34917","lng":"103.84361"},{"label":"Tiong Bahru Estate","lat":"1.28333","lng":"103.83278"},{"label":"Toa Payoh New Town","lat":"1.33611","lng":"103.85"},{"label":"Ulu Bedok","lat":"1.33333","lng":"103.93333"},{"label":"West Coast Village","lat":"1.31667","lng":"103.75"},{"label":"Woodlands","lat":"1.43801","lng":"103.78877"},{"label":"Yew Tee","lat":"1.39444","lng":"103.75389"},{"label":"Yishun New Town","lat":"1.43333","lng":"103.83111"}]