[{"label":"Akat Amnuai","lat":"17.59639","lng":"103.9816"},{"label":"Amnat Charoen","lat":"15.85851","lng":"104.62883"},{"label":"Amphawa","lat":"13.42436","lng":"99.95688"},{"label":"Amphoe Sikhiu","lat":"14.89944","lng":"101.70833"},{"label":"Ang Thong","lat":"14.58839","lng":"100.45283"},{"label":"Ao Luek","lat":"8.37803","lng":"98.72117"},{"label":"Aranyaprathet","lat":"13.69276","lng":"102.50128"},{"label":"At Samat","lat":"15.84308","lng":"103.87839"},{"label":"Bacho","lat":"6.51678","lng":"101.651"},{"label":"Bamnet Narong","lat":"15.50189","lng":"101.68982"},{"label":"Ban Ang Sila","lat":"13.33956","lng":"100.92964"},{"label":"Ban Ao Nang","lat":"8.0458","lng":"98.81035"},{"label":"Ban Bang Kadi Pathum Thani","lat":"13.99904","lng":"100.54962"},{"label":"Ban Bueng","lat":"13.311","lng":"101.11214"},{"label":"Ban Chalong","lat":"7.84468","lng":"98.33897"},{"label":"Ban Chang","lat":"12.72543","lng":"101.05531"},{"label":"Ban Dan","lat":"15.10839","lng":"103.17551"},{"label":"Ban Dan Lan Hoi","lat":"17.00683","lng":"99.57497"},{"label":"Ban Dung","lat":"17.699","lng":"103.25957"},{"label":"Ban Fang","lat":"16.45331","lng":"102.63892"},{"label":"Ban Haet","lat":"16.19648","lng":"102.75959"},{"label":"Ban Hong","lat":"18.33086","lng":"98.81925"},{"label":"Ban Huai I Huak","lat":"18.07861","lng":"98.035"},{"label":"Ban Huai Thalaeng","lat":"14.98333","lng":"102.65"},{"label":"Ban Karon","lat":"7.84769","lng":"98.2985"},{"label":"Ban Kata","lat":"7.82125","lng":"98.30703"},{"label":"Ban Kha","lat":"13.43047","lng":"99.40967"},{"label":"Ban Khai","lat":"12.78261","lng":"101.29639"},{"label":"Ban Khao Lak","lat":"8.61501","lng":"98.23994"},{"label":"Ban Khao Nang Sang Hua","lat":"14.54283","lng":"99.76761"},{"label":"Ban Khlong Bang Sao Thong","lat":"13.64172","lng":"100.83272"},{"label":"Ban Khok","lat":"18.02614","lng":"101.06772"},{"label":"Ban Khwao","lat":"15.77772","lng":"101.9072"},{"label":"Ban Ko Kaeo","lat":"7.93599","lng":"98.39664"},{"label":"Ban Ko Lan","lat":"12.92419","lng":"100.78794"},{"label":"Ban Kruat","lat":"14.42313","lng":"103.09974"},{"label":"Ban Laem","lat":"13.20468","lng":"99.97959"},{"label":"Ban Lam Luk Ka","lat":"13.97738","lng":"100.77776"},{"label":"Ban Lat","lat":"13.0515","lng":"99.91701"},{"label":"Ban Luang","lat":"18.84969","lng":"100.43725"},{"label":"Ban Lueam","lat":"15.60916","lng":"102.12928"},{"label":"Ban Mai","lat":"7.20411","lng":"100.54508"},{"label":"Ban Mai Chaiyaphot","lat":"15.57361","lng":"102.83331"},{"label":"Ban Mai Khao","lat":"8.12713","lng":"98.30738"},{"label":"Ban Mi","lat":"15.04428","lng":"100.53681"},{"label":"Ban Mo","lat":"14.61544","lng":"100.72731"},{"label":"Ban Muang","lat":"17.8508","lng":"103.56939"},{"label":"Ban Na","lat":"17.01717","lng":"99.73283"},{"label":"Ban Na","lat":"14.26238","lng":"101.07111"},{"label":"Ban Na Doem","lat":"8.88361","lng":"99.31014"},{"label":"Ban Na Muang","lat":"17.23824","lng":"103.00892"},{"label":"Ban Na San","lat":"8.80036","lng":"99.36372"},{"label":"Ban Nam Yuen","lat":"9.87686","lng":"98.86592"},{"label":"Ban Nang Sata","lat":"6.26638","lng":"101.26461"},{"label":"Ban Nong Pradu","lat":"14.49058","lng":"99.70714"},{"label":"Ban Nong Wua So","lat":"17.2675","lng":"103.22472"},{"label":"Ban Pa Pae","lat":"18.28425","lng":"98.05683"},{"label":"Ban Phaeng","lat":"17.96507","lng":"104.21534"},{"label":"Ban Phaeo","lat":"13.59072","lng":"100.10748"},{"label":"Ban Phai","lat":"16.05997","lng":"102.73097"},{"label":"Ban Phan Don","lat":"17.14272","lng":"102.97261"},{"label":"Ban Phe","lat":"12.62824","lng":"101.43757"},{"label":"Ban Pho","lat":"13.59864","lng":"101.07956"},{"label":"Ban Phraek","lat":"14.64681","lng":"100.57617"},{"label":"Ban Phru Nai","lat":"7.95458","lng":"98.58989"},{"label":"Ban Phue","lat":"17.68877","lng":"102.47878"},{"label":"Ban Pong","lat":"13.81629","lng":"99.87739"},{"label":"Ban Rai","lat":"15.08417","lng":"99.52108"},{"label":"Ban Ratsada","lat":"7.90963","lng":"98.40248"},{"label":"Ban Sam Chuk","lat":"14.74219","lng":"100.09531"},{"label":"Ban Sang","lat":"13.99503","lng":"101.22095"},{"label":"Ban Selaphum","lat":"16.01667","lng":"103.95"},{"label":"Ban Su-ngai Pa Di","lat":"6.07239","lng":"101.87172"},{"label":"Ban Tak","lat":"17.04325","lng":"99.08128"},{"label":"Ban Takhun","lat":"8.90364","lng":"98.8845"},{"label":"Ban Talat Bueng","lat":"13.07147","lng":"101.00314"},{"label":"Ban Talat Nua","lat":"7.88489","lng":"98.38557"},{"label":"Ban Talat Yai","lat":"7.88481","lng":"98.40008"},{"label":"Ban Thaen","lat":"16.40506","lng":"102.34239"},{"label":"Ban Thai Tan","lat":"14.62161","lng":"100.48739"},{"label":"Ban Thi","lat":"18.63186","lng":"99.11661"},{"label":"Bang Ban","lat":"14.37395","lng":"100.48528"},{"label":"Bang Bo","lat":"13.57428","lng":"100.83533"},{"label":"Bang Bo District","lat":"13.58333","lng":"100.81667"},{"label":"Bang Bon","lat":"13.66185","lng":"100.39567"},{"label":"Bang Bua Thong","lat":"13.91783","lng":"100.42403"},{"label":"Bang Kaeo","lat":"7.42947","lng":"100.17803"},{"label":"Bang Kapi","lat":"13.7653","lng":"100.647"},{"label":"Bang Khae","lat":"13.69196","lng":"100.40691"},{"label":"Bang Khan","lat":"8.02689","lng":"99.47372"},{"label":"Bang Khen","lat":"13.87741","lng":"100.6255"},{"label":"Bang Khla","lat":"13.72144","lng":"101.20814"},{"label":"Bang Kho Laem","lat":"13.69347","lng":"100.5022"},{"label":"Bang Khon Thi","lat":"13.46906","lng":"99.94021"},{"label":"Bang Khun Thian","lat":"13.66302","lng":"100.43416"},{"label":"Bang Klam","lat":"7.08953","lng":"100.41075"},{"label":"Bang Krathum","lat":"16.57831","lng":"100.30034"},{"label":"Bang Kruai","lat":"13.805","lng":"100.47283"},{"label":"Bang Lamung","lat":"13.04704","lng":"100.92891"},{"label":"Bang Len","lat":"14.02188","lng":"100.17183"},{"label":"Bang Mun Nak","lat":"16.02781","lng":"100.37917"},{"label":"Bang Na","lat":"13.66744","lng":"100.64206"},{"label":"Bang Nam Priao","lat":"13.84739","lng":"101.05306"},{"label":"Bang Pa-in","lat":"14.22783","lng":"100.57589"},{"label":"Bang Pahan","lat":"14.46217","lng":"100.54478"},{"label":"Bang Pakong","lat":"13.54297","lng":"100.99333"},{"label":"Bang Phae","lat":"13.69157","lng":"99.92982"},{"label":"Bang Phlat","lat":"13.79425","lng":"100.50447"},{"label":"Bang Phli","lat":"13.60678","lng":"100.71201"},{"label":"Bang Pla Ma","lat":"14.39604","lng":"100.1587"},{"label":"Bang Racham","lat":"14.892","lng":"100.31728"},{"label":"Bang Rachan","lat":"14.79717","lng":"100.3065"},{"label":"Bang Rak","lat":"13.73058","lng":"100.52388"},{"label":"Bang Rakam","lat":"16.75847","lng":"100.11742"},{"label":"Bang Sai","lat":"14.33433","lng":"100.30378"},{"label":"Bang Sao Thong","lat":"13.595","lng":"100.83042"},{"label":"Bang Saphan","lat":"11.21259","lng":"99.51167"},{"label":"Bang Saphan Noi","lat":"11.07535","lng":"99.44152"},{"label":"Bang Sue","lat":"13.81003","lng":"100.53714"},{"label":"Bang Yai","lat":"13.84341","lng":"100.36251"},{"label":"Bangkok","lat":"13.75398","lng":"100.50144"},{"label":"Bangkok Noi","lat":"13.76266","lng":"100.47798"},{"label":"Bangkok Yai","lat":"13.72319","lng":"100.476"},{"label":"Banphot Phisai","lat":"15.93558","lng":"99.98129"},{"label":"Benchalak","lat":"14.79583","lng":"104.67017"},{"label":"Betong","lat":"5.77434","lng":"101.07231"},{"label":"Bo Kluea","lat":"19.15029","lng":"101.1556"},{"label":"Bo Phloi","lat":"14.32517","lng":"99.51467"},{"label":"Bo Rai","lat":"12.57283","lng":"102.53714"},{"label":"Bo Thong","lat":"13.27825","lng":"101.44028"},{"label":"Borabue","lat":"16.04179","lng":"103.11506"},{"label":"Bua Chet","lat":"14.52814","lng":"103.94567"},{"label":"Bua Lai","lat":"15.66548","lng":"102.49881"},{"label":"Bua Yai","lat":"15.58552","lng":"102.42587"},{"label":"Bueng Bun","lat":"15.3303","lng":"104.04485"},{"label":"Bueng Kan","lat":"18.36303","lng":"103.65194"},{"label":"Bueng Khong Long","lat":"17.96129","lng":"104.04667"},{"label":"Bueng Kum","lat":"13.78528","lng":"100.66958"},{"label":"Bueng Na Rang","lat":"16.1712","lng":"100.12531"},{"label":"Bueng Sam Phan","lat":"15.83024","lng":"100.91938"},{"label":"Bueng Samakkhi","lat":"16.18728","lng":"99.97525"},{"label":"Bung Khla","lat":"18.30232","lng":"103.97418"},{"label":"Buntharik","lat":"14.75639","lng":"105.41147"},{"label":"Buri Ram","lat":"14.99433","lng":"103.10392"},{"label":"Cha-am","lat":"12.8","lng":"99.96667"},{"label":"Cha-uat","lat":"7.96773","lng":"99.99985"},{"label":"Chachoengsao","lat":"13.6882","lng":"101.07156"},{"label":"Chae Hom","lat":"18.71267","lng":"99.55758"},{"label":"Chaem Luang","lat":"19.03193","lng":"98.28767"},{"label":"Chai Badan","lat":"15.2","lng":"101.13333"},{"label":"Chai Buri","lat":"8.46222","lng":"99.07631"},{"label":"Chai Nat","lat":"15.18636","lng":"100.12353"},{"label":"Chai Prakan","lat":"19.73136","lng":"99.13997"},{"label":"Chai Wari","lat":"16.32827","lng":"103.77033"},{"label":"Chaiwan","lat":"17.29447","lng":"103.23385"},{"label":"Chaiya","lat":"9.38625","lng":"99.19861"},{"label":"Chaiyaphum","lat":"15.81047","lng":"102.02881"},{"label":"Chaiyo","lat":"14.64878","lng":"100.47878"},{"label":"Chaiyo","lat":"14.67639","lng":"100.46861"},{"label":"Chakkarat","lat":"15.01353","lng":"102.41289"},{"label":"Chaloem Phra Kiat","lat":"15.00508","lng":"102.27033"},{"label":"Chaloem Phra Kiat","lat":"19.57881","lng":"101.08011"},{"label":"Chaloem Phra Kiat","lat":"8.17689","lng":"100.03581"},{"label":"Chaloem Phra Kiat","lat":"14.6115","lng":"100.90825"},{"label":"Chaloem Phra Kiat","lat":"14.55839","lng":"102.92475"},{"label":"Chamni","lat":"14.78629","lng":"102.82277"},{"label":"Chana","lat":"6.91542","lng":"100.74039"},{"label":"Chanae","lat":"6.09914","lng":"101.69353"},{"label":"Chang Klang","lat":"8.37094","lng":"99.56249"},{"label":"Changhan","lat":"16.13873","lng":"103.60388"},{"label":"Chanthaburi","lat":"12.60961","lng":"102.10447"},{"label":"Chanuman","lat":"16.23356","lng":"105.0005"},{"label":"Charoen Sin","lat":"17.57925","lng":"103.54033"},{"label":"Chat Trakan","lat":"17.27606","lng":"100.60022"},{"label":"Chatturat","lat":"15.56542","lng":"101.84547"},{"label":"Chatuchak","lat":"13.82893","lng":"100.55985"},{"label":"Chaturaphak Phiman","lat":"15.84572","lng":"103.55719"},{"label":"Chawang","lat":"8.42614","lng":"99.50472"},{"label":"Chian Yai","lat":"8.16936","lng":"100.14469"},{"label":"Chiang Dao","lat":"19.36542","lng":"98.96453"},{"label":"Chiang Kham","lat":"19.52331","lng":"100.3"},{"label":"Chiang Khan","lat":"17.89382","lng":"101.65997"},{"label":"Chiang Khong","lat":"20.26125","lng":"100.40461"},{"label":"Chiang Khwan","lat":"16.16328","lng":"103.75359"},{"label":"Chiang Klang","lat":"19.29378","lng":"100.86169"},{"label":"Chiang Mai","lat":"18.79038","lng":"98.98468"},{"label":"Chiang Muan","lat":"18.88969","lng":"100.30589"},{"label":"Chiang Rai","lat":"19.90858","lng":"99.8325"},{"label":"Chiang Saen","lat":"20.27511","lng":"100.08689"},{"label":"Chiang Yuen","lat":"16.41042","lng":"103.09767"},{"label":"Cho-airong","lat":"6.22553","lng":"101.81128"},{"label":"Chok Chai","lat":"14.72844","lng":"102.16524"},{"label":"Chom Bueng","lat":"13.62","lng":"99.59169"},{"label":"Chom Phra","lat":"15.11814","lng":"103.60743"},{"label":"Chom Thong","lat":"18.41742","lng":"98.67428"},{"label":"Chom Thong","lat":"13.67717","lng":"100.48407"},{"label":"Chon Buri","lat":"13.3622","lng":"100.98345"},{"label":"Chon Daen","lat":"16.18953","lng":"100.85958"},{"label":"Chonnabot","lat":"16.08861","lng":"102.62178"},{"label":"Chuen Chom","lat":"16.55488","lng":"103.17661"},{"label":"Chulabhorn","lat":"8.07597","lng":"99.86947"},{"label":"Chum Phae","lat":"16.5443","lng":"102.09924"},{"label":"Chum Phuang","lat":"15.34861","lng":"102.74161"},{"label":"Chum Ta Bong","lat":"15.63194","lng":"99.55231"},{"label":"Chumphon","lat":"10.4957","lng":"99.17971"},{"label":"Chumphon Buri","lat":"15.34862","lng":"103.39217"},{"label":"Chumsaeng","lat":"15.89152","lng":"100.30795"},{"label":"Chun","lat":"19.33695","lng":"100.13478"},{"label":"Damnoen Saduak","lat":"13.51825","lng":"99.95469"},{"label":"Dan Chang","lat":"14.84183","lng":"99.69756"},{"label":"Dan Khun Thot","lat":"15.2085","lng":"101.77138"},{"label":"Dan Makham Tia","lat":"13.85339","lng":"99.41042"},{"label":"Dan Sai","lat":"17.28011","lng":"101.14686"},{"label":"Den Chai","lat":"17.98372","lng":"100.05217"},{"label":"Det Udom","lat":"14.90598","lng":"105.07836"},{"label":"Din Daeng","lat":"13.7904","lng":"100.57014"},{"label":"Doem Bang Nang Buat","lat":"14.85428","lng":"100.09772"},{"label":"Doembang Nangbuat","lat":"14.83333","lng":"100.1"},{"label":"Doi Lo","lat":"18.46098","lng":"98.77767"},{"label":"Doi Luang","lat":"20.11783","lng":"100.09919"},{"label":"Doi Tao","lat":"17.95286","lng":"98.68458"},{"label":"Dok Kham Tai","lat":"19.16242","lng":"99.99342"},{"label":"Don Chan","lat":"16.45711","lng":"103.69558"},{"label":"Don Chedi","lat":"14.63497","lng":"100.02097"},{"label":"Don Mot Daeng","lat":"15.37903","lng":"105.02786"},{"label":"Don Mueang","lat":"13.91392","lng":"100.58994"},{"label":"Don Mueang City","lat":"13.91361","lng":"100.58972"},{"label":"Don Phut","lat":"14.59175","lng":"100.62828"},{"label":"Don Tan","lat":"16.31697","lng":"104.92"},{"label":"Don Tum","lat":"13.9609","lng":"100.07888"},{"label":"Dong Charoen","lat":"16.02058","lng":"100.66286"},{"label":"Dong Luang","lat":"16.81589","lng":"104.538"},{"label":"Dusit","lat":"13.7775","lng":"100.51977"},{"label":"Erawan","lat":"17.30181","lng":"101.95382"},{"label":"Fak Tha","lat":"17.99948","lng":"100.88014"},{"label":"Fang","lat":"19.91689","lng":"99.2145"},{"label":"Fao Rai","lat":"18.01791","lng":"103.30388"},{"label":"Hang Chat","lat":"18.32883","lng":"99.34621"},{"label":"Hang Dong","lat":"18.68703","lng":"98.91939"},{"label":"Hankha","lat":"14.98122","lng":"100.0147"},{"label":"Hat Samran","lat":"7.24034","lng":"99.57621"},{"label":"Hat Yai","lat":"7.00836","lng":"100.47668"},{"label":"Hot","lat":"18.19317","lng":"98.61039"},{"label":"Hua Hin","lat":"12.57065","lng":"99.95876"},{"label":"Hua Sai","lat":"8.04408","lng":"100.30586"},{"label":"Hua Taphan","lat":"15.6971","lng":"104.4916"},{"label":"Huai Khot","lat":"15.29095","lng":"99.61661"},{"label":"Huai Khwang","lat":"13.77678","lng":"100.579"},{"label":"Huai Krachao","lat":"14.3275","lng":"99.66767"},{"label":"Huai Mek","lat":"16.58975","lng":"103.23547"},{"label":"Huai Phueng","lat":"16.65038","lng":"103.91005"},{"label":"Huai Rat","lat":"14.96039","lng":"103.18911"},{"label":"Huai Thalaeng","lat":"14.99701","lng":"102.64746"},{"label":"Huai Thap Than","lat":"15.05333","lng":"104.02754"},{"label":"Huai Yot","lat":"7.78937","lng":"99.63469"},{"label":"In Buri","lat":"15.00787","lng":"100.32691"},{"label":"Ka Bang","lat":"6.41536","lng":"101.05456"},{"label":"Kabin Buri","lat":"13.95114","lng":"101.71769"},{"label":"Kae Dam","lat":"16.02397","lng":"103.38444"},{"label":"Kaeng Hang Maeo","lat":"13.00825","lng":"101.90608"},{"label":"Kaeng Khoi","lat":"14.58617","lng":"100.99758"},{"label":"Kaeng Khro","lat":"16.10864","lng":"102.25808"},{"label":"Kaeng Krachan","lat":"12.90742","lng":"99.64795"},{"label":"Kaeng Sanam Nang","lat":"15.74954","lng":"102.25484"},{"label":"Kalasin","lat":"16.43281","lng":"103.50658"},{"label":"Kamalasai","lat":"16.33839","lng":"103.57564"},{"label":"Kamphaeng Phet","lat":"16.48344","lng":"99.52153"},{"label":"Kamphaeng Saen","lat":"13.99966","lng":"99.98981"},{"label":"Kanchanaburi","lat":"14.00412","lng":"99.54832"},{"label":"Kanchanadit","lat":"9.16611","lng":"99.47014"},{"label":"Kantang","lat":"7.40542","lng":"99.51561"},{"label":"Kantharalak","lat":"14.64056","lng":"104.64992"},{"label":"Kanthararom","lat":"15.10323","lng":"104.57343"},{"label":"Kantharawichai","lat":"16.32719","lng":"103.29864"},{"label":"Kao Liao","lat":"15.85053","lng":"100.07914"},{"label":"Kap Choeng","lat":"14.47486","lng":"103.59439"},{"label":"Kapho","lat":"6.55968","lng":"101.53426"},{"label":"Kapoe","lat":"9.58522","lng":"98.59611"},{"label":"Kapong","lat":"8.69697","lng":"98.40914"},{"label":"Kaset Sombun","lat":"16.28053","lng":"101.95422"},{"label":"Kaset Wisai","lat":"15.65558","lng":"103.58361"},{"label":"Kathu","lat":"7.91779","lng":"98.33322"},{"label":"Khaen Dong","lat":"15.32476","lng":"103.13343"},{"label":"Kham Khuean Kaeo","lat":"15.65233","lng":"104.30861"},{"label":"Kham Muang","lat":"16.92902","lng":"103.63518"},{"label":"Kham Sakae Saeng","lat":"15.33221","lng":"102.17278"},{"label":"Kham Ta Kla","lat":"17.85231","lng":"103.75657"},{"label":"Kham Thale So","lat":"14.96083","lng":"101.94789"},{"label":"Khamcha-i","lat":"16.57764","lng":"104.41956"},{"label":"Khan Na Yao","lat":"13.82609","lng":"100.67933"},{"label":"Khanu Woralaksaburi","lat":"16.0617","lng":"99.86058"},{"label":"Khao Chaison","lat":"7.46125","lng":"100.13372"},{"label":"Khao Chakan","lat":"13.6535","lng":"102.08825"},{"label":"Khao Chamao","lat":"12.97586","lng":"101.68511"},{"label":"Khao Khitchakut","lat":"12.80481","lng":"102.11514"},{"label":"Khao Kho","lat":"16.65791","lng":"101.02208"},{"label":"Khao Phanom","lat":"8.26549","lng":"99.05124"},{"label":"Khao Saming","lat":"12.35353","lng":"102.4355"},{"label":"Khao Wong","lat":"16.70008","lng":"104.09019"},{"label":"Khao Yoi","lat":"13.24025","lng":"99.82428"},{"label":"Khemarat","lat":"16.04252","lng":"105.21836"},{"label":"Khian Sa","lat":"8.84295","lng":"99.19856"},{"label":"Khiri Mat","lat":"16.83333","lng":"99.8"},{"label":"Khlong Hat","lat":"13.45177","lng":"102.29823"},{"label":"Khlong Hoi Khong","lat":"6.89865","lng":"100.38885"},{"label":"Khlong Khlung","lat":"16.21633","lng":"99.71906"},{"label":"Khlong Khuean","lat":"13.79131","lng":"101.16353"},{"label":"Khlong Lan","lat":"16.20331","lng":"99.31997"},{"label":"Khlong Luang","lat":"14.06467","lng":"100.64578"},{"label":"Khlong San","lat":"13.73086","lng":"100.50903"},{"label":"Khlong Thom","lat":"7.9375","lng":"99.14457"},{"label":"Khlong Toei","lat":"13.71669","lng":"100.57159"},{"label":"Khlong Yai","lat":"11.77645","lng":"102.88567"},{"label":"Khlung","lat":"12.45467","lng":"102.22142"},{"label":"Kho Wang","lat":"15.36998","lng":"104.35231"},{"label":"Khok Charoen","lat":"15.37927","lng":"100.8187"},{"label":"Khok Pho","lat":"6.73064","lng":"101.09619"},{"label":"Khok Pho Chai","lat":"16.08375","lng":"102.399"},{"label":"Khok Samrong","lat":"15.06649","lng":"100.72233"},{"label":"Khok Si Suphan","lat":"17.04507","lng":"104.2756"},{"label":"Khok Sung","lat":"13.83824","lng":"102.62254"},{"label":"Khon Buri","lat":"14.52541","lng":"102.24591"},{"label":"Khon Kaen","lat":"16.44671","lng":"102.833"},{"label":"Khon San","lat":"16.61286","lng":"101.91944"},{"label":"Khon Sawan","lat":"15.93192","lng":"102.28103"},{"label":"Khong","lat":"15.44393","lng":"102.32862"},{"label":"Khong Chai","lat":"16.26025","lng":"103.45828"},{"label":"Khong Chiam","lat":"15.31856","lng":"105.49506"},{"label":"Khu Khan","lat":"14.71358","lng":"104.19836"},{"label":"Khu Mueang","lat":"15.2716","lng":"103.00167"},{"label":"Khuan Don","lat":"6.78758","lng":"100.07778"},{"label":"Khuan Kalong","lat":"6.84538","lng":"100.07148"},{"label":"Khuan Khanun","lat":"7.7347","lng":"100.00931"},{"label":"Khuan Niang","lat":"7.19138","lng":"100.35355"},{"label":"Khuean Ubonrat","lat":"16.75269","lng":"102.63245"},{"label":"Khueang Nai","lat":"15.38989","lng":"104.55083"},{"label":"Khun Han","lat":"14.61739","lng":"104.42506"},{"label":"Khun Tan","lat":"19.83353","lng":"100.25858"},{"label":"Khun Yuam","lat":"18.82958","lng":"97.93347"},{"label":"Khura Buri","lat":"9.19397","lng":"98.41514"},{"label":"Khwao Sinarin","lat":"15.00244","lng":"103.59154"},{"label":"Klaeng","lat":"12.77972","lng":"101.64831"},{"label":"Ko Chan","lat":"13.41658","lng":"101.33458"},{"label":"Ko Chang Tai","lat":"12.00171","lng":"102.37267"},{"label":"Ko Kha","lat":"18.19225","lng":"99.39433"},{"label":"Ko Kut","lat":"11.65856","lng":"102.54197"},{"label":"Ko Lanta","lat":"7.53362","lng":"99.08647"},{"label":"Ko Pha Ngan","lat":"9.71945","lng":"99.99511"},{"label":"Ko Pha Ngan","lat":"9.75778","lng":"100.02914"},{"label":"Ko Samui","lat":"9.53567","lng":"99.93567"},{"label":"Ko Si Chang","lat":"13.16389","lng":"100.80547"},{"label":"Ko Yao","lat":"8.11013","lng":"98.59231"},{"label":"Koh Tao","lat":"10.09808","lng":"99.83809"},{"label":"Kong Krailat","lat":"16.95197","lng":"99.97769"},{"label":"Kong Ra","lat":"7.40272","lng":"99.94972"},{"label":"Kosamphi Nakhon","lat":"16.63131","lng":"99.34975"},{"label":"Kosum Phisai","lat":"16.24858","lng":"103.06739"},{"label":"Kra Buri","lat":"10.40429","lng":"98.77266"},{"label":"Krabi","lat":"8.07257","lng":"98.91052"},{"label":"Kranuan","lat":"16.70672","lng":"103.07878"},{"label":"Krasae Sin","lat":"7.61548","lng":"100.32842"},{"label":"Krasang","lat":"14.92375","lng":"103.30369"},{"label":"Krathum Baen","lat":"13.6533","lng":"100.25972"},{"label":"Krok Phra","lat":"15.55589","lng":"100.07153"},{"label":"Krong Pi Nang","lat":"6.4112","lng":"101.27394"},{"label":"Ku Kaeo","lat":"17.17214","lng":"103.15303"},{"label":"Kuchinarai","lat":"16.541","lng":"104.05004"},{"label":"Kui Buri","lat":"12.08283","lng":"99.85431"},{"label":"Kumphawapi","lat":"17.10875","lng":"103.01487"},{"label":"Kusuman","lat":"17.33259","lng":"104.33147"},{"label":"Kut Bak","lat":"17.08882","lng":"103.81875"},{"label":"Kut Chap","lat":"17.4257","lng":"102.56692"},{"label":"Kut Chum","lat":"16.03289","lng":"104.33936"},{"label":"Kut Khaopun","lat":"15.79267","lng":"104.99814"},{"label":"Kut Rang","lat":"16.09398","lng":"103.00998"},{"label":"La-ngu","lat":"6.88492","lng":"99.78836"},{"label":"La-Un","lat":"10.11646","lng":"98.75"},{"label":"Laem Ngop","lat":"12.17169","lng":"102.39489"},{"label":"Laem Sing","lat":"12.48164","lng":"102.07375"},{"label":"Lahan Sai","lat":"14.41142","lng":"102.85936"},{"label":"Lam Luk Ka","lat":"13.93226","lng":"100.74937"},{"label":"Lam Plai Mat","lat":"15.0252","lng":"102.83894"},{"label":"Lam Sonthi","lat":"15.30154","lng":"101.36365"},{"label":"Lam Thamen Chai","lat":"15.3535","lng":"102.91803"},{"label":"Lam Thap","lat":"8.07228","lng":"99.29225"},{"label":"Lamae","lat":"9.76789","lng":"99.09256"},{"label":"Lamduan","lat":"14.72205","lng":"103.66934"},{"label":"Lampang","lat":"18.29232","lng":"99.49277"},{"label":"Lamphun","lat":"18.58054","lng":"99.00745"},{"label":"Lan Krabue","lat":"16.60003","lng":"99.84889"},{"label":"Lan Sak","lat":"15.45289","lng":"99.57606"},{"label":"Lan Saka","lat":"8.37097","lng":"99.80564"},{"label":"Lang Suan","lat":"9.94561","lng":"99.07847"},{"label":"Lao Khwan","lat":"14.59522","lng":"99.77431"},{"label":"Lao Suea Kok","lat":"15.4183","lng":"104.92363"},{"label":"Lap Lae","lat":"17.65211","lng":"100.03892"},{"label":"Laplae","lat":"17.65211","lng":"100.03892"},{"label":"Lat Bua Luang","lat":"14.16572","lng":"100.30789"},{"label":"Lat Krabang","lat":"13.72341","lng":"100.78436"},{"label":"Lat Lum Kaeo","lat":"14.03728","lng":"100.40486"},{"label":"Lat Phrao","lat":"13.80349","lng":"100.60749"},{"label":"Lat Yao","lat":"15.751","lng":"99.78925"},{"label":"Li","lat":"17.80269","lng":"98.95097"},{"label":"Loei","lat":"17.49052","lng":"101.72749"},{"label":"Loeng Nok Tha","lat":"16.2075","lng":"104.55528"},{"label":"Lom Kao","lat":"16.88614","lng":"101.22894"},{"label":"Lom Sak","lat":"16.77983","lng":"101.24225"},{"label":"Long","lat":"18.07422","lng":"99.83073"},{"label":"Lop Buri","lat":"14.79808","lng":"100.65397"},{"label":"Lue Amnat","lat":"15.69476","lng":"104.64846"},{"label":"Mae Ai","lat":"20.02883","lng":"99.29833"},{"label":"Mae Chaem","lat":"18.49926","lng":"98.36494"},{"label":"Mae Chai","lat":"19.34597","lng":"99.814"},{"label":"Mae Chan","lat":"20.14675","lng":"99.85256"},{"label":"Mae Charim","lat":"18.70614","lng":"101.0057"},{"label":"Mae Fa Luang","lat":"20.26628","lng":"99.79846"},{"label":"Mae Hi","lat":"19.34286","lng":"98.45023"},{"label":"Mae Hong Son","lat":"19.30029","lng":"97.96852"},{"label":"Mae La Noi","lat":"18.38181","lng":"97.94372"},{"label":"Mae Lan","lat":"6.66114","lng":"101.23958"},{"label":"Mae Lao","lat":"19.79003","lng":"99.69967"},{"label":"Mae Mo","lat":"18.27561","lng":"99.65045"},{"label":"Mae On","lat":"18.77681","lng":"99.24861"},{"label":"Mae Phrik","lat":"17.44688","lng":"99.1142"},{"label":"Mae Poen","lat":"15.65789","lng":"99.46981"},{"label":"Mae Ramat","lat":"16.98403","lng":"98.51665"},{"label":"Mae Sai","lat":"20.43353","lng":"99.87617"},{"label":"Mae Sot","lat":"16.71667","lng":"98.56667"},{"label":"Mae Suai","lat":"19.65633","lng":"99.54367"},{"label":"Mae Taeng","lat":"19.11712","lng":"98.94176"},{"label":"Mae Tha","lat":"18.46456","lng":"99.14026"},{"label":"Mae Tha","lat":"18.13411","lng":"99.51389"},{"label":"Mae Wang","lat":"18.61604","lng":"98.77292"},{"label":"Mae Wong","lat":"15.78164","lng":"99.51864"},{"label":"Maha Chana Chai","lat":"15.52935","lng":"104.23847"},{"label":"Maha Rat","lat":"14.53367","lng":"100.52672"},{"label":"Maha Sarakham","lat":"16.18483","lng":"103.30067"},{"label":"Mai Kaen","lat":"6.60975","lng":"101.66686"},{"label":"Makham","lat":"12.67292","lng":"102.19575"},{"label":"Makkasan","lat":"13.7523","lng":"100.54335"},{"label":"Manang","lat":"6.99933","lng":"99.92161"},{"label":"Mancha Khiri","lat":"16.13048","lng":"102.53712"},{"label":"Manorom","lat":"15.30997","lng":"100.08283"},{"label":"Mayo","lat":"6.71864","lng":"101.40983"},{"label":"Min Buri","lat":"13.81407","lng":"100.73135"},{"label":"Moeiwadi","lat":"16.38944","lng":"104.1572"},{"label":"Muak Lek","lat":"14.65287","lng":"101.20022"},{"label":"Muang Sam Sip","lat":"15.51307","lng":"104.72565"},{"label":"Mueang Chan","lat":"15.15951","lng":"104.03615"},{"label":"Mueang Nonthaburi","lat":"13.86075","lng":"100.51477"},{"label":"Mueang Pan","lat":"18.76803","lng":"99.5025"},{"label":"Mueang Phuket","lat":"7.86338","lng":"98.36437"},{"label":"Mueang Suang","lat":"15.82192","lng":"103.72884"},{"label":"Mueang Yang","lat":"15.4206","lng":"102.89282"},{"label":"Mukdahan","lat":"16.54531","lng":"104.72351"},{"label":"Na Bon","lat":"8.26167","lng":"99.59472"},{"label":"Na Chaluai","lat":"14.52046","lng":"105.24478"},{"label":"Na Chueak","lat":"15.79339","lng":"103.03184"},{"label":"Na Di","lat":"14.11517","lng":"101.78189"},{"label":"Na Dun","lat":"15.71668","lng":"103.22781"},{"label":"Na Haeo","lat":"17.48536","lng":"101.06808"},{"label":"Na Kae","lat":"16.94645","lng":"104.50081"},{"label":"Na Khu","lat":"16.76384","lng":"104.02626"},{"label":"Na Klang","lat":"17.3072","lng":"102.18886"},{"label":"Na Kluea","lat":"12.96199","lng":"100.89715"},{"label":"Na Mom","lat":"6.95856","lng":"100.55683"},{"label":"Na Mon","lat":"16.57653","lng":"103.78711"},{"label":"Na Muen","lat":"18.18931","lng":"100.66047"},{"label":"Na Noi","lat":"18.32639","lng":"100.71417"},{"label":"Na Pho","lat":"15.64113","lng":"102.95462"},{"label":"Na Tan","lat":"15.89749","lng":"105.29318"},{"label":"Na Thawi","lat":"6.74192","lng":"100.69139"},{"label":"Na Thom","lat":"17.78491","lng":"104.09082"},{"label":"Na Wa","lat":"17.4897","lng":"104.10056"},{"label":"Na Wang","lat":"17.32444","lng":"102.07829"},{"label":"Na Yai Am","lat":"12.78153","lng":"101.82256"},{"label":"Na Yia","lat":"15.06367","lng":"105.05994"},{"label":"Na Yong","lat":"7.56167","lng":"99.69483"},{"label":"Na Yung","lat":"17.89747","lng":"102.14981"},{"label":"Nai Harn","lat":"7.77859","lng":"98.30661"},{"label":"Nakhon Chai Si","lat":"13.80126","lng":"100.18451"},{"label":"Nakhon Luang","lat":"14.46281","lng":"100.60832"},{"label":"Nakhon Nayok","lat":"14.20463","lng":"101.21295"},{"label":"Nakhon Pathom","lat":"13.8196","lng":"100.04427"},{"label":"Nakhon Phanom","lat":"17.41081","lng":"104.77856"},{"label":"Nakhon Ratchasima","lat":"14.97066","lng":"102.10196"},{"label":"Nakhon Sawan","lat":"15.70472","lng":"100.13717"},{"label":"Nakhon Si Thammarat","lat":"8.43333","lng":"99.96667"},{"label":"Nakhon Thai","lat":"17.10056","lng":"100.83739"},{"label":"Nam Khun","lat":"14.58386","lng":"104.92481"},{"label":"Nam Kliang","lat":"14.92731","lng":"104.51303"},{"label":"Nam Nao","lat":"16.76753","lng":"101.66917"},{"label":"Nam Pat","lat":"17.72806","lng":"100.68433"},{"label":"Nam Phong","lat":"16.70228","lng":"102.85569"},{"label":"Nam Som","lat":"17.77036","lng":"102.18947"},{"label":"Nan","lat":"18.78378","lng":"100.77899"},{"label":"Nang Rong","lat":"14.6377","lng":"102.79138"},{"label":"Narathiwat","lat":"6.42639","lng":"101.82308"},{"label":"Nathom","lat":"17.78536","lng":"104.09072"},{"label":"Ngao","lat":"18.75678","lng":"99.97814"},{"label":"Nikhom Kham Soi","lat":"16.37167","lng":"104.55147"},{"label":"Nikhom Nam Un","lat":"17.18314","lng":"103.71842"},{"label":"Nikhom Phattana","lat":"12.82736","lng":"101.20273"},{"label":"Noen Kham","lat":"14.9501","lng":"99.93899"},{"label":"Noen Maprang","lat":"16.56667","lng":"100.63333"},{"label":"Noen Sa-nga","lat":"15.56428","lng":"102.00128"},{"label":"Non Daeng","lat":"15.41061","lng":"102.54025"},{"label":"Non Din Daeng","lat":"14.31353","lng":"102.74814"},{"label":"Non Kho","lat":"14.91666","lng":"104.72522"},{"label":"Non Narai","lat":"15.23764","lng":"103.91333"},{"label":"Non Sa-at","lat":"16.97914","lng":"102.89369"},{"label":"Non Sang","lat":"16.8687","lng":"102.56642"},{"label":"Non Sila","lat":"15.97439","lng":"102.66983"},{"label":"Non Sung","lat":"15.18014","lng":"102.25695"},{"label":"Non Suwan","lat":"14.58044","lng":"102.59689"},{"label":"Non Thai","lat":"15.1958","lng":"102.07145"},{"label":"Nong Bua","lat":"15.86458","lng":"100.58581"},{"label":"Nong Bua Daeng","lat":"16.07978","lng":"101.80225"},{"label":"Nong Bua Lamphu","lat":"17.20406","lng":"102.44068"},{"label":"Nong Bua Rawe","lat":"15.75314","lng":"101.76396"},{"label":"Nong Bun Nak","lat":"14.73947","lng":"102.36564"},{"label":"Nong Chang","lat":"15.39147","lng":"99.84147"},{"label":"Nong Chik","lat":"6.84356","lng":"101.17803"},{"label":"Nong Chok","lat":"13.85585","lng":"100.86216"},{"label":"Nong Don","lat":"14.68488","lng":"100.7094"},{"label":"Nong Han","lat":"17.36083","lng":"103.10533"},{"label":"Nong Hi","lat":"15.61117","lng":"103.99484"},{"label":"Nong Hin","lat":"17.12356","lng":"101.85789"},{"label":"Nong Hong","lat":"14.84782","lng":"102.68401"},{"label":"Nong Kha Yang","lat":"15.364","lng":"99.92939"},{"label":"Nong Khae","lat":"14.34062","lng":"100.86733"},{"label":"Nong Khaem","lat":"13.70528","lng":"100.34923"},{"label":"Nong Khai","lat":"17.87847","lng":"102.742"},{"label":"Nong Ki","lat":"14.68679","lng":"102.538"},{"label":"Nong Kung Si","lat":"16.65","lng":"103.3"},{"label":"Nong Mamong","lat":"15.27613","lng":"99.8664"},{"label":"Nong Muang","lat":"15.24592","lng":"100.65556"},{"label":"Nong Muang Khai","lat":"18.26464","lng":"100.18967"},{"label":"Nong Na Kham","lat":"16.8043","lng":"102.33647"},{"label":"Nong Phai","lat":"15.99025","lng":"101.06183"},{"label":"Nong Phok","lat":"16.31006","lng":"104.20247"},{"label":"Nong Prue","lat":"14.60784","lng":"99.45783"},{"label":"Nong Ruea","lat":"16.49333","lng":"102.43339"},{"label":"Nong Saeng","lat":"17.16739","lng":"102.78081"},{"label":"Nong Saeng","lat":"14.49208","lng":"100.78431"},{"label":"Nong Suea","lat":"14.13478","lng":"100.82503"},{"label":"Nong Sung","lat":"16.48299","lng":"104.34712"},{"label":"Nong Wua So","lat":"17.16261","lng":"102.57272"},{"label":"Nong Ya Plong","lat":"13.16288","lng":"99.69723"},{"label":"Nong Yai","lat":"13.15515","lng":"101.37226"},{"label":"Nong Yasai","lat":"14.77988","lng":"99.91073"},{"label":"Nopphitam","lat":"8.72206","lng":"99.74878"},{"label":"Nuea Khlong","lat":"8.07143","lng":"98.99933"},{"label":"Om Koi","lat":"17.80122","lng":"98.35933"},{"label":"Ongkharak","lat":"14.12117","lng":"101.00364"},{"label":"Pa Bon","lat":"7.26942","lng":"100.17036"},{"label":"Pa Daet","lat":"19.50489","lng":"99.99241"},{"label":"Pa Kham","lat":"14.43817","lng":"102.72558"},{"label":"Pa Mok","lat":"14.48989","lng":"100.44847"},{"label":"Pa Phayom","lat":"7.84031","lng":"99.91773"},{"label":"Pa Sang","lat":"18.52617","lng":"98.93936"},{"label":"Pa Tio","lat":"15.83281","lng":"104.38673"},{"label":"Pai","lat":"19.36168","lng":"98.43973"},{"label":"Pak Chom","lat":"18.02061","lng":"101.89828"},{"label":"Pak Chong","lat":"14.70802","lng":"101.41614"},{"label":"Pak Khat","lat":"18.30556","lng":"103.30441"},{"label":"Pak Kret","lat":"13.91301","lng":"100.49883"},{"label":"Pak Phanang","lat":"8.35109","lng":"100.20195"},{"label":"Pak Phayun","lat":"7.34219","lng":"100.31747"},{"label":"Pak Phli","lat":"14.16308","lng":"101.26886"},{"label":"Pak Tho","lat":"13.37263","lng":"99.83938"},{"label":"Pak Thong Chai","lat":"14.7226","lng":"102.02512"},{"label":"Pakham","lat":"14.43817","lng":"102.72558"},{"label":"Pakkhat","lat":"18.29789","lng":"103.30689"},{"label":"Palian","lat":"7.17237","lng":"99.68624"},{"label":"Panare","lat":"6.86192","lng":"101.49103"},{"label":"Pang Sila Thong","lat":"16.09631","lng":"99.48906"},{"label":"Pathio","lat":"10.70908","lng":"99.3182"},{"label":"Pathum Rat","lat":"15.6345","lng":"103.34325"},{"label":"Pathum Ratchawongsa","lat":"15.89224","lng":"104.90563"},{"label":"Pathum Thani","lat":"14.01346","lng":"100.53049"},{"label":"Pathum Wan","lat":"13.73649","lng":"100.5239"},{"label":"Patong","lat":"7.89607","lng":"98.29661"},{"label":"Pattani","lat":"6.86814","lng":"101.25009"},{"label":"Pattaya","lat":"12.93333","lng":"100.88333"},{"label":"Pha Khao","lat":"17.06507","lng":"102.02965"},{"label":"Phachi","lat":"14.44914","lng":"100.72833"},{"label":"Phai Sali","lat":"15.60003","lng":"100.64937"},{"label":"Phak Hai","lat":"14.45736","lng":"100.36989"},{"label":"Phakdi Chumphon","lat":"15.90517","lng":"101.42228"},{"label":"Phan","lat":"19.55395","lng":"99.74045"},{"label":"Phan Thong","lat":"13.46804","lng":"101.09532"},{"label":"Phana","lat":"15.68231","lng":"104.84603"},{"label":"Phanat Nikhom","lat":"13.44581","lng":"101.18445"},{"label":"Phang Khon","lat":"17.39051","lng":"103.71692"},{"label":"Phang Nga","lat":"8.45091","lng":"98.52985"},{"label":"Phanna Nikhom","lat":"17.35245","lng":"103.85032"},{"label":"Phanom","lat":"8.85475","lng":"98.81267"},{"label":"Phanom Dong Rak","lat":"14.44575","lng":"103.30508"},{"label":"Phanom Phrai","lat":"15.67783","lng":"104.11025"},{"label":"Phanom Sarakham","lat":"13.74872","lng":"101.34888"},{"label":"Phanom Thuan","lat":"14.13031","lng":"99.69858"},{"label":"Phasi Charoen","lat":"13.71466","lng":"100.43691"},{"label":"Phato","lat":"9.79089","lng":"98.77658"},{"label":"Phatthalung","lat":"7.61786","lng":"100.07792"},{"label":"Phatthana Nikhom","lat":"14.85647","lng":"100.98459"},{"label":"Phaya Mengrai","lat":"19.84922","lng":"100.15358"},{"label":"Phaya Thai","lat":"13.78005","lng":"100.54275"},{"label":"Phayakkhaphum Phisai","lat":"15.51631","lng":"103.19367"},{"label":"Phayao","lat":"19.19203","lng":"99.87883"},{"label":"Phayu","lat":"14.90851","lng":"104.39101"},{"label":"Phayuha Khiri","lat":"15.45525","lng":"100.13533"},{"label":"Phen","lat":"17.69614","lng":"102.90689"},{"label":"Phetchabun","lat":"16.41904","lng":"101.16056"},{"label":"Phetchaburi","lat":"13.11189","lng":"99.94467"},{"label":"Phibun Mangsahan","lat":"15.24467","lng":"105.22908"},{"label":"Phibun Rak","lat":"17.55312","lng":"103.05794"},{"label":"Phichai","lat":"17.28764","lng":"100.0867"},{"label":"Phichit","lat":"16.44184","lng":"100.34879"},{"label":"Phimai","lat":"15.22324","lng":"102.49473"},{"label":"Phipun","lat":"8.56036","lng":"99.60703"},{"label":"Phitsanulok","lat":"16.82481","lng":"100.25858"},{"label":"Phlapphla Chai","lat":"14.73011","lng":"103.16728"},{"label":"Pho Sai","lat":"15.82586","lng":"105.26064"},{"label":"Pho Si Suwan","lat":"15.22929","lng":"104.0767"},{"label":"Pho Tak","lat":"17.87486","lng":"102.40406"},{"label":"Pho Thale","lat":"16.09269","lng":"100.26089"},{"label":"Pho Thong","lat":"14.66731","lng":"100.40878"},{"label":"Phon","lat":"15.816","lng":"102.59981"},{"label":"Phon Charoen","lat":"18.03333","lng":"103.16667"},{"label":"Phon Charoen","lat":"18.03143","lng":"103.70996"},{"label":"Phon Na Kaeo","lat":"17.22122","lng":"104.28995"},{"label":"Phon Phisai","lat":"18.02106","lng":"103.07664"},{"label":"Phon Sai","lat":"15.48797","lng":"103.99642"},{"label":"Phonphisai","lat":"18.02106","lng":"103.07664"},{"label":"Phop Phra","lat":"16.38461","lng":"98.69028"},{"label":"Photharam","lat":"13.69234","lng":"99.84969"},{"label":"Phra Khanong","lat":"13.70185","lng":"100.60157"},{"label":"Phra Nakhon","lat":"13.76512","lng":"100.49864"},{"label":"Phra Nakhon Si Ayutthaya","lat":"14.35167","lng":"100.57739"},{"label":"Phra Phrom","lat":"8.33911","lng":"99.90092"},{"label":"Phra Phutthabat","lat":"14.72526","lng":"100.79536"},{"label":"Phra Pradaeng","lat":"13.65855","lng":"100.53362"},{"label":"Phra Samut Chedi","lat":"13.60222","lng":"100.5721"},{"label":"Phra Thong Kham","lat":"15.306","lng":"101.983"},{"label":"Phra Yuen","lat":"16.3293","lng":"102.65182"},{"label":"Phrae","lat":"18.14589","lng":"100.14103"},{"label":"Phrai Bueng","lat":"14.74833","lng":"104.36261"},{"label":"Phran Kratai","lat":"16.66511","lng":"99.58894"},{"label":"Phrao","lat":"19.36586","lng":"99.20187"},{"label":"Phrasaeng","lat":"8.56781","lng":"99.24756"},{"label":"Phrom Buri","lat":"14.79086","lng":"100.45325"},{"label":"Phrom Khiri","lat":"8.52333","lng":"99.82275"},{"label":"Phrom Phiram","lat":"17.03352","lng":"100.2019"},{"label":"Phu Kam Yao","lat":"19.2705","lng":"99.97011"},{"label":"Phu Khiao","lat":"16.3765","lng":"102.12853"},{"label":"Phu Kradueng","lat":"16.88425","lng":"101.88467"},{"label":"Phu Luang","lat":"17.1392","lng":"101.66392"},{"label":"Phu Pha Man","lat":"16.64888","lng":"101.90097"},{"label":"Phu Phan","lat":"16.99891","lng":"103.97347"},{"label":"Phu Phiang","lat":"18.74264","lng":"100.79951"},{"label":"Phu Ruea","lat":"17.4538","lng":"101.36231"},{"label":"Phu Sang","lat":"19.59903","lng":"100.32444"},{"label":"Phu Sing","lat":"14.54744","lng":"104.13167"},{"label":"Phu Wiang","lat":"16.65259","lng":"102.37555"},{"label":"Phuket","lat":"7.89059","lng":"98.3981"},{"label":"Phutthaisong","lat":"15.54783","lng":"103.02467"},{"label":"Pla Pak","lat":"17.18064","lng":"104.52606"},{"label":"Plaeng Yao","lat":"13.58467","lng":"101.28403"},{"label":"Plai Phraya","lat":"8.53278","lng":"98.8637"},{"label":"Pluak Daeng","lat":"12.97122","lng":"101.21463"},{"label":"Pom Prap Sattru Phai","lat":"13.75822","lng":"100.51325"},{"label":"Pong","lat":"19.14931","lng":"100.27522"},{"label":"Pong Nam Ron","lat":"12.90575","lng":"102.26225"},{"label":"Prachamtakham","lat":"14.06442","lng":"101.51503"},{"label":"Prachantakham","lat":"14.06442","lng":"101.51503"},{"label":"Prachin Buri","lat":"14.04992","lng":"101.36864"},{"label":"Prachuap Khiri Khan","lat":"11.82098","lng":"99.7841"},{"label":"Prakhon Chai","lat":"14.61073","lng":"103.07923"},{"label":"Prakhon Chai","lat":"14.60592","lng":"103.12081"},{"label":"Pran Buri","lat":"12.38487","lng":"99.90157"},{"label":"Prang Ku","lat":"14.85672","lng":"104.03981"},{"label":"Prasat","lat":"14.64039","lng":"103.40447"},{"label":"Prathai","lat":"15.53319","lng":"102.72283"},{"label":"Pua","lat":"19.17503","lng":"100.91622"},{"label":"Pueai Noi","lat":"15.86978","lng":"102.90767"},{"label":"Ra-ngae","lat":"6.29678","lng":"101.72844"},{"label":"Raman","lat":"6.47862","lng":"101.42414"},{"label":"Ranong","lat":"9.96583","lng":"98.63476"},{"label":"Ranot","lat":"7.77768","lng":"100.32134"},{"label":"Rasi Salai","lat":"15.34466","lng":"104.15476"},{"label":"Rat Burana","lat":"13.68219","lng":"100.50603"},{"label":"Ratchaburi","lat":"13.53671","lng":"99.81712"},{"label":"Ratchasan","lat":"13.78211","lng":"101.28133"},{"label":"Ratchathewi","lat":"13.759","lng":"100.53358"},{"label":"Ratsada","lat":"7.97467","lng":"99.63353"},{"label":"Rattanaburi","lat":"15.31788","lng":"103.84859"},{"label":"Rattanawapi","lat":"18.21365","lng":"103.17967"},{"label":"Rattaphum","lat":"7.13478","lng":"100.25647"},{"label":"Rawai","lat":"7.77965","lng":"98.32532"},{"label":"Rayong","lat":"12.68095","lng":"101.25798"},{"label":"Renu Nakhon","lat":"17.05157","lng":"104.67709"},{"label":"Roi Et","lat":"16.0567","lng":"103.65309"},{"label":"Ron Phibun","lat":"8.17911","lng":"99.85425"},{"label":"Rong Kham","lat":"16.26943","lng":"103.74689"},{"label":"Rong Kwang","lat":"18.33903","lng":"100.31736"},{"label":"Rueso","lat":"6.39364","lng":"101.51847"},{"label":"Sa Bot","lat":"15.21006","lng":"100.83076"},{"label":"Sa Kaeo","lat":"13.81411","lng":"102.07222"},{"label":"Sa Khrai","lat":"17.67544","lng":"102.75069"},{"label":"Saba Yoi","lat":"6.6175","lng":"100.95189"},{"label":"Sadao","lat":"6.63883","lng":"100.42342"},{"label":"Sahatsakhan","lat":"16.71236","lng":"103.5202"},{"label":"Sai Buri","lat":"6.70131","lng":"101.61675"},{"label":"Sai Mai","lat":"13.92068","lng":"100.64552"},{"label":"Sai Mun","lat":"15.94495","lng":"104.20812"},{"label":"Sai Ngam","lat":"16.46862","lng":"99.88843"},{"label":"Sai Noi","lat":"13.97915","lng":"100.31209"},{"label":"Sai Yok","lat":"14.11899","lng":"99.142"},{"label":"Sak Lek","lat":"16.50528","lng":"100.47103"},{"label":"Sakon Nakhon","lat":"17.16116","lng":"104.14725"},{"label":"Saladan","lat":"7.61342","lng":"99.03651"},{"label":"Salaya","lat":"13.802","lng":"100.32111"},{"label":"Sam Chai","lat":"16.86322","lng":"103.54106"},{"label":"Sam Chuk","lat":"14.75763","lng":"100.08992"},{"label":"Sam Khok","lat":"14.0655","lng":"100.52264"},{"label":"Sam Ko","lat":"14.60735","lng":"100.2186"},{"label":"Sam Ngam","lat":"16.50653","lng":"100.20497"},{"label":"Sam Ngao","lat":"17.24331","lng":"99.02256"},{"label":"Sam Phran","lat":"13.72698","lng":"100.21526"},{"label":"Sam Roi Yot","lat":"12.27081","lng":"99.87203"},{"label":"Sam Sung","lat":"16.5432","lng":"103.07992"},{"label":"Samoeng","lat":"18.84806","lng":"98.73242"},{"label":"Samphanthawong","lat":"13.73147","lng":"100.51414"},{"label":"Samran","lat":"16.86322","lng":"103.54106"},{"label":"Samrong","lat":"15.00781","lng":"104.78419"},{"label":"Samrong Thap","lat":"15.02258","lng":"103.93631"},{"label":"Samut Prakan","lat":"13.5976","lng":"100.5972"},{"label":"Samut Sakhon","lat":"13.54753","lng":"100.27362"},{"label":"Samut Songkhram","lat":"13.41456","lng":"100.00264"},{"label":"San Kamphaeng","lat":"18.74486","lng":"99.11953"},{"label":"San Pa Tong","lat":"18.62828","lng":"98.89572"},{"label":"San Sai","lat":"18.84792","lng":"99.04508"},{"label":"Sanam Chai Khet","lat":"13.65864","lng":"101.43906"},{"label":"Sang Khom","lat":"17.82649","lng":"103.09262"},{"label":"Sangkha","lat":"14.6362","lng":"103.85278"},{"label":"Sangkhla Buri","lat":"15.15553","lng":"98.45361"},{"label":"Sangkhom","lat":"18.06389","lng":"102.27364"},{"label":"Sankhaburi","lat":"15.04733","lng":"100.16178"},{"label":"Sanom","lat":"15.2036","lng":"103.76054"},{"label":"Santi Suk","lat":"18.9137","lng":"100.94169"},{"label":"Sao Hai","lat":"14.55083","lng":"100.84436"},{"label":"Sap Yai","lat":"15.63739","lng":"101.61671"},{"label":"Saphan Sung","lat":"13.77019","lng":"100.68531"},{"label":"Sapphaya","lat":"15.14616","lng":"100.24215"},{"label":"Saraburi","lat":"14.53333","lng":"100.91667"},{"label":"Saraphi","lat":"18.71417","lng":"99.03528"},{"label":"Sathing Phra","lat":"7.47303","lng":"100.43908"},{"label":"Sathon","lat":"13.7085","lng":"100.52619"},{"label":"Sattahip","lat":"12.66644","lng":"100.90073"},{"label":"Satuek","lat":"15.29703","lng":"103.29192"},{"label":"Satun","lat":"6.62314","lng":"100.06676"},{"label":"Sawaeng Ha","lat":"14.74642","lng":"100.32942"},{"label":"Sawaengha","lat":"14.75186","lng":"100.32481"},{"label":"Sawang Arom","lat":"15.58394","lng":"99.86089"},{"label":"Sawang Daen Din","lat":"17.47531","lng":"103.45753"},{"label":"Sawang Wirawong","lat":"15.24158","lng":"105.0922"},{"label":"Sawankhalok","lat":"17.31597","lng":"99.83186"},{"label":"Sawi","lat":"10.23668","lng":"99.10938"},{"label":"Seka","lat":"17.92851","lng":"103.95519"},{"label":"Selaphum","lat":"16.02992","lng":"103.93826"},{"label":"Sena","lat":"14.327","lng":"100.40433"},{"label":"Senangkhanikhom","lat":"16.03972","lng":"104.66939"},{"label":"Si Banphot","lat":"7.72136","lng":"99.8843"},{"label":"Si Bun Rueang","lat":"16.96705","lng":"102.27607"},{"label":"Si Chiang Mai","lat":"17.95639","lng":"102.58667"},{"label":"Si Chomphu","lat":"16.79878","lng":"102.18466"},{"label":"Si Khoraphum","lat":"14.94418","lng":"103.79704"},{"label":"Si Maha Phot","lat":"13.96597","lng":"101.51303"},{"label":"Si Mahosot","lat":"13.8878","lng":"101.40501"},{"label":"Si Mueang Mai","lat":"15.49315","lng":"105.27624"},{"label":"Si Nakhon","lat":"17.34907","lng":"99.98563"},{"label":"Si Narong","lat":"14.76736","lng":"103.87392"},{"label":"Si Prachan","lat":"14.61992","lng":"100.14483"},{"label":"Si Racha","lat":"13.17372","lng":"100.93111"},{"label":"Si Rattana","lat":"14.79328","lng":"104.46922"},{"label":"Si Sa Ket","lat":"15.11481","lng":"104.32938"},{"label":"Si Sakhon","lat":"6.23137","lng":"101.50048"},{"label":"Si Samrong","lat":"17.164","lng":"99.86222"},{"label":"Si Satchanalai","lat":"17.51692","lng":"99.75978"},{"label":"Si Sawat","lat":"14.59922","lng":"99.11406"},{"label":"Si Somdet","lat":"15.99797","lng":"103.48789"},{"label":"Si Songkhram","lat":"17.62745","lng":"104.25069"},{"label":"Si That","lat":"16.97361","lng":"103.21644"},{"label":"Si Thep","lat":"15.45214","lng":"101.06667"},{"label":"Si Wilai","lat":"18.18188","lng":"103.74793"},{"label":"Siao","lat":"14.79583","lng":"104.67017"},{"label":"Sida","lat":"15.54994","lng":"102.56675"},{"label":"Sikao","lat":"7.57158","lng":"99.34494"},{"label":"Sikhio","lat":"14.89225","lng":"101.72314"},{"label":"Sila Lat","lat":"15.47156","lng":"104.07153"},{"label":"Sing Buri","lat":"14.88786","lng":"100.40464"},{"label":"Singhanakhon","lat":"7.23903","lng":"100.55272"},{"label":"Sirindhorn","lat":"15.20084","lng":"105.39222"},{"label":"So Phisai","lat":"18.0772","lng":"103.4432"},{"label":"Soem Ngam","lat":"18.06506","lng":"99.24537"},{"label":"Soeng Sang","lat":"14.42642","lng":"102.46058"},{"label":"Soi Dao","lat":"13.12894","lng":"102.21402"},{"label":"Somdet","lat":"16.70462","lng":"103.74935"},{"label":"Song","lat":"18.47204","lng":"100.18346"},{"label":"Song Dao","lat":"17.33628","lng":"103.47547"},{"label":"Song Khwae","lat":"19.35964","lng":"100.70042"},{"label":"Song Phi Nong","lat":"14.22408","lng":"100.02094"},{"label":"Songkhla","lat":"7.19882","lng":"100.5951"},{"label":"Sop Moei","lat":"17.96209","lng":"97.93288"},{"label":"Sop Pong","lat":"19.51881","lng":"98.26042"},{"label":"Sop Prap","lat":"17.88053","lng":"99.337"},{"label":"Srinagarindra","lat":"7.56991","lng":"99.94353"},{"label":"Su-ngai Kolok","lat":"6.02977","lng":"101.96586"},{"label":"Su-ngai Padi","lat":"6.0857","lng":"101.87959"},{"label":"Suan Luang","lat":"13.73028","lng":"100.65138"},{"label":"Suan Phueng","lat":"13.5429","lng":"99.33961"},{"label":"Suk Samran","lat":"9.34458","lng":"98.42903"},{"label":"Sukhirin","lat":"5.93889","lng":"101.77077"},{"label":"Sukhothai","lat":"17.00778","lng":"99.823"},{"label":"Sung Men","lat":"18.0494","lng":"100.11457"},{"label":"Sung Noen","lat":"14.8992","lng":"101.82075"},{"label":"Suphan Buri","lat":"14.47418","lng":"100.12218"},{"label":"Surat Thani","lat":"9.14011","lng":"99.33311"},{"label":"Surin","lat":"14.88181","lng":"103.49364"},{"label":"Suwanna Khuha","lat":"17.56292","lng":"102.27989"},{"label":"Suwannakhuha","lat":"17.56292","lng":"102.27989"},{"label":"Suwannaphum","lat":"15.60348","lng":"103.80207"},{"label":"Ta Phraya","lat":"14.00308","lng":"102.80541"},{"label":"Tak","lat":"16.86968","lng":"99.12898"},{"label":"Tak Bai","lat":"6.25947","lng":"102.05461"},{"label":"Tak Fa","lat":"15.34917","lng":"100.49522"},{"label":"Takhli","lat":"15.26336","lng":"100.34378"},{"label":"Takua Pa","lat":"8.8705","lng":"98.34383"},{"label":"Takua Thung","lat":"8.38373","lng":"98.45123"},{"label":"Takuk Nuea","lat":"9.23894","lng":"98.97861"},{"label":"Taling Chan","lat":"13.77698","lng":"100.4567"},{"label":"Tamot","lat":"7.33922","lng":"100.11167"},{"label":"Tan Sum","lat":"15.31569","lng":"105.15464"},{"label":"Tao Ngoi","lat":"16.99689","lng":"104.16672"},{"label":"Taphan Hin","lat":"16.22095","lng":"100.41978"},{"label":"Tha Bo","lat":"17.85003","lng":"102.58139"},{"label":"Tha Chana","lat":"9.57203","lng":"99.16586"},{"label":"Tha Chang","lat":"9.26418","lng":"99.19218"},{"label":"Tha Chang","lat":"14.76142","lng":"100.38989"},{"label":"Tha Kham","lat":"9.11072","lng":"99.23208"},{"label":"Tha Khanon","lat":"9.0302","lng":"98.95286"},{"label":"Tha Khantho","lat":"16.93953","lng":"103.24586"},{"label":"Tha Li","lat":"17.62355","lng":"101.42099"},{"label":"Tha Luang","lat":"15.07124","lng":"101.09801"},{"label":"Tha Mai","lat":"12.62137","lng":"102.00481"},{"label":"Tha Maka","lat":"13.9","lng":"99.76667"},{"label":"Tha Maka","lat":"13.92081","lng":"99.76553"},{"label":"Tha Muang","lat":"13.96118","lng":"99.64122"},{"label":"Tha Phae","lat":"6.79014","lng":"99.97005"},{"label":"Tha Pla","lat":"17.79112","lng":"100.37611"},{"label":"Tha Ruea","lat":"14.56739","lng":"100.72598"},{"label":"Tha Sae","lat":"10.66461","lng":"99.17281"},{"label":"Tha Sala","lat":"8.66733","lng":"99.93078"},{"label":"Tha Song Yang","lat":"17.22708","lng":"98.22572"},{"label":"Tha Takiap","lat":"13.44547","lng":"101.61133"},{"label":"Tha Tako","lat":"15.64218","lng":"100.47839"},{"label":"Tha Tum","lat":"15.3195","lng":"103.67542"},{"label":"Tha Uthen","lat":"17.57605","lng":"104.59906"},{"label":"Tha Wang Pha","lat":"19.12189","lng":"100.81106"},{"label":"Tha Wung","lat":"14.811","lng":"100.50333"},{"label":"Tha Yang","lat":"12.95772","lng":"99.90555"},{"label":"Thai Charoen","lat":"16.06645","lng":"104.44018"},{"label":"Thai Mueang","lat":"8.39914","lng":"98.26061"},{"label":"Thalang","lat":"8.03169","lng":"98.33408"},{"label":"Tham Phannara","lat":"8.42045","lng":"99.39517"},{"label":"Than To","lat":"6.16739","lng":"101.18008"},{"label":"Thanyaburi","lat":"14.02114","lng":"100.73433"},{"label":"Thap Khlo","lat":"16.16003","lng":"100.59656"},{"label":"Thap Put","lat":"8.51625","lng":"98.63972"},{"label":"Thap Sakae","lat":"11.49964","lng":"99.6217"},{"label":"Thap Than","lat":"15.46063","lng":"99.89166"},{"label":"That Phanom","lat":"16.93636","lng":"104.71039"},{"label":"Thawat Buri","lat":"16.0385","lng":"103.74647"},{"label":"Thawi Watthana","lat":"13.78851","lng":"100.33334"},{"label":"Thep Sathit","lat":"15.39247","lng":"101.45061"},{"label":"Thepha","lat":"6.82936","lng":"100.96431"},{"label":"Thepharak","lat":"15.30868","lng":"101.55045"},{"label":"Thoen","lat":"17.61289","lng":"99.21612"},{"label":"Thoeng","lat":"19.68508","lng":"100.19456"},{"label":"Thon Buri","lat":"13.725","lng":"100.48511"},{"label":"Thong Pha Phum","lat":"14.74345","lng":"98.63101"},{"label":"Thong Saen Khan","lat":"17.47065","lng":"100.33146"},{"label":"Thung Chang","lat":"19.38786","lng":"100.87619"},{"label":"Thung Fon","lat":"17.47167","lng":"103.26033"},{"label":"Thung Hua Chang","lat":"18.00301","lng":"99.0278"},{"label":"Thung Khao Luang","lat":"15.99397","lng":"103.86264"},{"label":"Thung Khru","lat":"13.62875","lng":"100.50964"},{"label":"Thung Sai","lat":"16.31489","lng":"99.83267"},{"label":"Thung Saliam","lat":"17.32106","lng":"99.56092"},{"label":"Thung Si Udom","lat":"14.73303","lng":"104.90897"},{"label":"Thung Song","lat":"8.16453","lng":"99.68039"},{"label":"Thung Tako","lat":"10.11022","lng":"99.08306"},{"label":"Thung Wa","lat":"7.10957","lng":"99.75586"},{"label":"Thung Yai","lat":"8.30119","lng":"99.36611"},{"label":"Thung Yang Daeng","lat":"6.61822","lng":"101.4265"},{"label":"Trakan Phut Phon","lat":"15.61183","lng":"105.02147"},{"label":"Trang","lat":"7.55633","lng":"99.61141"},{"label":"Trat","lat":"12.24364","lng":"102.51514"},{"label":"Tron","lat":"17.48181","lng":"100.11281"},{"label":"U Thong","lat":"14.37514","lng":"99.89225"},{"label":"Ubon Ratchathani","lat":"15.23844","lng":"104.84866"},{"label":"Ubonratana","lat":"16.75269","lng":"102.63245"},{"label":"Udon Thani","lat":"17.41567","lng":"102.78589"},{"label":"Umphang","lat":"16.01622","lng":"98.8627"},{"label":"Uthai","lat":"14.36278","lng":"100.67203"},{"label":"Uthai Thani","lat":"15.37939","lng":"100.0245"},{"label":"Uthumphon Phisai","lat":"15.11161","lng":"104.14011"},{"label":"Uttaradit","lat":"17.62557","lng":"100.09421"},{"label":"Wachira Barami","lat":"16.52314","lng":"100.14464"},{"label":"Waeng","lat":"5.928","lng":"101.88382"},{"label":"Waeng","lat":"16.30006","lng":"103.97786"},{"label":"Waeng Noi","lat":"15.8035","lng":"102.41614"},{"label":"Waeng Yai","lat":"15.95547","lng":"102.5469"},{"label":"Wan Yai","lat":"16.72229","lng":"104.74135"},{"label":"Wang Chan","lat":"12.93646","lng":"101.52303"},{"label":"Wang Chao","lat":"16.67441","lng":"99.26903"},{"label":"Wang Chin","lat":"17.8802","lng":"99.6105"},{"label":"Wang Hin","lat":"14.94783","lng":"104.23097"},{"label":"Wang Muang","lat":"14.84228","lng":"101.1255"},{"label":"Wang Nam Khiao","lat":"14.41801","lng":"101.86113"},{"label":"Wang Nam Yen","lat":"13.50325","lng":"102.18115"},{"label":"Wang Noi","lat":"14.22689","lng":"100.7155"},{"label":"Wang Nuea","lat":"19.14678","lng":"99.61933"},{"label":"Wang Pong","lat":"16.34147","lng":"100.79317"},{"label":"Wang Sai Phun","lat":"16.3885","lng":"100.53801"},{"label":"Wang Sam Mo","lat":"16.95294","lng":"103.4365"},{"label":"Wang Saphung","lat":"17.30097","lng":"101.7685"},{"label":"Wang Sombun","lat":"13.36176","lng":"102.19105"},{"label":"Wang Thong","lat":"16.82458","lng":"100.42936"},{"label":"Wang Thonglang","lat":"13.78546","lng":"100.61165"},{"label":"Wang Wiset","lat":"7.73631","lng":"99.3987"},{"label":"Wang Yang","lat":"17.05751","lng":"104.45333"},{"label":"Wanon Niwat","lat":"17.63391","lng":"103.75241"},{"label":"Wapi Pathum","lat":"15.84523","lng":"103.37678"},{"label":"Warichaphum","lat":"17.29409","lng":"103.63816"},{"label":"Warin Chamrap","lat":"15.19319","lng":"104.8628"},{"label":"Wat Bot","lat":"16.98114","lng":"100.33195"},{"label":"Wat Phleng","lat":"13.45407","lng":"99.88637"},{"label":"Wat Sing","lat":"15.25987","lng":"100.0404"},{"label":"Watthana","lat":"13.72978","lng":"100.58536"},{"label":"Watthana Nakhon","lat":"13.74462","lng":"102.31863"},{"label":"Wiang Chai","lat":"19.88361","lng":"99.93314"},{"label":"Wiang Chiang Rung","lat":"20.01328","lng":"100.05639"},{"label":"Wiang Haeng","lat":"19.557","lng":"98.6425"},{"label":"Wiang Kaen","lat":"20.11297","lng":"100.51331"},{"label":"Wiang Kao","lat":"16.68247","lng":"102.28511"},{"label":"Wiang Nong Long","lat":"18.42043","lng":"98.74967"},{"label":"Wiang Nuea","lat":"19.37972","lng":"98.44644"},{"label":"Wiang Pa Pao","lat":"19.34778","lng":"99.50722"},{"label":"Wiang Sa","lat":"8.63585","lng":"99.3666"},{"label":"Wiang Sa","lat":"18.59856","lng":"100.74103"},{"label":"Wichian Buri","lat":"15.65778","lng":"101.10603"},{"label":"Wichit","lat":"7.8894","lng":"98.38523"},{"label":"Wihan Daeng","lat":"14.34586","lng":"100.98942"},{"label":"Wiset Chaichan","lat":"14.5945","lng":"100.33825"},{"label":"Yaha","lat":"6.4797","lng":"101.132"},{"label":"Yala","lat":"6.53995","lng":"101.28128"},{"label":"Yan Nawa","lat":"13.69634","lng":"100.54212"},{"label":"Yan Ta Khao","lat":"7.38622","lng":"99.66692"},{"label":"Yang Chum Noi","lat":"15.26453","lng":"104.39769"},{"label":"Yang Si Surat","lat":"15.68361","lng":"103.10311"},{"label":"Yang Talat","lat":"16.39982","lng":"103.36785"},{"label":"Yarang","lat":"6.75986","lng":"101.29339"},{"label":"Yaring","lat":"6.86617","lng":"101.36894"},{"label":"Yasothon","lat":"15.79408","lng":"104.1451"},{"label":"Yi-ngo","lat":"6.40297","lng":"101.70625"}]