[{"label":"Amir Timur","lat":"41.01944","lng":"68.94083"},{"label":"Andijon","lat":"40.78206","lng":"72.34424"},{"label":"Angren","lat":"41.01667","lng":"70.14361"},{"label":"Asaka","lat":"40.64153","lng":"72.23868"},{"label":"Bag‘dod","lat":"40.46306","lng":"71.21222"},{"label":"Baliqchi","lat":"40.90499","lng":"71.84737"},{"label":"Bekobod","lat":"40.22083","lng":"69.26972"},{"label":"Bektemir","lat":"41.20972","lng":"69.33417"},{"label":"Beruniy","lat":"41.69111","lng":"60.7525"},{"label":"Beruniy Shahri","lat":"41.69904","lng":"60.75501"},{"label":"Beshariq","lat":"40.43583","lng":"70.61028"},{"label":"Beshkent","lat":"38.82139","lng":"65.65306"},{"label":"Beshkent Shahri","lat":"38.81107","lng":"65.64246"},{"label":"Beshrabot","lat":"40.19761","lng":"65.33527"},{"label":"Bo‘ka","lat":"40.81108","lng":"69.19417"},{"label":"Bo‘ston Shahri","lat":"41.84607","lng":"60.94744"},{"label":"Bog'don","lat":"40.41517","lng":"67.17946"},{"label":"Bog’ot","lat":"41.35415","lng":"60.81787"},{"label":"Boysun","lat":"38.20835","lng":"67.20664"},{"label":"Bukhara","lat":"39.77472","lng":"64.42861"},{"label":"Buloqboshi","lat":"40.62907","lng":"72.50212"},{"label":"Bulung’ur Shahri","lat":"39.76003","lng":"67.27441"},{"label":"Charxin","lat":"39.69413","lng":"66.827"},{"label":"Chelak","lat":"39.92002","lng":"66.86228"},{"label":"Chimboy Shahri","lat":"42.92952","lng":"59.78199"},{"label":"Chinoz","lat":"40.93633","lng":"68.76128"},{"label":"Chirchiq","lat":"41.46889","lng":"69.58222"},{"label":"Chiroqchi","lat":"39.03361","lng":"66.57222"},{"label":"Chiroqchi Shahri","lat":"39.02727","lng":"66.58083"},{"label":"Chortoq","lat":"41.06924","lng":"71.82372"},{"label":"Chortoq Shahri","lat":"41.07703","lng":"71.81772"},{"label":"Chust","lat":"41.00329","lng":"71.23791"},{"label":"Dahbed","lat":"39.7644","lng":"66.91626"},{"label":"Dang‘ara","lat":"40.58389","lng":"70.91444"},{"label":"Dardoq","lat":"40.81583","lng":"72.83166"},{"label":"Dashtobod","lat":"40.12694","lng":"68.49444"},{"label":"Denov","lat":"38.26746","lng":"67.89886"},{"label":"Do’stlik Shahri","lat":"40.52881","lng":"68.03153"},{"label":"Druzhba","lat":"41.22222","lng":"61.30667"},{"label":"Eskiarab","lat":"40.36972","lng":"71.41861"},{"label":"Fergana","lat":"40.38421","lng":"71.78432"},{"label":"G’allaorol Shahri","lat":"40.02696","lng":"67.58781"},{"label":"G‘azalkent","lat":"41.55806","lng":"69.77083"},{"label":"G’ijduvon Shahri","lat":"40.10223","lng":"64.68226"},{"label":"G’oliblar Qishlog’i","lat":"40.49528","lng":"67.87594"},{"label":"G‘ozg‘on","lat":"40.59078","lng":"65.49466"},{"label":"G‘uzor","lat":"38.6213","lng":"66.25152"},{"label":"G‘uzor Shahri","lat":"38.62596","lng":"66.24515"},{"label":"Gagarin Shahri","lat":"40.66473","lng":"68.16768"},{"label":"Galaosiyo Shahri","lat":"39.85721","lng":"64.44641"},{"label":"Gazli","lat":"40.13111","lng":"63.45713"},{"label":"Guliston","lat":"40.48972","lng":"68.78417"},{"label":"Gurlan","lat":"41.84123","lng":"60.39268"},{"label":"Hamza","lat":"40.42762","lng":"71.50534"},{"label":"Haqqulobod","lat":"40.91667","lng":"72.11667"},{"label":"Hazorasp","lat":"41.31944","lng":"61.07417"},{"label":"Hazratishoh","lat":"41.39465","lng":"71.78903"},{"label":"Ibrat","lat":"40.55389","lng":"71.14667"},{"label":"Ishtixon Shahri","lat":"39.96639","lng":"66.48611"},{"label":"Iskandar","lat":"41.55389","lng":"69.70083"},{"label":"Izboskan","lat":"41.03766","lng":"72.33659"},{"label":"Jalolquduq","lat":"40.68918","lng":"72.60931"},{"label":"Jizzax","lat":"40.12341","lng":"67.82842"},{"label":"Jomboy Shahri","lat":"39.69889","lng":"67.09333"},{"label":"Jondor Shaharchasi","lat":"39.7417","lng":"64.17962"},{"label":"Juma Shahri","lat":"39.71611","lng":"66.66417"},{"label":"Karakul’","lat":"39.53333","lng":"63.83333"},{"label":"Karmana Shahri","lat":"40.13782","lng":"65.37545"},{"label":"Kattaqo’rg’on Shahri","lat":"39.90546","lng":"66.26556"},{"label":"Kegeyli Shahar","lat":"42.77667","lng":"59.60778"},{"label":"Kirguli","lat":"40.43553","lng":"71.76721"},{"label":"Kitob","lat":"39.12158","lng":"66.88605"},{"label":"Kitob Shahri","lat":"39.12251","lng":"66.8757"},{"label":"Kogon Shahri","lat":"39.72746","lng":"64.55466"},{"label":"Konimex","lat":"40.27593","lng":"65.14511"},{"label":"Koson","lat":"39.0375","lng":"65.585"},{"label":"Koson Shahri","lat":"39.04472","lng":"65.59082"},{"label":"Kosonsoy","lat":"41.24944","lng":"71.54738"},{"label":"Kosonsoy Shahri","lat":"41.26327","lng":"71.54239"},{"label":"Kuyganyor","lat":"40.85444","lng":"72.30734"},{"label":"Kyzyldzhar","lat":"41.56667","lng":"70.01667"},{"label":"Langar","lat":"40.5205","lng":"71.66015"},{"label":"Loyish Shaharchasi","lat":"39.87904","lng":"66.75055"},{"label":"Mang‘it Shahri","lat":"42.12215","lng":"60.06276"},{"label":"Manghit","lat":"42.11556","lng":"60.05972"},{"label":"Marg‘ilon","lat":"40.47237","lng":"71.72463"},{"label":"Marhamat","lat":"40.50236","lng":"72.32646"},{"label":"Marhamat","lat":"40.48048","lng":"72.31388"},{"label":"Mo‘ynoq Shahri","lat":"43.77877","lng":"59.03039"},{"label":"Muborak","lat":"39.25528","lng":"65.15278"},{"label":"Muborak Shahri","lat":"39.25778","lng":"65.15674"},{"label":"Mug‘lon Shahar","lat":"38.91878","lng":"65.41217"},{"label":"Mŭynoq","lat":"43.76833","lng":"59.02139"},{"label":"Namangan","lat":"40.9983","lng":"71.67257"},{"label":"Navbahor","lat":"40.48104","lng":"70.77093"},{"label":"Navoiy","lat":"40.08444","lng":"65.37917"},{"label":"Nishon Tumani","lat":"38.69395","lng":"65.67512"},{"label":"Novyy Turtkul’","lat":"41.55","lng":"61.01667"},{"label":"Nukus","lat":"42.45306","lng":"59.61028"},{"label":"Nurobod Shahri","lat":"39.60861","lng":"66.28667"},{"label":"Nurota","lat":"40.56139","lng":"65.68861"},{"label":"Nurota Shahri","lat":"40.56762","lng":"65.67947"},{"label":"Ohangaron","lat":"40.90639","lng":"69.63833"},{"label":"Olmaliq","lat":"40.84472","lng":"69.59833"},{"label":"Olot Shahri","lat":"39.415","lng":"63.80333"},{"label":"Oltiariq","lat":"40.39194","lng":"71.47417"},{"label":"Oltinko‘l","lat":"43.06874","lng":"58.90372"},{"label":"Oltinko‘l","lat":"40.80104","lng":"72.17306"},{"label":"Oqmang‘it","lat":"42.59889","lng":"59.53444"},{"label":"Oqoltin","lat":"40.74649","lng":"71.70031"},{"label":"Oqqo‘rg‘on","lat":"40.8775","lng":"69.04583"},{"label":"Oqtosh","lat":"39.92139","lng":"65.92528"},{"label":"Oqtosh Shahri","lat":"39.92675","lng":"65.92953"},{"label":"Oxunboboyev","lat":"40.71984","lng":"72.64282"},{"label":"Oyim","lat":"40.81955","lng":"72.74234"},{"label":"Parkent","lat":"41.29444","lng":"69.67639"},{"label":"Paxtakor Shahri","lat":"40.31181","lng":"67.95667"},{"label":"Paxtaobod","lat":"40.92936","lng":"72.49687"},{"label":"Payariq Shahri","lat":"39.99249","lng":"66.85012"},{"label":"Payshamba Shahri","lat":"40.01136","lng":"66.23113"},{"label":"Piskent","lat":"40.89722","lng":"69.35056"},{"label":"Pop","lat":"40.87361","lng":"71.10889"},{"label":"Pop Shahri","lat":"40.87642","lng":"71.1022"},{"label":"Poytug‘","lat":"40.8977","lng":"72.2449"},{"label":"Qamashi Shahri","lat":"38.81998","lng":"66.46441"},{"label":"Qanliko‘l","lat":"42.8395","lng":"59.00093"},{"label":"Qarshi","lat":"38.86056","lng":"65.78905"},{"label":"Qibray","lat":"41.38972","lng":"69.465"},{"label":"Qizilcha","lat":"40.7107","lng":"66.13671"},{"label":"Qiziltepa","lat":"40.03306","lng":"64.85"},{"label":"Qiziltepa Shahri","lat":"40.0254","lng":"64.82885"},{"label":"Qo‘ng‘irot Shahri","lat":"43.05207","lng":"58.84596"},{"label":"Qo‘qon","lat":"40.52861","lng":"70.9425"},{"label":"Qo‘rg‘ontepa","lat":"40.73192","lng":"72.76177"},{"label":"Qo’shko’pir","lat":"41.53275","lng":"60.34698"},{"label":"Qo’shrabod","lat":"40.25363","lng":"66.68849"},{"label":"Qorako‘l Shahri","lat":"39.50699","lng":"63.84884"},{"label":"Qorao‘zak","lat":"43.02207","lng":"60.01701"},{"label":"Qorashina","lat":"38.34185","lng":"66.56342"},{"label":"Qorasuv","lat":"40.72782","lng":"72.88577"},{"label":"Qorovul","lat":"41.55384","lng":"60.58232"},{"label":"Qorovulbozor","lat":"39.50056","lng":"64.79361"},{"label":"Qorovulbozor Shahri","lat":"39.50308","lng":"64.81142"},{"label":"Qozonketkan","lat":"43.01907","lng":"59.36425"},{"label":"Qŭnghirot","lat":"43.04333","lng":"58.83944"},{"label":"Quva","lat":"40.52204","lng":"72.07292"},{"label":"Quvasoy","lat":"40.29721","lng":"71.98026"},{"label":"Ravon","lat":"39.97724","lng":"71.13467"},{"label":"Rishton","lat":"40.35667","lng":"71.28472"},{"label":"Romitan Shahri","lat":"39.92944","lng":"64.37944"},{"label":"Salor","lat":"41.37222","lng":"69.38167"},{"label":"Samarkand","lat":"39.65417","lng":"66.95972"},{"label":"Shahrisabz","lat":"39.05778","lng":"66.83417"},{"label":"Shahrisabz Shahri","lat":"39.05206","lng":"66.82083"},{"label":"Shahrixon","lat":"40.71331","lng":"72.05706"},{"label":"Sho‘rchi","lat":"37.99944","lng":"67.7875"},{"label":"Sho‘rsuv","lat":"40.28431","lng":"70.79972"},{"label":"Shofirkon Shahri","lat":"40.12","lng":"64.50139"},{"label":"Shohimardon","lat":"39.98322","lng":"71.80512"},{"label":"Shovot","lat":"41.65817","lng":"60.29451"},{"label":"Shumanay Shahri","lat":"42.63433","lng":"58.9306"},{"label":"Sirdaryo","lat":"40.84361","lng":"68.66167"},{"label":"Sultonobod","lat":"40.76461","lng":"72.97647"},{"label":"Tashkent","lat":"41.26465","lng":"69.21627"},{"label":"Taxtako‘pir","lat":"43.01171","lng":"60.30111"},{"label":"Tinchlik","lat":"40.47591","lng":"71.55089"},{"label":"Tirmiz","lat":"37.22417","lng":"67.27833"},{"label":"To‘rqao‘rg‘on","lat":"40.99984","lng":"71.51162"},{"label":"To‘rtko‘l Shahri","lat":"41.56055","lng":"61.0018"},{"label":"Tomdibuloq","lat":"41.7508","lng":"64.61711"},{"label":"Toshbuloq","lat":"40.91617","lng":"71.57819"},{"label":"Toshloq","lat":"40.47722","lng":"71.76778"},{"label":"Toyloq Qishlog’i","lat":"39.60139","lng":"67.09083"},{"label":"Tŭragŭrghon Shahri","lat":"41.00334","lng":"71.51056"},{"label":"Tŭytepa","lat":"41.0321","lng":"69.36253"},{"label":"Uchko‘prik","lat":"40.54222","lng":"71.06083"},{"label":"Uchkuduk","lat":"41.05","lng":"62.78333"},{"label":"Uchquduq Shahri","lat":"42.15001","lng":"63.55221"},{"label":"Uchqŭrghon Shahri","lat":"41.11371","lng":"72.07915"},{"label":"Uchtepa Qishlog’i","lat":"40.20447","lng":"67.90396"},{"label":"Urganch","lat":"41.55339","lng":"60.62057"},{"label":"Urgut Shahri","lat":"39.41902","lng":"67.26118"},{"label":"Ŭrtaowul","lat":"41.18667","lng":"69.14528"},{"label":"Usmat Shaharchasi","lat":"39.73982","lng":"67.6479"},{"label":"Uychi","lat":"41.08073","lng":"71.92331"},{"label":"Vobkent Shahri","lat":"40.00033","lng":"64.50213"},{"label":"Vodil","lat":"40.17424","lng":"71.73013"},{"label":"Xiva","lat":"41.38555","lng":"60.36408"},{"label":"Xo‘jaobod","lat":"40.66886","lng":"72.56002"},{"label":"Xo‘jayli Shahri","lat":"42.40881","lng":"59.44544"},{"label":"Xonobod","lat":"40.8026","lng":"72.97499"},{"label":"Xonqa","lat":"41.47783","lng":"60.78146"},{"label":"Yakkabog‘ Shahri","lat":"38.97664","lng":"66.68867"},{"label":"Yangi Marg‘ilon","lat":"40.42722","lng":"71.71889"},{"label":"Yangi Mirishkor","lat":"38.85143","lng":"65.27789"},{"label":"Yangi-Nishon Shahri","lat":"38.64501","lng":"65.68952"},{"label":"Yangiariq","lat":"41.36583","lng":"60.60438"},{"label":"Yangibozor","lat":"41.71157","lng":"60.53394"},{"label":"Yangibozor Qishlog’i","lat":"40.03839","lng":"64.38587"},{"label":"Yangiobod","lat":"41.11919","lng":"70.09406"},{"label":"Yangiqo‘rg‘on","lat":"41.19474","lng":"71.72385"},{"label":"Yangirabot","lat":"40.02539","lng":"65.96095"},{"label":"Yangiyer","lat":"40.275","lng":"68.8225"},{"label":"Yangiyŭl","lat":"41.11202","lng":"69.0471"},{"label":"Yaypan","lat":"40.37583","lng":"70.81556"},{"label":"Yozyovon","lat":"40.66139","lng":"71.74361"},{"label":"Zafar","lat":"40.98333","lng":"68.9"},{"label":"Zafarobod Shaharchasi","lat":"40.38903","lng":"67.82169"},{"label":"Zarbdor Shaharchasi","lat":"40.08083","lng":"68.16454"},{"label":"Ziyodin Shaharchasi","lat":"40.03106","lng":"65.66619"},{"label":"Zomin Shaharchasi","lat":"39.96056","lng":"68.39583"}]