[{"label":"Barrouallie","lat":"13.23676","lng":"-61.27275"},{"label":"Biabou","lat":"13.1943","lng":"-61.13904"},{"label":"Byera Village","lat":"13.25636","lng":"-61.11954"},{"label":"Chateaubelair","lat":"13.29069","lng":"-61.24043"},{"label":"Georgetown","lat":"13.28054","lng":"-61.1185"},{"label":"Kingstown","lat":"13.15527","lng":"-61.22742"},{"label":"Layou","lat":"13.20175","lng":"-61.27014"}]