[{"label":"‘Amd","lat":"15.3","lng":"47.98333"},{"label":"‘Amrān","lat":"15.6594","lng":"43.94385"},{"label":"‘Ubāl","lat":"14.98808","lng":"43.54444"},{"label":"‘Usaylān","lat":"15.03201","lng":"45.82832"},{"label":"Abs","lat":"16.00295","lng":"43.19725"},{"label":"Aḑ Ḑaḩī","lat":"15.21518","lng":"43.0702"},{"label":"Aḑ Ḑāli‘","lat":"13.69572","lng":"44.73137"},{"label":"Ad Dann","lat":"14.3518","lng":"43.85275"},{"label":"Aḑ Ḑil‘","lat":"14.67199","lng":"43.81827"},{"label":"Ad Dimnah","lat":"13.45398","lng":"44.18168"},{"label":"Ad Dīs ash Sharqīyah","lat":"14.9084","lng":"49.94847"},{"label":"Ad Durayhimī","lat":"14.63702","lng":"43.05505"},{"label":"Aden","lat":"12.77944","lng":"45.03667"},{"label":"Ahl Mohammed bin Ahmed","lat":"13.27733","lng":"45.39048"},{"label":"Aḩwar","lat":"13.52019","lng":"46.71367"},{"label":"Al ‘Abr","lat":"16.1377","lng":"47.23545"},{"label":"Al ‘Amūd","lat":"14.72103","lng":"45.20676"},{"label":"Al ‘Aqabah","lat":"14.27179","lng":"44.78699"},{"label":"Al ‘Āqir","lat":"14.56816","lng":"45.91156"},{"label":"Al ‘Ashshah","lat":"16.25652","lng":"43.85476"},{"label":"Al ‘Awābil","lat":"13.83755","lng":"44.86431"},{"label":"Al ‘Ayn","lat":"13.33005","lng":"44.09208"},{"label":"Al ‘Inān","lat":"16.72189","lng":"44.31252"},{"label":"Al ‘Udayn","lat":"13.96918","lng":"43.99673"},{"label":"Al ‘Ulayb","lat":"15.14747","lng":"49.07325"},{"label":"Al ‘Urrah","lat":"15.24666","lng":"43.88834"},{"label":"Al Aḩad","lat":"14.25833","lng":"43.64167"},{"label":"Al Aqţa‘","lat":"14.66217","lng":"45.35123"},{"label":"Al Bāţinah","lat":"15.48333","lng":"48.43333"},{"label":"Al Bayda","lat":"13.98523","lng":"45.57272"},{"label":"Al Bilād","lat":"16.13806","lng":"49.29167"},{"label":"Al Burayqah","lat":"12.73944","lng":"44.88417"},{"label":"Al Ghayl","lat":"16.10774","lng":"44.68005"},{"label":"Al Ghaylah","lat":"14.59583","lng":"45.58333"},{"label":"Al Ghayz̧ah","lat":"16.20787","lng":"52.17605"},{"label":"Al Ḩabīlayn","lat":"13.52002","lng":"44.85076"},{"label":"Al Ḩadīyah","lat":"14.52638","lng":"43.57045"},{"label":"Al Ḩajab","lat":"14.85192","lng":"45.52904"},{"label":"Al Ḩamdī","lat":"15.94727","lng":"48.77965"},{"label":"Al Ḩarf","lat":"16.36395","lng":"44.09421"},{"label":"Al Ḩarjah","lat":"15.48869","lng":"44.66573"},{"label":"Al Ḩashwah","lat":"16.90641","lng":"44.27622"},{"label":"Al Ḩayfah","lat":"15.73494","lng":"44.23788"},{"label":"Al Ḩazm","lat":"16.16406","lng":"44.77692"},{"label":"Al Ḩazm","lat":"14.68919","lng":"45.60962"},{"label":"Al Hijrah","lat":"17.29788","lng":"43.38718"},{"label":"Al Ḩudaydah","lat":"14.79781","lng":"42.95452"},{"label":"Al Ḩumaydāt","lat":"16.4844","lng":"44.42934"},{"label":"Al Ḩusayn","lat":"13.79199","lng":"44.76886"},{"label":"Al Ḩuşūn","lat":"15.4739","lng":"45.36691"},{"label":"Al Jabīn","lat":"14.70389","lng":"43.59917"},{"label":"Al Jamīmah","lat":"16.01787","lng":"43.59647"},{"label":"Al Jarrāḩī","lat":"14.13254","lng":"43.38845"},{"label":"Al Jawl","lat":"14.45625","lng":"48.28066"},{"label":"Al Jum‘ah","lat":"14.73779","lng":"43.96489"},{"label":"Al Jurbah","lat":"13.7915","lng":"45.15894"},{"label":"Al Khamīs","lat":"15.18533","lng":"43.51122"},{"label":"Al Khāniq","lat":"15.50253","lng":"44.18158"},{"label":"Al Kharāb","lat":"16.99129","lng":"43.33888"},{"label":"Al Khawkhah","lat":"13.8071","lng":"43.2493"},{"label":"Al Khirāb","lat":"16.5544","lng":"44.29048"},{"label":"Al Luḩayyah","lat":"15.70309","lng":"42.69093"},{"label":"Al Ma‘allā’","lat":"12.78987","lng":"45.00244"},{"label":"Āl Ma‘ūdah","lat":"14.21055","lng":"45.38732"},{"label":"Al Madakisha","lat":"13.23663","lng":"44.40565"},{"label":"Al Madān","lat":"16.22413","lng":"43.64383"},{"label":"Al Madīd","lat":"15.64453","lng":"44.47337"},{"label":"Al Madu","lat":"13.85668","lng":"44.8184"},{"label":"Al Māfūd","lat":"15.34264","lng":"47.25217"},{"label":"Al Maghrabah","lat":"15.87722","lng":"43.66667"},{"label":"Al Maḩābishah","lat":"15.94758","lng":"43.43587"},{"label":"Al Maḩfid","lat":"14.05847","lng":"46.91329"},{"label":"Al Maḩjal","lat":"16.71169","lng":"44.84769"},{"label":"Al Maḩwīt","lat":"15.47007","lng":"43.54481"},{"label":"Al Makhādir","lat":"14.12224","lng":"44.19797"},{"label":"Al Malāḩīţ","lat":"16.76848","lng":"43.27582"},{"label":"Al Manşūrah","lat":"12.86019","lng":"44.98166"},{"label":"Al Manşūrīyah","lat":"14.6856","lng":"43.29922"},{"label":"Al Marāwi‘ah","lat":"14.83069","lng":"43.15391"},{"label":"Al Masālīyah","lat":"13.53201","lng":"43.99564"},{"label":"Al Mashāf","lat":"16.85836","lng":"43.19781"},{"label":"Al Maşlūb","lat":"16.18271","lng":"44.62613"},{"label":"Al Matūn","lat":"16.23063","lng":"44.58476"},{"label":"Al Mayfa’ah","lat":"14.46392","lng":"44.54866"},{"label":"Al Miftāḩ","lat":"15.97431","lng":"43.46381"},{"label":"Al Mighlāf","lat":"15.28772","lng":"43.1891"},{"label":"Al Milāḩ","lat":"13.42611","lng":"44.82556"},{"label":"Al Mirwāḩ","lat":"15.47223","lng":"43.42939"},{"label":"Al Misrākh","lat":"13.46059","lng":"44.02043"},{"label":"Al Munīrah","lat":"15.32251","lng":"42.93005"},{"label":"Al Musaymīr","lat":"13.44389","lng":"44.61528"},{"label":"Al Nashmah","lat":"13.39028","lng":"43.96833"},{"label":"Al Qabyal","lat":"13.23672","lng":"44.4061"},{"label":"Al Qaflah","lat":"16.31897","lng":"43.76792"},{"label":"Al Qanāwiş","lat":"15.49285","lng":"43.1343"},{"label":"Al Qaţan","lat":"15.84056","lng":"48.45556"},{"label":"Al Qurayshīyah","lat":"14.5122","lng":"44.85358"},{"label":"Al Qurḩ","lat":"16.73333","lng":"51.48333"},{"label":"Al Shirūj","lat":"14.68526","lng":"47.76926"},{"label":"Al Wuday‘","lat":"13.7721","lng":"46.01785"},{"label":"AL-khashā upper","lat":"14.34044","lng":"46.71365"},{"label":"Al-Medy Village, قرية المدي","lat":"14.40152","lng":"43.79178"},{"label":"An Nādirah","lat":"14.09628","lng":"44.47559"},{"label":"An Najd","lat":"14.42152","lng":"45.29596"},{"label":"An Nāşirah","lat":"15.77277","lng":"43.80902"},{"label":"An Naz̧īr","lat":"16.90916","lng":"43.26226"},{"label":"Ar Raḑmah","lat":"14.21973","lng":"44.58657"},{"label":"Ar Ramādī","lat":"13.95641","lng":"43.78457"},{"label":"Ar Rawḑ","lat":"16.06145","lng":"44.81012"},{"label":"Ar Rawḑah","lat":"15.43251","lng":"44.22399"},{"label":"Ar Rawḑah","lat":"14.46725","lng":"47.27638"},{"label":"Ar Rawnah","lat":"13.75638","lng":"43.80286"},{"label":"Ar Raydah","lat":"15.035","lng":"50.47917"},{"label":"Ar Riḑā’ī","lat":"14.01712","lng":"44.39409"},{"label":"Ar Rubū‘","lat":"13.78024","lng":"43.86901"},{"label":"Ar Rujum","lat":"15.45776","lng":"43.63226"},{"label":"Aş Şa‘īd","lat":"14.33011","lng":"46.87292"},{"label":"As Saddah","lat":"14.1221","lng":"44.42139"},{"label":"Aş Şafaqayn","lat":"15.37922","lng":"43.42046"},{"label":"As Salāsil","lat":"16.47959","lng":"48.83153"},{"label":"Aş Şalīf","lat":"15.30755","lng":"42.67107"},{"label":"Aş Şalw","lat":"13.32887","lng":"44.21708"},{"label":"Aş Şarārah","lat":"15.79449","lng":"43.86997"},{"label":"As Sawādīyah","lat":"14.30113","lng":"45.22148"},{"label":"Aş Şawma‘ah","lat":"14.08505","lng":"45.80101"},{"label":"As Sayyānī","lat":"13.84266","lng":"44.17395"},{"label":"As Sūdah","lat":"15.95861","lng":"43.78083"},{"label":"As Sukhnah","lat":"14.79408","lng":"43.4362"},{"label":"As Sūq al Jadīd","lat":"15.82496","lng":"44.06204"},{"label":"As Suwaydā","lat":"13.78694","lng":"45.2304"},{"label":"Asdās","lat":"15.76601","lng":"45.08151"},{"label":"Ash Shaghādirah","lat":"15.62","lng":"43.52056"},{"label":"Ash Shāhil","lat":"15.86656","lng":"43.40495"},{"label":"Ash Sharyah","lat":"14.35659","lng":"45.02244"},{"label":"Ash Shaţţ","lat":"12.89357","lng":"44.03571"},{"label":"Ash Shawātī","lat":"16.78314","lng":"43.81265"},{"label":"Ash Shaykh ‘Uthmān","lat":"12.87678","lng":"44.99309"},{"label":"Ash Shiḩr","lat":"14.76026","lng":"49.60537"},{"label":"Ash Shuqayrah","lat":"13.13452","lng":"43.78636"},{"label":"Aslam","lat":"16.05961","lng":"43.32745"},{"label":"At Taḩāluf","lat":"15.93786","lng":"48.78641"},{"label":"Aţ Ţalḩ","lat":"15.156","lng":"47.39903"},{"label":"At Tawāhī","lat":"12.78471","lng":"44.9802"},{"label":"Aţ Ţawīlah","lat":"15.49389","lng":"43.74778"},{"label":"At Tuḩaytā’","lat":"14.18356","lng":"43.22637"},{"label":"At Turbah","lat":"13.2127","lng":"44.12415"},{"label":"Ataq","lat":"14.53767","lng":"46.83187"},{"label":"Az Zāhir","lat":"13.96667","lng":"45.48333"},{"label":"Az Zāhir","lat":"16.31733","lng":"44.49505"},{"label":"Az̧ Z̧alī‘ah","lat":"15.01667","lng":"48.01667"},{"label":"Az Zaydīyah","lat":"15.33049","lng":"43.00633"},{"label":"Az Zuhrah","lat":"15.72377","lng":"42.99582"},{"label":"Bājil","lat":"15.05898","lng":"43.28731"},{"label":"Banī al ‘Awwām","lat":"15.58119","lng":"43.58727"},{"label":"Banī an Nahārī","lat":"15.63981","lng":"43.55633"},{"label":"Banī Bakr","lat":"13.93333","lng":"45.26667"},{"label":"Banī Ḩujjāj","lat":"15.41683","lng":"43.3193"},{"label":"Bāqim as Sūq","lat":"17.39713","lng":"43.47743"},{"label":"Bayḩān","lat":"14.80067","lng":"45.71889"},{"label":"Bayt ‘Adhāqah","lat":"15.61576","lng":"43.70228"},{"label":"Bayt al Faqīh","lat":"14.51635","lng":"43.32446"},{"label":"Bayt Marrān","lat":"15.69312","lng":"44.2053"},{"label":"Bi’r Ḩāt","lat":"17.32197","lng":"52.09566"},{"label":"Bidbadah","lat":"15.425","lng":"44.7"},{"label":"Burūm","lat":"14.36361","lng":"48.97972"},{"label":"CPF","lat":"15.59166","lng":"49.13601"},{"label":"Crater","lat":"12.77522","lng":"45.03862"},{"label":"Dār an Nāşir","lat":"13.5571","lng":"44.01521"},{"label":"Ḑawrān","lat":"13.77436","lng":"44.44196"},{"label":"Ḑawrān ad Daydah","lat":"14.73927","lng":"44.20664"},{"label":"Dhamār","lat":"14.54274","lng":"44.40514"},{"label":"Dhaybīn","lat":"15.97712","lng":"44.12917"},{"label":"Dhī as Sufāl","lat":"13.83446","lng":"44.11469"},{"label":"Dhī Jalāl","lat":"13.62378","lng":"44.70754"},{"label":"Dhī Nā‘im","lat":"14.10574","lng":"45.44807"},{"label":"Dhubāb","lat":"12.94305","lng":"43.41025"},{"label":"Ḑubāh","lat":"14.49052","lng":"44.13108"},{"label":"Ghayl Bā Wazīr","lat":"14.77611","lng":"49.36611"},{"label":"Ḩabābah","lat":"15.54418","lng":"43.87563"},{"label":"Ḩabbān","lat":"14.35411","lng":"47.07649"},{"label":"Ḩabīl al Jabr","lat":"13.60422","lng":"44.98578"},{"label":"Ḩabīl ar Raydah","lat":"13.6444","lng":"44.85097"},{"label":"Ḩabūr","lat":"16.05097","lng":"43.70699"},{"label":"Ḩadādah","lat":"13.17535","lng":"44.27461"},{"label":"Hadibu","lat":"12.64881","lng":"54.01895"},{"label":"Ḩajar al Mashā’ikh","lat":"16.13951","lng":"47.8323"},{"label":"Ḩajjah","lat":"15.69425","lng":"43.60582"},{"label":"Ḩammām ‘Alī","lat":"14.66371","lng":"44.14763"},{"label":"Ḩammām Damt","lat":"14.09031","lng":"44.67006"},{"label":"Ḩaraḑ","lat":"16.40965","lng":"43.05883"},{"label":"Ḩarīb","lat":"14.93156","lng":"45.50356"},{"label":"Ḩaşwayn","lat":"15.59049","lng":"52.10077"},{"label":"Ḩawf","lat":"16.63383","lng":"53.03368"},{"label":"Ḩawrah","lat":"13.35751","lng":"44.1458"},{"label":"Ḩaydān","lat":"16.77899","lng":"43.43372"},{"label":"Ḩayfān","lat":"13.31778","lng":"44.28011"},{"label":"Ḩays","lat":"13.9317","lng":"43.4831"},{"label":"Ḩazm al ‘Udayn","lat":"14.02743","lng":"44.00526"},{"label":"Ḩişn Banī Sa‘d","lat":"16.27293","lng":"44.47728"},{"label":"Ḩurayḑah","lat":"15.59861","lng":"48.18278"},{"label":"Ḩūth","lat":"16.23114","lng":"43.96854"},{"label":"Ibb","lat":"13.96667","lng":"44.18333"},{"label":"Ja‘ār","lat":"13.223","lng":"45.30559"},{"label":"Jadder Cemetery","lat":"15.467","lng":"44.17787"},{"label":"Jawf al Maqbābah","lat":"13.83783","lng":"45.83488"},{"label":"Jawl al Majma‘","lat":"14.93278","lng":"47.02763"},{"label":"Jayshān","lat":"14.25204","lng":"46.17905"},{"label":"Jiblah","lat":"13.92162","lng":"44.14668"},{"label":"Jiḩānah","lat":"15.22628","lng":"44.48244"},{"label":"Juban","lat":"14.01164","lng":"44.8746"},{"label":"Judaydah","lat":"15.07512","lng":"45.29962"},{"label":"Khamir","lat":"15.98792","lng":"43.95362"},{"label":"Khawr Maksar","lat":"12.81227","lng":"45.03337"},{"label":"Khawrah","lat":"14.43201","lng":"46.15435"},{"label":"Khayrān","lat":"16.02191","lng":"43.37859"},{"label":"Khimār","lat":"14.3198","lng":"46.73922"},{"label":"Kilmia","lat":"12.18576","lng":"52.23332"},{"label":"Kirsh","lat":"13.36473","lng":"44.49046"},{"label":"Kitāf","lat":"17.03165","lng":"44.10905"},{"label":"Ku‘aydinah","lat":"15.82104","lng":"43.3372"},{"label":"Kuḩlān ‘Affār","lat":"15.73309","lng":"43.71902"},{"label":"Kushar","lat":"16.15523","lng":"43.42102"},{"label":"Kusmah","lat":"14.58175","lng":"43.63676"},{"label":"Laḩij","lat":"13.05667","lng":"44.88194"},{"label":"Lawdar","lat":"13.88282","lng":"45.86859"},{"label":"Ma‘bar","lat":"14.79395","lng":"44.29354"},{"label":"Ma'rib","lat":"15.46253","lng":"45.32581"},{"label":"Mabyan","lat":"15.73773","lng":"43.55701"},{"label":"Madghil","lat":"15.59858","lng":"45.04013"},{"label":"Madīnat Lab‘ūs","lat":"13.86667","lng":"45.25"},{"label":"Mafḩaq","lat":"15.10162","lng":"43.90304"},{"label":"Majz","lat":"17.06939","lng":"43.57507"},{"label":"Majzar","lat":"15.85","lng":"44.775"},{"label":"Manākhah","lat":"15.07422","lng":"43.74156"},{"label":"Maqbanah","lat":"13.66394","lng":"43.6873"},{"label":"Marbāţ","lat":"14.20567","lng":"46.38811"},{"label":"Markaz al Marīr","lat":"13.98178","lng":"43.59547"},{"label":"Markaz Bilād aţ Ţa‘ām","lat":"14.83361","lng":"43.53639"},{"label":"Markaz Mudhaykirah","lat":"13.88953","lng":"43.9688"},{"label":"Maswarah","lat":"14.34399","lng":"45.72623"},{"label":"Maţarah","lat":"15.52591","lng":"47.63339"},{"label":"Matnah","lat":"15.25333","lng":"44.02472"},{"label":"Matwaḩ","lat":"15.0676","lng":"43.64213"},{"label":"Māwiyah","lat":"13.58295","lng":"44.34768"},{"label":"Mawza‘","lat":"13.26831","lng":"43.50993"},{"label":"Mayfa‘ah","lat":"14.27533","lng":"47.58414"},{"label":"Mīdī","lat":"16.32101","lng":"42.81299"},{"label":"Milāḩ","lat":"14.41617","lng":"44.78622"},{"label":"Minwakh","lat":"16.80035","lng":"48.10854"},{"label":"Mūdīyah","lat":"13.9284","lng":"46.08254"},{"label":"Mukalla","lat":"14.54248","lng":"49.12424"},{"label":"Mukayrās","lat":"13.94427","lng":"45.67074"},{"label":"Mustabā’","lat":"16.22816","lng":"43.24895"},{"label":"Najd al Jamā‘ī","lat":"13.91577","lng":"44.32446"},{"label":"Nişāb","lat":"14.50743","lng":"46.49349"},{"label":"Qa‘ţabah","lat":"13.85493","lng":"44.7058"},{"label":"Qalansīyah","lat":"12.68958","lng":"53.48709"},{"label":"Qaryat ad Da‘īs","lat":"13.9877","lng":"44.2749"},{"label":"Qaryat al Qābil","lat":"15.45033","lng":"44.12768"},{"label":"Qishn","lat":"15.42409","lng":"51.67836"},{"label":"Radā‘","lat":"14.4151","lng":"44.83709"},{"label":"Raḩabah","lat":"14.8953","lng":"44.98893"},{"label":"Rajūzah","lat":"16.70056","lng":"44.41454"},{"label":"Raşad","lat":"13.71215","lng":"45.30318"},{"label":"Raydah","lat":"15.81421","lng":"44.04085"},{"label":"Riḩāb","lat":"14.22762","lng":"44.18814"},{"label":"Riqāb","lat":"14.88597","lng":"43.46491"},{"label":"Ruḑūm","lat":"14.0851","lng":"47.74314"},{"label":"Rumāh","lat":"17.45532","lng":"50.57789"},{"label":"Sa'dah","lat":"16.94021","lng":"43.76393"},{"label":"Sāh","lat":"15.57722","lng":"48.85056"},{"label":"Saḩar","lat":"15.31637","lng":"44.3088"},{"label":"Saḩḩab","lat":"15.60223","lng":"44.0242"},{"label":"Şanā’","lat":"15.4","lng":"47.76667"},{"label":"Sanaa","lat":"15.35472","lng":"44.20667"},{"label":"Sāqayn","lat":"16.877","lng":"43.52499"},{"label":"Sayḩūt","lat":"15.21056","lng":"51.24556"},{"label":"Sayyān","lat":"15.17177","lng":"44.32442"},{"label":"Shahārat al Ghīs","lat":"16.18411","lng":"43.70228"},{"label":"Sharas","lat":"15.71233","lng":"43.64925"},{"label":"Shibām","lat":"15.50943","lng":"43.90445"},{"label":"Shiḩan as Suflá","lat":"17.76999","lng":"52.48925"},{"label":"Şīf","lat":"15.31389","lng":"48.33"},{"label":"Sirār","lat":"13.63778","lng":"45.31371"},{"label":"Suḩayl Shibām","lat":"15.91448","lng":"48.63864"},{"label":"Sūq al Khamīs","lat":"17.18126","lng":"43.28811"},{"label":"Sūq ar Rubū‘","lat":"14.51155","lng":"44.01511"},{"label":"Sūq Shamar","lat":"15.885","lng":"43.36806"},{"label":"Sūq Sibāḩ","lat":"13.81436","lng":"45.39229"},{"label":"Sūq Şirwāḩ","lat":"15.44933","lng":"45.01891"},{"label":"Şuwayr","lat":"16.1818","lng":"43.60986"},{"label":"Taiz","lat":"13.57952","lng":"44.02091"},{"label":"Tarīm","lat":"16.05694","lng":"48.99889"},{"label":"Ţawr al Bāḩah","lat":"13.18179","lng":"44.29966"},{"label":"Thamūd","lat":"17.29245","lng":"49.91947"},{"label":"Village of ALAMRAH","lat":"13.74318","lng":"43.72992"},{"label":"Wa‘lān","lat":"15.07021","lng":"44.27641"},{"label":"Waḑarah","lat":"15.71073","lng":"43.48321"},{"label":"Washḩah","lat":"16.30774","lng":"43.41066"},{"label":"Yarīm","lat":"14.29804","lng":"44.37795"},{"label":"Yufrus","lat":"13.45529","lng":"43.94704"},{"label":"Zabīd","lat":"14.1951","lng":"43.31518"},{"label":"Zakhim","lat":"14.29496","lng":"44.68504"},{"label":"Z̧almah al ‘Ulyā","lat":"14.1023","lng":"44.09404"},{"label":"Zarājah","lat":"14.86692","lng":"44.37868"},{"label":"Zinjibār","lat":"13.12871","lng":"45.38073"}]