[{"label":"Acoua","lat":"-12.72391","lng":"45.05819"},{"label":"Bandraboua","lat":"-12.7044","lng":"45.12231"},{"label":"Bandrélé","lat":"-12.91276","lng":"45.19256"},{"label":"Barakani","lat":"-12.83799","lng":"45.1312"},{"label":"Bouéni","lat":"-12.9025","lng":"45.07611"},{"label":"Bouyouni","lat":"-12.73462","lng":"45.13914"},{"label":"Chembényoumba","lat":"-12.76472","lng":"45.07793"},{"label":"Chiconi","lat":"-12.83333","lng":"45.11056"},{"label":"Chirongui","lat":"-12.93194","lng":"45.14833"},{"label":"Combani","lat":"-12.8","lng":"45.16667"},{"label":"Dembeni","lat":"-12.8436","lng":"45.18436"},{"label":"Dzaoudzi","lat":"-12.78339","lng":"45.25693"},{"label":"Dzumogne","lat":"-12.71667","lng":"45.11667"},{"label":"Hajangoua","lat":"-12.86607","lng":"45.19857"},{"label":"Hamjago","lat":"-12.68832","lng":"45.0745"},{"label":"Hamouro","lat":"-12.8813","lng":"45.21494"},{"label":"Handréma","lat":"-12.68112","lng":"45.09965"},{"label":"Iloni","lat":"-12.84553","lng":"45.19037"},{"label":"Kahani","lat":"-12.82385","lng":"45.13141"},{"label":"Kangani","lat":"-12.73186","lng":"45.18694"},{"label":"Kani Kéli","lat":"-12.95361","lng":"45.10333"},{"label":"Kaouéni","lat":"-12.77121","lng":"45.22419"},{"label":"Kavani","lat":"-12.78447","lng":"45.22299"},{"label":"Koungou","lat":"-12.73361","lng":"45.20417"},{"label":"Labattoir","lat":"-12.77698","lng":"45.28234"},{"label":"Longoni","lat":"-12.73426","lng":"45.16298"},{"label":"M'Tsangamouji","lat":"-12.75944","lng":"45.08361"},{"label":"Majikavo Koropa","lat":"-12.74701","lng":"45.22058"},{"label":"Majikavo Lamir","lat":"-12.75572","lng":"45.22968"},{"label":"Mamoudzou","lat":"-12.78234","lng":"45.22878"},{"label":"Mangajou","lat":"-12.84404","lng":"45.11716"},{"label":"Miréréni","lat":"-12.78867","lng":"45.14113"},{"label":"Miréréni","lat":"-12.90708","lng":"45.15295"},{"label":"Mouanatrindri","lat":"-12.8996","lng":"45.09792"},{"label":"Mramadoudou","lat":"-12.92846","lng":"45.15324"},{"label":"Mtsahara","lat":"-12.68137","lng":"45.08274"},{"label":"Mtsamboro","lat":"-12.69982","lng":"45.06894"},{"label":"Mtsamoudou","lat":"-12.96232","lng":"45.17449"},{"label":"Mtsangadoua","lat":"-12.71112","lng":"45.05118"},{"label":"Mtsangamboua","lat":"-12.69033","lng":"45.10926"},{"label":"Mtsapéré","lat":"-12.78636","lng":"45.21732"},{"label":"Mzouazia","lat":"-12.92717","lng":"45.10336"},{"label":"Nyambadao","lat":"-12.89346","lng":"45.20214"},{"label":"Ongojou","lat":"-12.83883","lng":"45.16012"},{"label":"Ouangani","lat":"-12.84639","lng":"45.13611"},{"label":"Pamandzi","lat":"-12.79674","lng":"45.27938"},{"label":"Poroani","lat":"-12.89226","lng":"45.14121"},{"label":"Sada","lat":"-12.85055","lng":"45.10205"},{"label":"Sohoa","lat":"-12.82233","lng":"45.10552"},{"label":"Trévani","lat":"-12.73437","lng":"45.19861"},{"label":"Tsararano","lat":"-12.83528","lng":"45.17355"},{"label":"Tsimkoura","lat":"-12.93934","lng":"45.13739"},{"label":"Tsingoni","lat":"-12.78722","lng":"45.10278"},{"label":"Tsoundzou 1","lat":"-12.80615","lng":"45.2023"},{"label":"Tsoundzou 2","lat":"-12.81845","lng":"45.1972"},{"label":"Vahibé","lat":"-12.79024","lng":"45.17707"}]