[{"label":"Acoua","lat":"-12.72391","lng":"45.05819"},{"label":"Bandraboua","lat":"-12.7044","lng":"45.12231"},{"label":"Bandrélé","lat":"-12.91276","lng":"45.19256"},{"label":"Bouéni","lat":"-12.9025","lng":"45.07611"},{"label":"Chiconi","lat":"-12.83333","lng":"45.11056"},{"label":"Chirongui","lat":"-12.93194","lng":"45.14833"},{"label":"Dembeni","lat":"-12.8436","lng":"45.18436"},{"label":"Dzaoudzi","lat":"-12.78339","lng":"45.25693"},{"label":"Kani Kéli","lat":"-12.95361","lng":"45.10333"},{"label":"Koungou","lat":"-12.73361","lng":"45.20417"},{"label":"M'Tsangamouji","lat":"-12.75944","lng":"45.08361"},{"label":"Mamoudzou","lat":"-12.78234","lng":"45.22878"},{"label":"Mtsamboro","lat":"-12.69982","lng":"45.06894"},{"label":"Ouangani","lat":"-12.84639","lng":"45.13611"},{"label":"Sada","lat":"-12.85055","lng":"45.10205"},{"label":"Tsingoni","lat":"-12.78722","lng":"45.10278"}]