[{"label":"Chadiza","lat":"-14.06779","lng":"32.43917"},{"label":"Chama","lat":"-11.21303","lng":"33.1521"},{"label":"Chambishi","lat":"-12.63247","lng":"28.05367"},{"label":"Chibombo","lat":"-14.65685","lng":"28.07057"},{"label":"Chililabombwe","lat":"-12.36475","lng":"27.82286"},{"label":"Chingola","lat":"-12.52897","lng":"27.88382"},{"label":"Chinsali","lat":"-10.54142","lng":"32.08162"},{"label":"Chipata","lat":"-13.63333","lng":"32.65"},{"label":"Choma","lat":"-16.80889","lng":"26.9875"},{"label":"Chongwe","lat":"-15.32916","lng":"28.68204"},{"label":"Gwembe","lat":"-16.49755","lng":"27.60691"},{"label":"Isoka","lat":"-10.16062","lng":"32.63353"},{"label":"Kabompo","lat":"-13.59268","lng":"24.20081"},{"label":"Kabwe","lat":"-14.4469","lng":"28.44644"},{"label":"Kafue","lat":"-15.76911","lng":"28.18136"},{"label":"Kalabo","lat":"-14.99307","lng":"22.67926"},{"label":"Kalengwa","lat":"-13.46586","lng":"25.00271"},{"label":"Kalomo","lat":"-17.02581","lng":"26.48369"},{"label":"Kalulushi","lat":"-12.84151","lng":"28.09479"},{"label":"Kansanshi","lat":"-12.09514","lng":"26.42727"},{"label":"Kaoma","lat":"-14.78333","lng":"24.8"},{"label":"Kapiri Mposhi","lat":"-13.97147","lng":"28.66985"},{"label":"Kaputa","lat":"-8.46887","lng":"29.66193"},{"label":"Kasama","lat":"-10.21289","lng":"31.18084"},{"label":"Kasempa","lat":"-13.45836","lng":"25.8338"},{"label":"Kataba","lat":"-11.88333","lng":"29.78333"},{"label":"Kawambwa","lat":"-9.7915","lng":"29.07913"},{"label":"Kazungula","lat":"-17.79356","lng":"25.27473"},{"label":"Kitwe","lat":"-12.80243","lng":"28.21323"},{"label":"Limulunga","lat":"-15.09691","lng":"23.13757"},{"label":"Livingstone","lat":"-17.84194","lng":"25.85425"},{"label":"Luangwa","lat":"-15.61667","lng":"30.41667"},{"label":"Luanshya","lat":"-13.13667","lng":"28.41661"},{"label":"Lukulu","lat":"-14.37067","lng":"23.24196"},{"label":"Lundazi","lat":"-12.29292","lng":"33.1782"},{"label":"Lusaka","lat":"-15.40669","lng":"28.28713"},{"label":"Luwingu","lat":"-10.2621","lng":"29.92712"},{"label":"Maamba","lat":"-17.36667","lng":"27.15"},{"label":"Mansa","lat":"-11.19976","lng":"28.89431"},{"label":"Mazabuka","lat":"-15.85601","lng":"27.748"},{"label":"Mbala","lat":"-8.84024","lng":"31.36587"},{"label":"Mkushi","lat":"-13.62015","lng":"29.3939"},{"label":"Mongu","lat":"-15.24835","lng":"23.12741"},{"label":"Monze","lat":"-16.28333","lng":"27.48333"},{"label":"Mpika","lat":"-11.83431","lng":"31.45287"},{"label":"Mpongwe","lat":"-13.50914","lng":"28.15504"},{"label":"Mporokoso","lat":"-9.37273","lng":"30.12501"},{"label":"Mpulungu","lat":"-8.76234","lng":"31.11405"},{"label":"Mufulira","lat":"-12.54982","lng":"28.24071"},{"label":"Mufumbwe","lat":"-13.68333","lng":"24.8"},{"label":"Mumbwa","lat":"-14.98293","lng":"27.0619"},{"label":"Mungwi","lat":"-10.1732","lng":"31.36942"},{"label":"Mununga","lat":"-9.04865","lng":"29.04265"},{"label":"Mwense","lat":"-10.38447","lng":"28.698"},{"label":"Mwinilunga","lat":"-11.73584","lng":"24.42926"},{"label":"Nakambala","lat":"-15.83244","lng":"27.77994"},{"label":"Nakonde","lat":"-9.34213","lng":"32.745"},{"label":"Namwala","lat":"-15.75042","lng":"26.43839"},{"label":"Ndola","lat":"-12.95867","lng":"28.63659"},{"label":"Nyimba","lat":"-14.55656","lng":"30.8149"},{"label":"Petauke","lat":"-14.24117","lng":"31.31975"},{"label":"Samfya","lat":"-11.36491","lng":"29.55652"},{"label":"Senanga","lat":"-16.11667","lng":"23.26667"},{"label":"Serenje","lat":"-13.23251","lng":"30.23522"},{"label":"Sesheke","lat":"-17.47593","lng":"24.29684"},{"label":"Siavonga","lat":"-16.53818","lng":"28.70876"},{"label":"Sinazongwe","lat":"-17.2614","lng":"27.46179"},{"label":"Solwezi","lat":"-12.1688","lng":"26.38938"},{"label":"Zambezi","lat":"-13.54323","lng":"23.10467"}]